time(millisecond),datetime(utc),latitude,longitude,height_above_takeoff(feet),height_above_ground_at_drone_location(feet),ground_elevation_at_drone_location(feet),altitude_above_seaLevel(feet),height_sonar(feet),speed(mph),distance(feet),mileage(feet),satellites,gpslevel,voltage(v),max_altitude(feet),max_ascent(feet),max_speed(mph),max_distance(feet), xSpeed(mph), ySpeed(mph), zSpeed(mph), compass_heading(degrees), pitch(degrees), roll(degrees),wind_speed(mph),wind_direction(degrees),isPhoto,isVideo,rc_elevator,rc_aileron,rc_throttle,rc_rudder,rc_elevator(percent),rc_aileron(percent),rc_throttle(percent),rc_rudder(percent),gimbal_heading(degrees),gimbal_pitch(degrees),gimbal_roll(degrees),battery_percent,voltageCell1,voltageCell2,voltageCell3,voltageCell4,voltageCell5,voltageCell6,current(A),battery_temperature(f),altitude(feet),ascent(feet),flycStateRaw,flycState,message
100,2025-08-04 09:24:14,43.556765107143,-5.62078884739067,0,Available with any HD 360 subscription,Available with any HD 360 subscription,86.203813125976,0,0,0,0,23,5,0,86.203813125976,0,0,0,0,0,0,310.8, 2.9, 2.1,Available with Enterprise subscription,,0,0,364,364,364,1684,-100,-100,-100,100,310.9,0,0,100,4.257,4.256,4.236,4.256,0,0,0,83.48,86.203813125976,0,41,Motors_Started,"Flying over vegetation."
300,2025-08-04 09:24:14,43.556765113057,-5.62078884016262,0,,,86.203813125976,0,0,0.00288238854368,0.00288238854368,23,5,0,86.203813125976,0,0,0.00288238854368,0,0,0,310.8, 2.9, 2.1,,,0,0,364,364,364,1684,-100,-100,-100,100,310.9,0,0,100,4.257,4.256,4.236,4.256,0,0,0,83.48,86.203813125976,0,41,Motors_Started,
500,2025-08-04 09:24:14,43.5567651272454,-5.62078883645752,0,,,86.203813125976,0,0,0.0078834976276,0.008150918896,23,5,0,86.203813125976,0,0,0.0078834976276,0,0,0,310.8, 2.9, 2.1,,,0,0,364,364,364,1684,-100,-100,-100,100,310.9,0,0,100,4.257,4.256,4.236,4.256,0,0,0,83.48,86.203813125976,0,41,Motors_Started,"Setting new Return-To-Home altitude to 25m (82 ft). Data Recorder File Index is 197. Setting new Maximum Flight Altitude to 45m (148 ft)"
700,2025-08-04 09:24:15,43.5567651311011,-5.62078884006407,0,,,86.203813125976,0,0,0.0089531827012,0.009850394016,23,5,0,86.203813125976,0,0,0.0089531827012,0,0,0,310.9, 2.9, 2.1,,,0,0,364,364,364,1684,-100,-100,-100,100,310.9,0,0,100,4.257,4.256,4.236,4.256,0,0,0,83.48,86.203813125976,0,41,Motors_Started,
900,2025-08-04 09:24:15,43.5567651451375,-5.62078882797003,0,,,86.203813125976,0,0,0.0147827760636,0.0158879270176,23,5,0,86.203813125976,0,0,0.0147827760636,0,0,0,310.9, 2.9, 2.1,,,0,0,364,364,364,1684,-100,-100,-100,100,310.9,0,0,100,4.257,4.256,4.236,4.256,0,0,0,83.48,86.203813125976,0,41,Motors_Started,
1100,2025-08-04 09:24:15,43.5567651420422,-5.62078881616791,0,,,86.203813125976,0,0,0.0151749676772,0.019206529486,24,5,17.125,86.203813125976,0,0,0.0151749676772,0,0,0,310.9, 2.9, 2.1,,,0,0,364,364,364,1684,-100,-100,-100,100,310.9,0,0,100,4.257,4.256,4.236,4.256,0,0,1.695,83.48,86.203813125976,0,41,Motors_Started,
1300,2025-08-04 09:24:15,43.5567651239802,-5.62078882204427,0,,,86.203813125976,0,0,0.0090911748316,0.0259771005688,24,5,17.125,86.203813125976,0,0,0.0151749676772,0,0,0,310.9, 2.9, 2.1,,,0,0,364,364,364,1684,-100,-100,-100,100,310.9,0,0,100,4.257,4.256,4.236,4.256,0,0,1.695,83.48,86.203813125976,0,41,Motors_Started,
1500,2025-08-04 09:24:15,43.5567651192269,-5.62078882415928,0,,,86.203813125976,0,0,0.0075609254388,0.0277992791048,24,5,17.125,86.203813125976,0,0,0.0151749676772,0,0,0,311, 2.9, 2.1,,,0,0,364,364,364,1684,-100,-100,-100,100,310.9,0,0,100,4.257,4.256,4.236,4.256,0,0,1.695,83.48,86.203813125976,0,41,Motors_Started,
1700,2025-08-04 09:24:16,43.5567651145797,-5.6207888243244,0,,,86.203813125976,0,0,0.0066751314472,0.0294953749596,24,5,17.125,86.203813125976,0,0,0.0151749676772,0,0,0,310.9, 2.9, 2.1,,,0,0,1024,1024,1024,1024,0,0,0,0,310.9,0,0,100,4.257,4.256,4.236,4.256,0,0,1.695,83.48,86.203813125976,0,10,Assisted_Takeoff,
1900,2025-08-04 09:24:16,43.5567651094227,-5.62078882157626,0,,,86.203813125976,0,0,0.0068759188552,0.0315123369664,24,5,17.125,86.203813125976,0,0,0.0151749676772,0,0,0,310.9, 2.9, 2.1,,,0,0,1024,1024,1024,1024,0,0,0,0,310.9,0,0,100,4.257,4.256,4.236,4.256,0,0,1.695,83.48,86.203813125976,0,10,Assisted_Takeoff,
2100,2025-08-04 09:24:16,43.5567651022072,-5.62078883898771,0,,,86.203813125976,0,0,0.00285991478968,0.036815617976,24,5,16.977,86.203813125976,0,0,0.0151749676772,0,0,0,310.9, 2.9, 2.1,,,0,0,1024,1024,1024,1024,0,0,0,0,310.9,0,0,100,4.276,4.276,4.258,4.276,0,0,4.761,83.48,86.203813125976,0,10,Assisted_Takeoff,
2300,2025-08-04 09:24:16,43.5567650892153,-5.62078881164124,0,,,86.203813125976,0,0,0.0114947182156,0.045461287544,24,5,16.977,86.203813125976,0,0,0.0151749676772,0,0,0,310.9, 2.9, 2.1,,,0,0,1024,1024,1024,1024,0,0,0,0,310.9,0,0,100,4.276,4.276,4.258,4.276,0,0,4.761,83.48,86.203813125976,0,10,Assisted_Takeoff,
2500,2025-08-04 09:24:16,43.5567650925958,-5.62078878196488,0,,,86.203813125976,0,0,0.0180947184268,0.053404201184,24,5,16.977,86.203813125976,0,0,0.0180947184268,0,0,0,310.9, 2.9, 2.1,,,0,0,1024,1024,1024,1024,0,0,0,0,310.9,0,0,100,4.276,4.276,4.258,4.276,0,0,4.761,83.48,86.203813125976,0,10,Assisted_Takeoff,
2700,2025-08-04 09:24:16,43.5567651078001,-5.62078875907859,0,,,86.203813125976,0,0,0.0233512474664,0.061613190948,24,5,16.977,86.203813125976,0,0,0.0233512474664,0,0,0,311, 2.9, 2.1,,,0,0,1024,1024,1024,1024,0,0,0,0,310.9,0,0,100,4.276,4.276,4.258,4.276,0,0,4.761,83.48,86.203813125976,0,10,Assisted_Takeoff,
2900,2025-08-04 09:24:17,43.5567651199967,-5.62078873887807,0,,,86.203813125976,0,0,0.029071851324,0.068565290908,24,5,16.977,86.203813125976,0,0,0.029071851324,0,0,0,310.9, 2.9, 2.1,,,0,0,1024,1024,1024,1024,0,0,0,0,310.9,0,0,100,4.276,4.276,4.258,4.276,0,0,4.761,83.48,86.203813125976,0,10,Assisted_Takeoff,"Cambiado al modo-S (Sport)."
3100,2025-08-04 09:24:17,43.5567651286431,-5.62078872795297,0,,,86.203813125976,0,0,0.0325394039284,0.072842522016,24,5,17.092,86.203813125976,0,0,0.0325394039284,0,0,0,310.9, 2.9, 2.1,,,0,0,1024,1024,1024,1024,0,0,0,0,310.9,0,0,100,4.279,4.279,4.259,4.278,0,0,2.086,83.48,86.203813125976,0,10,Assisted_Takeoff,
3300,2025-08-04 09:24:17,43.5567651231811,-5.62078874636195,0,,,86.203813125976,0,0,0.0273457357832,0.07810203662,24,5,17.092,86.203813125976,0,0,0.0325394039284,0,0,0,310.9, 2.9, 2.1,,,0,0,1024,1024,1024,1024,0,0,0,0,310.9,0,0,100,4.279,4.279,4.259,4.278,0,0,2.086,83.48,86.203813125976,0,10,Assisted_Takeoff,
3500,2025-08-04 09:24:17,43.5567651239203,-5.62078874958639,0,,,86.203813125976,0,0,0.0265743774908,0.078996393604,24,5,17.092,86.203813125976,0,0,0.0325394039284,0,0,0,310.9, 2.9, 2.1,,,0,0,1024,1024,1024,1024,0,0,0,0,310.9,0,0,100,4.279,4.279,4.259,4.278,0,0,2.086,83.48,86.203813125976,0,10,Assisted_Takeoff,
3700,2025-08-04 09:24:17,43.556765125622,-5.62078878123257,0,,,86.203813125976,0,0,0.0187467525684,0.08738681382,24,5,17.092,86.203813125976,0,0,0.0325394039284,0,0,0,310.9, 2.9, 2.1,,,0,0,1024,1024,1024,1024,0,0,0,0,310.9,0,0,100,4.279,4.279,4.259,4.278,0,0,2.086,83.48,86.203813125976,0,10,Assisted_Takeoff,
3900,2025-08-04 09:24:18,43.5567651278719,-5.62078878943797,0,,,86.203813125976,0,0,0.0170876973972,0.0897063677,24,5,17.092,86.203813125976,0,0,0.0325394039284,0,0,0,311, 2.8, 2.2,,,0,0,1024,1024,1024,1024,0,0,0,0,310.9,0,0,100,4.279,4.279,4.259,4.278,0,0,2.086,83.48,86.203813125976,0,10,Assisted_Takeoff,
4100,2025-08-04 09:24:18,43.5567651043904,-5.62078883866347,0,,,86.203813125976,0,0,0.00251657160284,0.105288389196,24,5,17.091,86.203813125976,0,0,0.0325394039284,0,0,0,311, 2.8, 2.1,,,0,0,1024,1024,1024,1024,0,0,0,0,310.9,0,0,100,4.279,4.279,4.26,4.278,0,0,2.021,83.48,86.203813125976,0,10,Assisted_Takeoff,
4300,2025-08-04 09:24:18,43.556765124776,-5.62078882370043,0,,,86.203813125976,0,0,0.0089790685288,0.113712602064,24,5,17.091,86.203813125976,0,0,0.0325394039284,0,0,0,311, 2.8, 2.1,,,0,0,1024,1024,1024,1024,0,0,0,0,310.9,0,0,100,4.279,4.279,4.26,4.278,0,0,2.021,83.48,86.203813125976,0,10,Assisted_Takeoff,
4500,2025-08-04 09:24:18,43.5567651996932,-5.62078878361261,0,,,86.203813125976,0,0,0.037743439528,0.143029532136,24,5,17.091,86.203813125976,0,0,0.037743439528,0,0,0,311, 2.8, 2.1,,,0,0,1024,1024,1024,1024,0,0,0,0,310.9,0,0,100,4.279,4.279,4.26,4.278,0,0,2.021,83.48,86.203813125976,0,10,Assisted_Takeoff,
4700,2025-08-04 09:24:18,43.5567652299972,-5.62078876443699,0,,,86.203813125976,0,0,0.049901904484,0.155192918352,24,5,17.091,86.203813125976,0,0,0.049901904484,0,0,0,311, 2.8, 2.1,,,0,0,1319,1024,1024,1024,45,0,0,0,310.9,0,0,100,4.279,4.279,4.26,4.278,0,0,2.021,83.48,86.203813125976,0,10,Assisted_Takeoff,
4900,2025-08-04 09:24:19,43.556765246167,-5.62078877602025,0,,,86.203813125976,0,0,0.054119424304,0.161839900192,24,5,17.091,86.203813125976,0,0,0.054119424304,0,0,0,311, 2.8, 2.2,,,0,0,1682,1024,1024,1024,100,0,0,0,310.9,0,0,100,4.279,4.279,4.26,4.278,0,0,2.021,83.48,86.203813125976,0,10,Assisted_Takeoff,
5100,2025-08-04 09:24:19,43.5567652386128,-5.62078878060258,0,,,86.203813125976,0,0,0.051114174864,0.16485072706,24,5,17.091,86.203813125976,0,0,0.054119424304,0,0,0,311.1, 2.6, 2.2,,,0,0,1679,1024,1024,1024,99,0,0,0,310.9,0,0,100,4.279,4.278,4.259,4.277,0,0,2.015,83.48,86.203813125976,0,10,Assisted_Takeoff,
5300,2025-08-04 09:24:19,43.5567652128329,-5.62078878020705,0,,,86.203813125976,0,0,0.04245571002,0.17425689534,24,5,17.091,86.203813125976,0,0,0.054119424304,0,0,0,310.9, -1.6, 2.1,,,0,0,1680,1024,1024,1024,99,0,0,0,310.9,0,0,100,4.279,4.278,4.259,4.277,0,0,2.015,83.48,86.203813125976,0,10,Assisted_Takeoff,
5500,2025-08-04 09:24:19,43.5567654068907,-5.62078887752822,0,,,86.203813125976,0.328084,0.3131716,0.109652562564,0.249589903,24,5,17.091,86.203813125976,0,0.3131716,0.109652562564,0.223694,-0.223694,-0.894776,310.7, -2.7, -0.1,,,0,0,1680,1024,1024,1024,99,0,0,0,310.9,0,0,100,4.279,4.278,4.259,4.277,0,0,2.015,83.48,86.203813125976,0,31,Sport,
5700,2025-08-04 09:24:19,43.5567657361124,-5.62078926424966,0.328084,,,86.531897125976,0.656168,0.3131716,0.254575795548,0.4073326902,24,5,17.091,86.531897125976,0.328084,0.3131716,0.254575795548,0.223694,-0.223694,-2.23694,310.8, 4.1, -1.3,,,0,0,1680,1024,1024,1024,99,0,0,0,310.9,0,0,100,4.279,4.278,4.259,4.277,0,0,2.015,83.48,86.531897125976,0.328084,31,Sport,
5900,2025-08-04 09:24:20,43.5567658963411,-5.62078953477849,1.312336,,,87.516149125976,1.64042,0,0.3405019794,0.49971130208,26,5,17.091,87.516149125976,1.312336,0.3131716,0.3405019794,0,0,-3.802798,310.7, 3.3, 0,,,0,0,1680,1024,1024,1024,99,0,0,0,310.9,0,0,100,4.279,4.278,4.259,4.277,0,0,2.015,83.48,87.516149125976,1.312336,31,Sport,
6100,2025-08-04 09:24:20,43.5567659489679,-5.62078958009422,2.952756,,,89.156569125976,2.952756,0,0.36313321372,0.52234581724,26,5,17.044,89.156569125976,2.952756,0.3131716,0.36313321372,0,0,-5.59235,310.9, 2.4, 0,,,0,0,1680,1024,1024,1024,99,0,0,0,310.9,0,0,100,4.218,4.212,4.187,4.202,0,0,2.638,83.48,89.156569125976,2.952756,31,Sport,
6300,2025-08-04 09:24:20,43.5567658889675,-5.62078937541097,4.92126,,,91.125073125976,5.249344,0,0.317581046908,0.5807250842,26,5,17.044,91.125073125976,4.92126,0.3131716,0.36313321372,0,0,-7.82929,311.3, 0.8, 0.4,,,0,0,1677,1024,1024,1024,99,0,0,0,310.9,0,0,100,4.218,4.212,4.187,4.202,0,0,2.638,83.48,91.125073125976,4.92126,31,Sport,
6500,2025-08-04 09:24:20,43.5567658432977,-5.62078897630725,7.874016,,,94.077829125976,7.874016,0,0.27073983806,0.68755579628,26,5,17.044,94.077829125976,7.874016,0.3131716,0.36313321372,0,0,-9.842536,312.1, 0.2, -0.2,,,0,0,1625,1024,1024,1024,91,0,0,0,310.9,0,0,100,4.218,4.212,4.187,4.202,0,0,2.638,83.48,94.077829125976,7.874016,31,Sport,
6700,2025-08-04 09:24:20,43.556765782663,-5.62078874059426,10.498688,,,96.702501125976,11.154856,0,0.248075467256,0.75368768816,26,5,17.044,96.702501125976,10.498688,0.3131716,0.36313321372,0,0,-12.079476,312.5, 0.2, -0.6,,,0,0,1497,1024,1024,1024,72,0,0,0,310.9,0,0,100,4.218,4.212,4.187,4.202,0,0,2.638,83.48,96.702501125976,10.498688,31,Sport,
6900,2025-08-04 09:24:21,43.5567655602491,-5.62078858393323,14.76378,,,100.96759312598,14.76378,0,0.179392394192,0.84479661496,26,5,17.044,100.96759312598,14.76378,0.3131716,0.36313321372,0,0,-13.197946,312.6, -0.8, 0.2,,,0,0,1532,1024,1024,1024,77,0,0,0,310.9,0,0,100,4.218,4.212,4.187,4.202,0,0,2.638,83.48,100.96759312598,14.76378,31,Sport,
7100,2025-08-04 09:24:21,43.5567653460733,-5.62078849978604,18.700788,,,104.90460112598,18.372704,0,0.126673888568,0.92604333672,25,5,16.608,104.90460112598,18.700788,0.3131716,0.36313321372,0,0,-12.079476,312.5, -1.7, 1.3,,,0,0,1625,1024,1024,1024,91,0,0,0,310.9,0,0,100,4.123,4.124,4.1,4.118,0,0,13.69,83.3,104.90460112598,18.700788,31,Sport,
7300,2025-08-04 09:24:21,43.556765048271,-5.62078855002579,22.637796,,,108.84160912598,21.981628,0,0.081505580036,1.03550528248,25,5,16.608,108.84160912598,22.637796,0.3131716,0.36313321372,0,0,-12.079476,312.4, -2.2, 2,,,0,0,1514,1024,1024,1024,74,0,0,0,310.9,0,0,100,4.123,4.124,4.1,4.118,0,0,13.69,83.3,108.84160912598,22.637796,31,Sport,
7500,2025-08-04 09:24:21,43.5567649466345,-5.62078868965104,26.902888,,,113.10670112598,25.590552,0,0.071895015424,1.08783139964,24,5,16.608,113.10670112598,26.902888,0.3131716,0.36313321372,0,0,-13.42164,312.5, -1, 2.2,,,0,0,1140,1024,1024,1024,18,0,0,0,310.9,0,0,100,4.123,4.124,4.1,4.118,0,0,13.69,83.3,113.10670112598,26.902888,31,Sport,
7700,2025-08-04 09:24:21,43.5567648635855,-5.62078891482364,30.511812,,,116.71562512598,29.52756,0,0.090632876916,1.15463586372,24,5,16.608,116.71562512598,30.511812,0.3131716,0.36313321372,0,0,-12.30317,312.6, 0, 2.7,,,0,0,1024,1024,1024,1061,0,0,0,6,310.9,0,0,100,4.123,4.124,4.1,4.118,0,0,13.69,83.3,116.71562512598,30.511812,31,Sport,
7900,2025-08-04 09:24:22,43.5567648504608,-5.62078902112447,33.464568,,,119.66838112598,32.8084,0,0.104309714624,1.18314636332,24,5,16.608,119.66838112598,33.464568,0.3131716,0.36313321372,0,0,-10.289924,312.6, -1.5, 1.9,,,0,0,1024,1024,1099,1422,0,0,11,60,310.9,0,0,100,4.123,4.124,4.1,4.118,0,0,13.69,83.3,119.66838112598,33.464568,31,Sport,
8100,2025-08-04 09:24:22,43.5567648923077,-5.62078910406537,36.08924,,,122.29305312598,35.761156,0,0.103680121428,1.20986880512,25,5,16.688,122.29305312598,36.08924,0.3131716,0.36313321372,0,0,-8.052984,312.4, -1.4, 9.7,,,0,0,1024,1024,1288,1445,0,0,40,64,310.9,0,0,100,4.128,4.135,4.11,4.173,0,0,14.625,83.3,122.29305312598,36.08924,31,Sport,
8300,2025-08-04 09:24:22,43.5567650750032,-5.62078896139005,38.057744,,,124.26155712598,37.72966,0.223694,0.0323424222948,1.28646001492,24,5,16.688,124.26155712598,38.057744,0.3131716,0.36313321372,0.223694,0,-5.59235,311.3, -6.2, 26,,,0,0,1024,1024,1468,1598,0,0,67,87,310.9,0,0,100,4.128,4.135,4.11,4.173,0,0,14.625,83.3,124.26155712598,38.057744,31,Sport,
8500,2025-08-04 09:24:22,43.5567658303341,-5.62078837227478,39.37008,,,125.57389312598,38.713912,1.4092722,0.29223426132,1.60301514316,27,5,16.688,125.57389312598,39.37008,1.4092722,0.36313321372,1.342164,0.447388,-2.908022,308.6, -13.4, 32.1,,,0,0,1024,1024,1024,1024,0,0,0,0,310.9,0,0,100,4.128,4.135,4.11,4.173,0,0,14.625,83.3,125.57389312598,39.37008,31,Sport,
8700,2025-08-04 09:24:22,43.5567674315673,-5.62078743441565,39.37008,,,125.57389312598,39.041996,2.6172198,0.92670934724,2.23767395612,26,5,16.688,125.57389312598,39.37008,2.6172198,0.92670934724,2.460634,0.894776,-0.671082,309.2, -18.1, 29.8,,,0,0,1024,1024,1024,1024,0,0,0,0,310.9,0,0,100,4.128,4.135,4.11,4.173,0,0,14.625,83.3,125.57389312598,39.37008,31,Sport,
8900,2025-08-04 09:24:23,43.5567704429288,-5.62078568035207,39.041996,,,125.24580912598,39.041996,4.6752046,2.11921266624,3.4302494536,27,5,16.688,125.57389312598,39.37008,4.6752046,2.11921266624,4.47388,1.342164,0,312.7, -12.9, 19.6,,,0,0,1024,1024,1121,1024,0,0,15,0,310.9,0,0,100,4.128,4.135,4.11,4.173,0,0,14.625,83.3,125.24580912598,39.041996,31,Sport,
9100,2025-08-04 09:24:23,43.5567746381422,-5.62078385595915,39.041996,,,125.24580912598,39.041996,5.3239172,3.7193898828,5.0350723396,25,5,16.917,125.57389312598,39.37008,5.3239172,3.7193898828,5.144962,1.342164,0,308.6, 2.2, -7.9,,,0,0,1024,1024,1273,1024,0,0,38,0,310.9,0,0,100,4.232,4.238,4.218,4.236,0,0,6.719,83.66,125.24580912598,39.041996,31,Sport,
9300,2025-08-04 09:24:23,43.556778470282,-5.62078420951242,38.713912,,,124.91772512598,39.041996,4.026492,5.027395174,6.436351912,25,5,16.917,125.57389312598,39.37008,5.3239172,5.027395174,4.026492,0.223694,0,302.4, -1.3, -12.1,,,0,0,1024,1024,1351,1024,0,0,50,0,310.9,0,0,100,4.232,4.238,4.218,4.236,0,0,6.719,83.66,124.91772512598,38.713912,31,Sport,
9500,2025-08-04 09:24:23,43.5567815785371,-5.62078356427084,38.713912,,,124.91772512598,39.041996,3.131716,6.169783662,7.583169534,25,5,16.917,125.57389312598,39.37008,5.3239172,6.169783662,3.131716,0,0,309.2, -11.8, -6.2,,,0,0,1024,1024,1401,1024,0,0,57,0,310.9,0,0,100,4.232,4.238,4.218,4.236,0,0,6.719,83.66,124.91772512598,38.713912,31,Sport,
9700,2025-08-04 09:24:23,43.556784684236,-5.62078272114282,38.713912,,,124.91772512598,39.041996,3.4225182,7.3240487908,8.7379924056,25,5,16.917,125.57389312598,39.37008,5.3239172,7.3240487908,3.35541,-0.671082,0,310.5, -19.3, -0.7,,,0,0,1024,1024,1641,1024,0,0,93,0,310.9,0,0,100,4.232,4.238,4.218,4.236,0,0,6.719,83.66,124.91772512598,38.713912,31,Sport,
9900,2025-08-04 09:24:24,43.5567878121482,-5.62078425372498,39.041996,,,125.24580912598,39.041996,4.697574,8.3724740212,9.9490160664,25,5,16.917,125.57389312598,39.37008,5.3239172,8.3724740212,4.250186,-2.013246,0,312, -23.1, 2.6,,,0,0,1024,1024,1684,1024,0,0,100,0,310.9,0,0,100,4.232,4.238,4.218,4.236,0,0,6.719,83.66,125.24580912598,39.041996,31,Sport,
10100,2025-08-04 09:24:24,43.5567918367514,-5.62078711331451,39.041996,,,125.24580912598,39.041996,6.6437118,9.7630580552,11.6006237308,26,5,16.782,125.57389312598,39.37008,6.6437118,9.7630580552,5.59235,-3.579104,0,311.6, -31.5, 3.2,,,0,0,1024,1024,1684,1024,0,0,100,0,310.9,0,0,100,4.195,4.197,4.177,4.197,0,0,7.547,83.84,125.24580912598,39.041996,31,Sport,
10300,2025-08-04 09:24:24,43.556797148418,-5.62079235764585,39.041996,,,125.24580912598,39.041996,9.1267152,11.727034496,13.9835634396,24,5,16.782,125.57389312598,39.37008,9.1267152,11.727034496,7.381902,-5.368656,0,312.1, -34.4, 2.2,,,0,0,1024,1024,1684,1024,0,0,100,0,310.9,0,0,100,4.195,4.197,4.177,4.197,0,0,7.547,83.84,125.24580912598,39.041996,31,Sport,
10500,2025-08-04 09:24:24,43.5568043316641,-5.62079967885911,39.37008,,,125.57389312598,39.041996,11.7663044,14.5947839316,17.2417328352,24,5,16.782,125.57389312598,39.37008,11.7663044,14.5947839316,9.171454,-7.381902,0,313, -34.2, 2.7,,,0,0,1024,1024,1684,1024,0,0,100,0,310.9,0,0,100,4.195,4.197,4.177,4.197,0,0,7.547,83.84,125.57389312598,39.37008,31,Sport,
10700,2025-08-04 09:24:24,43.5568128754266,-5.62080911263483,39.37008,,,125.57389312598,39.041996,13.980875,18.2333011084,21.2340229892,23,5,16.782,125.57389312598,39.37008,13.980875,18.2333011084,10.737312,-8.94776,0,313.2, -34.2, 3.4,,,0,0,1024,1024,1684,1024,0,0,100,0,310.9,0,0,100,4.195,4.197,4.177,4.197,0,0,7.547,83.84,125.57389312598,39.37008,31,Sport,
10900,2025-08-04 09:24:25,43.556823532473,-5.62082086404553,39.37008,,,125.57389312598,39.041996,16.1507068,22.9358275056,26.2112213112,25,5,16.782,125.57389312598,39.37008,16.1507068,22.9358275056,12.079476,-10.737312,0,315.2, -34.2, 3.5,,,0,0,1024,1024,1643,1037,0,0,94,2,310.9,0,0,100,4.195,4.197,4.177,4.197,0,0,7.547,83.84,125.57389312598,39.37008,31,Sport,
11100,2025-08-04 09:24:25,43.5568327596945,-5.62083109929024,39.37008,,,125.57389312598,39.041996,18.2981692,27.0934063788,30.5306440216,25,5,16.685,125.57389312598,39.37008,18.2981692,27.0934063788,14.987498,-10.513618,0,320.4, -34.3, 3.1,,,0,0,1024,1024,1360,1684,0,0,51,100,310.9,0,0,100,4.167,4.17,4.149,4.168,0,0,9.229,83.84,125.57389312598,39.37008,31,Sport,
11300,2025-08-04 09:24:25,43.5568474981696,-5.6208440533537,39.698164,,,125.90197712598,39.041996,20.356154,33.416667736,36.90616916,26,5,16.685,125.90197712598,39.698164,20.356154,33.416667736,16.553356,-11.855782,0,316.6, -28.6, 15.7,,,0,0,1024,1024,1293,1684,0,0,41,100,310.9,0,0,100,4.167,4.17,4.149,4.168,0,0,9.229,83.84,125.90197712598,39.698164,31,Sport,"Flying over water."
11500,2025-08-04 09:24:25,43.5568598785725,-5.62085587875733,39.698164,,,125.90197712598,39.041996,21.6088404,38.85498812,42.399607656,25,5,16.685,125.90197712598,39.698164,21.6088404,38.85498812,18.342908,-11.408394,0,317.9, -11.6, 31.8,,,0,0,1024,1024,1269,1191,0,0,37,25,310.9,0,0,100,4.167,4.17,4.149,4.168,0,0,9.229,83.84,125.90197712598,39.698164,31,Sport,
11700,2025-08-04 09:24:25,43.5568773034113,-5.62086971780054,39.698164,,,125.90197712598,39.041996,21.7206874,46.18274426,49.734909728,26,5,16.685,125.90197712598,39.698164,21.7206874,46.18274426,19.685072,-9.171454,-0.223694,318.9, -3.2, 32,,,0,0,1024,1024,1024,1024,0,0,0,0,310.9,0,0,100,4.167,4.17,4.149,4.168,0,0,9.229,83.84,125.90197712598,39.698164,31,Sport,
11900,2025-08-04 09:24:26,43.5568948947894,-5.62088101842199,39.698164,,,125.90197712598,39.041996,21.362777,53.2562353,56.814634364,28,5,16.685,125.90197712598,39.698164,21.7206874,53.2562353,19.685072,-8.276678,-0.223694,317.6, 3.9, 12.4,,,0,0,1024,1024,1024,1024,0,0,0,0,310.9,0,0,100,4.167,4.17,4.149,4.168,0,0,9.229,83.84,125.90197712598,39.698164,31,Sport,
12100,2025-08-04 09:24:26,43.5569133948045,-5.62089201381459,40.026248,,,126.23006112598,39.041996,20.0653518,60.590225036,64.163715964,26,5,16.588,126.23006112598,40.026248,21.7206874,60.590225036,18.566602,-7.605596,-0.223694,314.7, 21.3, -11.1,,,0,0,1024,1024,1024,1098,0,0,0,11,310.9,0,0,100,4.177,4.179,4.162,4.185,0,0,11.542,83.84,126.23006112598,40.026248,31,Sport,
12300,2025-08-04 09:24:26,43.5569280266064,-5.62090002735747,40.026248,,,126.23006112598,39.041996,17.3586544,66.312666164,69.907154468,26,5,16.588,126.23006112598,40.026248,21.7206874,66.312666164,16.105968,-6.487126,0,316.1, 27, -20.9,,,0,0,1024,1024,1024,1024,0,0,0,0,310.9,0,0,100,4.177,4.179,4.162,4.185,0,0,11.542,83.84,126.23006112598,40.026248,31,Sport,
12500,2025-08-04 09:24:26,43.5569392011447,-5.62090721599436,40.026248,,,126.23006112598,39.041996,14.204569,70.810041636,74.405514192,26,5,16.588,126.23006112598,40.026248,21.7206874,70.810041636,12.750558,-6.263432,0,317.1, 32, -17.2,,,0,0,1024,1024,1024,1024,0,0,0,0,310.9,0,0,100,4.177,4.179,4.162,4.185,0,0,11.542,83.84,126.23006112598,40.026248,31,Sport,
12700,2025-08-04 09:24:26,43.5569439635187,-5.62091198933367,40.026248,,,126.23006112598,39.041996,11.1175918,72.927167688,76.553152056,26,5,16.588,126.23006112598,40.026248,21.7206874,72.927167688,9.618842,-5.59235,0,319.1, 33.1, -10.1,,,0,0,1024,1024,1024,1024,0,0,0,0,310.9,0,0,100,4.177,4.179,4.162,4.185,0,0,11.542,83.84,126.23006112598,40.026248,31,Sport,
12900,2025-08-04 09:24:27,43.5569497745005,-5.62091798512758,39.698164,,,125.90197712598,39.041996,8.3214168,75.533795068,79.200461852,23,5,16.588,126.23006112598,40.026248,21.7206874,75.533795068,6.71082,-4.921268,0.223694,319.9, 33.3, -4.2,,,0,0,1024,1024,1024,1024,0,0,0,0,310.9,0,0,100,4.177,4.179,4.162,4.185,0,0,11.542,83.84,125.90197712598,39.698164,31,Sport,
13100,2025-08-04 09:24:27,43.5569548139835,-5.62092291869601,39.698164,,,125.90197712598,39.041996,5.4133948,77.7641101,81.454727016,26,5,16.801,126.23006112598,40.026248,21.7206874,77.7641101,4.250186,-3.35541,0.223694,319.2, 35.7, 0.9,,,0,0,1024,1024,1024,1152,0,0,0,19,310.9,0,0,100,4.197,4.2,4.175,4.196,0,0,6.68,84.02,125.90197712598,39.698164,31,Sport,
13300,2025-08-04 09:24:27,43.5569581963058,-5.62092415784868,39.698164,,,125.90197712598,39.041996,2.4158952,79.012141636,82.731629944,28,5,16.801,126.23006112598,40.026248,21.7206874,79.012141636,2.013246,-1.342164,0,319.4, 22.7, 0.8,,,0,0,1024,1024,1024,1387,0,0,0,55,310.9,0,0,100,4.197,4.2,4.175,4.196,0,0,6.68,84.02,125.90197712598,39.698164,31,Sport,
13500,2025-08-04 09:24:27,43.5569580453574,-5.62092323989239,39.698164,,,125.90197712598,39.041996,0.9171454,78.853677064,82.980317616,27,5,16.801,126.23006112598,40.026248,21.7206874,79.012141636,0.894776,-0.223694,0,318.7, 6.8, 8.7,,,0,0,1024,1024,1028,1084,0,0,1,9,310.9,0,0,100,4.197,4.2,4.175,4.196,0,0,6.68,84.02,125.90197712598,39.698164,31,Sport,
13700,2025-08-04 09:24:27,43.5569588464466,-5.6209220831428,40.026248,,,126.23006112598,39.041996,1.4092722,78.977692816,83.403545976,27,5,16.801,126.23006112598,40.026248,21.7206874,79.012141636,1.342164,0.447388,0,318.1, 0.8, 21.9,,,0,0,1024,1024,1024,1024,0,0,0,0,310.9,0,0,100,4.197,4.2,4.175,4.196,0,0,6.68,84.02,126.23006112598,40.026248,31,Sport,
13900,2025-08-04 09:24:28,43.5569605111119,-5.62092050108266,40.026248,,,126.23006112598,39.041996,2.5501116,79.33727288,84.141078808,29,5,16.801,126.23006112598,40.026248,21.7206874,79.33727288,2.013246,1.565858,0,320.7, -0.2, 12.6,,,0,0,1024,1373,1024,1024,0,53,0,0,310.9,0,0,100,4.197,4.2,4.175,4.196,0,0,6.68,84.02,126.23006112598,40.026248,31,Sport,
14100,2025-08-04 09:24:28,43.5569620396659,-5.62091884731518,40.026248,,,126.23006112598,39.041996,2.23694,79.649280764,84.849740248,28,5,16.801,126.23006112598,40.026248,21.7206874,79.649280764,1.789552,1.342164,0,323.3, 2.4, -7.6,,,0,0,1024,1684,1024,1024,0,100,0,0,312.6,0,0,100,4.184,4.186,4.163,4.18,0,0,6.68,84.02,126.23006112598,40.026248,31,Sport,
14300,2025-08-04 09:24:28,43.5569633152743,-5.62091733246102,40.026248,,,126.23006112598,39.041996,1.11847,79.897968436,85.463585412,28,5,16.801,126.23006112598,40.026248,21.7206874,79.897968436,0.894776,0.671082,0,336.7, 5.7, -7.4,,,0,0,1024,1684,1024,1024,0,100,0,0,329.8,0,0,100,4.184,4.186,4.163,4.18,0,0,6.68,84.02,126.23006112598,40.026248,31,Sport,
14500,2025-08-04 09:24:28,43.5569642624452,-5.62091641483651,40.026248,,,126.23006112598,39.041996,0.6263432,80.108598364,85.88582952,28,5,16.801,126.23006112598,40.026248,21.7206874,80.108598364,0.447388,0.447388,0,356.7, 6.7, -0.3,,,0,0,1024,1684,1024,1024,0,100,0,0,350.6,0,0,100,4.184,4.186,4.163,4.18,0,0,6.68,84.02,126.23006112598,40.026248,31,Sport,
14700,2025-08-04 09:24:29,43.5569643147712,-5.6209158287197,40.026248,,,126.23006112598,39.041996,0.223694,80.0606981,86.041997504,28,5,16.801,126.23006112598,40.026248,21.7206874,80.108598364,0,0.223694,0,16, 2.9, 1.4,,,0,0,1024,1024,1024,1024,0,0,0,0,11.3,0,0,100,4.184,4.186,4.163,4.18,0,0,6.68,84.02,126.23006112598,40.026248,31,Sport,
14900,2025-08-04 09:24:29,43.5569640871662,-5.62091516046744,40.026248,,,126.23006112598,39.041996,0.3131716,79.91141988,86.237207484,27,5,16.801,126.23006112598,40.026248,21.7206874,80.108598364,-0.223694,0.223694,0,29.4, 1, 0,,,0,0,1024,1024,1024,1024,0,0,0,0,21.8,0,0,100,4.184,4.186,4.163,4.18,0,0,6.68,84.02,126.23006112598,40.026248,31,Sport,
15100,2025-08-04 09:24:29,43.5569636703701,-5.62091471798018,40.026248,,,126.23006112598,39.041996,0.4921268,79.724412,86.429136624,28,5,16.72,126.23006112598,40.026248,21.7206874,80.108598364,-0.447388,0.223694,0,28.9, -0.6, -2.6,,,0,0,1024,1024,1024,1024,0,0,0,0,21.8,0,0,99,4.189,4.191,4.172,4.189,0,0,9.054,84.2,126.23006112598,40.026248,31,Sport,
15300,2025-08-04 09:24:29,43.5569633155473,-5.62091477836423,40.026248,,,126.23006112598,39.041996,0.223694,79.613519608,86.559714056,28,5,16.72,126.23006112598,40.026248,21.7206874,80.108598364,-0.223694,0,0,29.4, -1.1, -2.5,,,0,0,1024,1024,1024,1024,0,0,0,0,21.8,0,0,99,4.189,4.191,4.172,4.189,0,0,9.054,84.2,126.23006112598,40.026248,31,Sport,
15500,2025-08-04 09:24:29,43.5569631226896,-5.62091504167442,40.026248,,,126.23006112598,39.041996,0.223694,79.578742704,86.65846734,29,5,16.72,126.23006112598,40.026248,21.7206874,80.108598364,-0.223694,0,0,29.1, -1.9, -1.7,,,0,0,1024,1024,1024,1024,0,0,0,0,20.7,0,0,99,4.189,4.191,4.172,4.189,0,0,9.054,84.2,126.23006112598,40.026248,31,Sport,
15700,2025-08-04 09:24:29,43.5569628849244,-5.62091545678328,40.026248,,,126.23006112598,39.041996,0.223694,79.545934304,86.798559208,29,5,16.72,126.23006112598,40.026248,21.7206874,80.108598364,-0.223694,0,0,25, -2.4, -1.6,,,0,0,975,419,1024,1024,-7,-92,0,0,17.7,0,0,99,4.189,4.191,4.172,4.189,0,0,9.054,84.2,126.23006112598,40.026248,31,Sport,
15900,2025-08-04 09:24:30,43.5569627238672,-5.62091584852122,39.698164,,,125.90197712598,39.041996,0.223694,79.536419868,86.9176537,29,5,16.72,126.23006112598,40.026248,21.7206874,80.108598364,0,-0.223694,0,24.9, -1.6, 0.1,,,0,0,1024,1024,1024,1024,0,0,0,0,12.9,0,0,99,4.189,4.191,4.172,4.189,0,0,9.054,84.2,125.90197712598,39.698164,31,Sport,
16100,2025-08-04 09:24:30,43.5569627002397,-5.62091624918416,39.698164,,,125.90197712598,39.041996,0.223694,79.57349336,87.023952916,28,5,16.719,126.23006112598,40.026248,21.7206874,80.108598364,0,-0.223694,0,12.5, -1.9, -0.2,,,0,0,1018,365,1024,1024,-1,-100,0,0,12.9,0,0,99,4.189,4.182,4.167,4.189,0,0,8.301,84.38,125.90197712598,39.698164,31,Sport,
16300,2025-08-04 09:24:30,43.5569626299056,-5.62091670506537,39.698164,,,125.90197712598,39.041996,0.223694,79.6013805,87.146984416,29,5,16.719,126.23006112598,40.026248,21.7206874,80.108598364,0,-0.223694,0,10.1, -3.1, 2.1,,,0,0,1006,624,1024,1024,-3,-61,0,0,357.9,0,0,99,4.189,4.182,4.167,4.189,0,0,8.301,84.38,125.90197712598,39.698164,31,Sport,
16500,2025-08-04 09:24:30,43.5569626309165,-5.62091711726566,39.698164,,,125.90197712598,39.041996,0.223694,79.647968428,87.255908304,28,5,16.719,126.23006112598,40.026248,21.7206874,80.108598364,0,-0.223694,0,0.6, -2.2, 1,,,0,0,1024,1024,1024,1024,0,0,0,0,351.7,0,0,99,4.189,4.182,4.167,4.189,0,0,8.301,84.38,125.90197712598,39.698164,31,Sport,
16700,2025-08-04 09:24:30,43.5569626636421,-5.62091741738768,39.698164,,,125.90197712598,39.041996,0.223694,79.692587852,87.336288884,28,5,16.719,126.23006112598,40.026248,21.7206874,80.108598364,0,-0.223694,0,351.4, -2.1, 2.5,,,0,0,1024,1024,1024,1024,0,0,0,0,344.2,0,0,99,4.189,4.182,4.167,4.189,0,0,8.301,84.38,125.90197712598,39.698164,31,Sport,
16900,2025-08-04 09:24:31,43.5569627566613,-5.62091770627911,39.698164,,,125.90197712598,39.041996,0,79.755908064,87.419950304,27,5,16.719,126.23006112598,40.026248,21.7206874,80.108598364,0,0,0,352.3, -1, 2.3,,,0,0,1024,1024,1024,1024,0,0,0,0,344.2,0,0,99,4.189,4.182,4.167,4.189,0,0,8.301,84.38,125.90197712598,39.698164,31,Sport,
17100,2025-08-04 09:24:31,43.5569628143164,-5.62091796172786,40.026248,,,126.23006112598,39.041996,0,79.803808328,87.490488364,28,5,16.745,126.23006112598,40.026248,21.7206874,80.108598364,0,0,0,352.1, -0.7, 2,,,0,0,1024,1024,1235,1058,0,0,32,5,344.2,0,0,99,4.184,4.186,4.165,4.185,0,0,7.72,84.38,126.23006112598,40.026248,31,Sport,
17300,2025-08-04 09:24:31,43.5569627668729,-5.62091819004669,40.026248,,,126.23006112598,39.041996,0,79.813978932,87.553480492,29,5,16.745,126.23006112598,40.026248,21.7206874,80.108598364,0,0,0,352, -2, 2.3,,,0,0,1024,1024,1024,1024,0,0,0,0,344.2,0,0,99,4.184,4.186,4.165,4.185,0,0,7.72,84.38,126.23006112598,40.026248,31,Sport,
17500,2025-08-04 09:24:31,43.5569628192681,-5.62091840776145,40.026248,,,126.23006112598,39.041996,0,79.855973684,87.614176032,27,5,16.745,126.23006112598,40.026248,21.7206874,80.108598364,0,0,0,351.9, -5.2, 2.6,,,0,0,1024,1024,1024,1024,0,0,0,0,344.2,0,0,99,4.184,4.186,4.165,4.185,0,0,7.72,84.38,126.23006112598,40.026248,31,Sport,
17700,2025-08-04 09:24:31,43.5569629943924,-5.62091861455349,40.026248,,,126.23006112598,39.041996,0.223694,79.937010432,87.698165536,27,5,16.745,126.23006112598,40.026248,21.7206874,80.108598364,0.223694,0,0,355.5, -1.1, 1.6,,,0,0,1024,1024,1024,1024,0,0,0,0,347.4,0,0,99,4.184,4.186,4.165,4.185,0,0,7.72,84.38,126.23006112598,40.026248,31,Sport,
17900,2025-08-04 09:24:32,43.5569632316605,-5.62091882679479,39.698164,,,125.90197712598,39.041996,0,80.03937264,87.801183912,27,5,16.745,126.23006112598,40.026248,21.7206874,80.108598364,0,0,0,355.2, 0.2, 2.1,,,0,0,1024,1024,1135,1024,0,0,17,0,347.4,0,0,99,4.184,4.186,4.165,4.185,0,0,7.72,84.38,125.90197712598,39.698164,31,Sport,
18100,2025-08-04 09:24:32,43.5569633702212,-5.62091902268747,39.698164,,,125.90197712598,39.041996,0,80.107286028,87.873690476,29,5,16.669,126.23006112598,40.026248,21.7206874,80.108598364,0,0,0,355.2, -1.3, 2.3,,,0,0,1024,1024,1024,1024,0,0,0,0,347.4,0,0,99,4.184,4.187,4.164,4.186,0,0,8.37,84.56,125.90197712598,39.698164,31,Sport,
18300,2025-08-04 09:24:32,43.5569634917339,-5.62091913222459,39.698164,,,125.90197712598,39.041996,0,80.159779468,87.926512,29,5,16.669,126.23006112598,40.026248,21.7206874,80.159779468,0,0,0,355.1, -3.3, 2.6,,,0,0,1024,502,1024,1024,0,-79,0,0,347.4,0,0,99,4.184,4.187,4.164,4.186,0,0,8.37,84.56,125.90197712598,39.698164,31,Sport,
18500,2025-08-04 09:24:32,43.5569637079621,-5.62091916041862,39.698164,,,125.90197712598,39.041996,0,80.234254536,88.005908328,27,5,16.669,126.23006112598,40.026248,21.7206874,80.234254536,0,0,0,352.2, -0.4, 1.5,,,0,0,1024,1024,1024,1024,0,0,0,0,341.5,0,0,99,4.184,4.187,4.164,4.186,0,0,8.37,84.56,125.90197712598,39.698164,31,Sport,
18700,2025-08-04 09:24:32,43.5569638203937,-5.62091925404419,39.698164,,,125.90197712598,39.041996,0,80.281826716,88.053808592,26,5,16.669,126.23006112598,40.026248,21.7206874,80.281826716,0,0,0,347, 0.1, 1.9,,,0,0,1024,806,1024,1024,0,-33,0,0,339.4,0,0,99,4.184,4.187,4.164,4.186,0,0,8.37,84.56,125.90197712598,39.698164,31,Sport,
18900,2025-08-04 09:24:33,43.5569638385384,-5.62091938734246,39.698164,,,125.90197712598,39.041996,0,80.302824092,88.089569748,28,5,16.669,126.23006112598,40.026248,21.7206874,80.302824092,0,0,0,345.4, 0.1, 3.6,,,0,0,1024,1024,1024,1024,0,0,0,0,333.5,0,0,99,4.184,4.187,4.164,4.186,0,0,8.37,84.56,125.90197712598,39.698164,31,Sport,
19100,2025-08-04 09:24:33,43.5569638275727,-5.62091936501166,39.698164,,,125.90197712598,39.041996,0,80.29691858,88.096787596,27,5,16.726,126.23006112598,40.026248,21.7206874,80.302824092,0,0,0,336.7, -1.2, 0.8,,,0,0,1024,1024,1024,1024,0,0,0,0,329.3,0,0,99,4.18,4.174,4.16,4.178,0,0,7.928,84.56,125.90197712598,39.698164,31,Sport,
19300,2025-08-04 09:24:33,43.5569637087158,-5.62091933698313,39.698164,,,125.90197712598,39.041996,0,80.254595744,88.140750852,26,5,16.726,126.23006112598,40.026248,21.7206874,80.302824092,0,0,0,337, -1.2, 1.3,,,0,0,1024,1024,1024,1024,0,0,0,0,329.3,0,0,99,4.18,4.174,4.16,4.178,0,0,7.928,84.56,125.90197712598,39.698164,31,Sport,
19500,2025-08-04 09:24:33,43.5569636233554,-5.62091946614385,39.698164,,,125.90197712598,39.041996,0,80.2411443,88.187010696,27,5,16.726,126.23006112598,40.026248,21.7206874,80.302824092,0,0,0,331.7, -1, 2,,,0,0,1024,1024,1120,1137,0,0,15,17,324.3,0,0,99,4.18,4.174,4.16,4.178,0,0,7.928,84.56,125.90197712598,39.698164,31,Sport,
19700,2025-08-04 09:24:33,43.5569634320741,-5.62091963709333,39.698164,,,125.90197712598,39.041996,0,80.197509128,88.270344032,28,5,16.726,126.23006112598,40.026248,21.7206874,80.302824092,0,0,0,332.1, -0.3, 2.3,,,0,0,1024,1024,1314,1301,0,0,44,42,324.3,0,0,99,4.18,4.174,4.16,4.178,0,0,7.928,84.56,125.90197712598,39.698164,31,Sport,
19900,2025-08-04 09:24:34,43.5569633362279,-5.6209198242262,39.698164,,,125.90197712598,39.041996,0,80.187338524,88.330711488,28,5,16.726,126.23006112598,40.026248,21.7206874,80.302824092,0,0,0,331.8, -5.6, 7.7,,,0,0,1024,1024,1502,1320,0,0,72,45,324.3,0,0,99,4.18,4.174,4.16,4.178,0,0,7.928,84.56,125.90197712598,39.698164,31,Sport,
20100,2025-08-04 09:24:34,43.556963612031,-5.62091992113795,39.698164,,,125.90197712598,39.041996,0.894776,80.289044564,88.434714116,29,5,16.71,126.23006112598,40.026248,21.7206874,80.302824092,0.894776,0,0,329.7, -20.1, 15.2,,,0,0,1024,1024,1513,1292,0,0,74,41,324.3,0,0,99,4.179,4.18,4.159,4.177,0,0,7.962,84.56,125.90197712598,39.698164,31,Sport,
20300,2025-08-04 09:24:34,43.5569653005471,-5.6209198528574,39.698164,,,125.90197712598,39.041996,2.908022,80.837601012,89.050855868,28,5,16.71,126.23006112598,40.026248,21.7206874,80.837601012,2.908022,0,0,328.2, -27.3, 17.5,,,0,0,1024,1024,1525,1270,0,0,76,37,324.3,0,0,99,4.179,4.18,4.159,4.177,0,0,7.962,84.56,125.90197712598,39.698164,31,Sport,"Se ha alcanzado el límite del eje de inclinación del estabilizador 1"
20500,2025-08-04 09:24:34,43.5569690082432,-5.6209198106078,39.698164,,,125.90197712598,39.041996,5.368656,82.05708924,90.403874284,28,5,16.71,126.23006112598,40.026248,21.7206874,82.05708924,5.368656,0,0,329.1, -28.3, 14.1,,,0,0,1024,1024,1582,1123,0,0,85,15,324.3,-3.9,0,99,4.179,4.18,4.159,4.177,0,0,7.962,84.56,125.90197712598,39.698164,31,Sport,
20700,2025-08-04 09:24:34,43.5569744061333,-5.62092010516227,39.698164,,,125.90197712598,39.041996,7.82929,83.878939692,92.374674872,27,5,16.71,126.23006112598,40.026248,21.7206874,83.878939692,7.82929,-0.223694,0,329.9, -28.1, 11.1,,,0,0,1024,1024,1556,1093,0,0,81,10,324.3,-3.9,0,99,4.179,4.18,4.159,4.177,0,0,7.962,84.56,125.90197712598,39.698164,31,Sport,
20900,2025-08-04 09:24:35,43.5569822713019,-5.62092083818478,39.698164,,,125.90197712598,39.041996,9.6635808,86.577430592,95.250659216,27,5,16.71,126.23006112598,40.026248,21.7206874,86.577430592,9.618842,-0.894776,0,331.4, -29.4, 4.7,,,0,0,1024,1024,1406,1024,0,0,58,0,324.3,-3.9,0,99,4.179,4.18,4.159,4.177,0,0,7.962,84.56,125.90197712598,39.698164,31,Sport,
21100,2025-08-04 09:24:35,43.5569910607168,-5.62092240133063,39.698164,,,125.90197712598,39.041996,11.5426104,89.68340182,98.48425512,22,5,16.71,126.23006112598,40.026248,21.7206874,89.68340182,11.408394,-1.789552,0,332.3, -29.8, -0.3,,,0,0,1024,1024,1257,1024,0,0,35,0,324.3,-3.9,0,99,4.179,4.18,4.159,4.177,0,0,7.962,84.56,125.90197712598,39.698164,31,Sport,
21300,2025-08-04 09:24:35,43.5570016344927,-5.62092505509638,39.698164,,,125.90197712598,39.041996,13.086099,93.510173596,102.405187004,25,5,16.619,126.23006112598,40.026248,21.7206874,93.510173596,12.750558,-2.908022,0,332.1, -21, -0.5,,,0,0,1024,1024,1024,1024,0,0,0,0,324.3,-3.9,0,99,4.16,4.162,4.142,4.162,0,0,9.286,84.74,125.90197712598,39.698164,31,Sport,
21500,2025-08-04 09:24:35,43.5570126611605,-5.62092880190218,39.698164,,,125.90197712598,39.041996,13.6677034,97.606302336,106.54855984,25,5,16.619,126.23006112598,40.026248,21.7206874,97.606302336,13.197946,-3.579104,-0.223694,332.1, -3, 0.4,,,0,0,1024,1024,1024,1024,0,0,0,0,324.3,-3.9,0,99,4.16,4.162,4.142,4.162,0,0,9.286,84.74,125.90197712598,39.698164,31,Sport,
21700,2025-08-04 09:24:36,43.5570235033738,-5.62093258883324,40.026248,,,126.23006112598,39.041996,12.5939722,101.647969132,110.628940548,27,5,16.619,126.23006112598,40.026248,21.7206874,101.647969132,12.079476,-3.579104,0,330.8, 25.9, -6.8,,,0,0,1024,1024,1024,1024,0,0,0,0,324.3,-3.9,0,99,4.16,4.162,4.142,4.162,0,0,9.286,84.74,126.23006112598,40.026248,31,Sport,
21900,2025-08-04 09:24:36,43.5570324173482,-5.62093597053538,40.026248,,,126.23006112598,39.041996,9.7754278,104.999675276,114.001972152,26,5,16.619,126.23006112598,40.026248,21.7206874,104.999675276,9.395148,-2.684328,0,329, 32.2, -11.9,,,0,0,1024,1024,1295,1194,0,0,41,26,324.3,-3.9,0,99,4.16,4.162,4.142,4.162,0,0,9.286,84.74,126.23006112598,40.026248,31,Sport,
22100,2025-08-04 09:24:36,43.5570388316804,-5.62093851346294,40.026248,,,126.23006112598,39.041996,6.8674058,107.422575616,116.4370116,27,5,16.619,126.23006112598,40.026248,21.7206874,107.422575616,6.487126,-2.23694,0,330.6, 32.4, -7.7,,,0,0,1024,1024,1328,1360,0,0,46,51,324.3,-3.9,0,99,4.16,4.162,4.142,4.162,0,0,9.286,84.74,126.23006112598,40.026248,31,Sport,
22300,2025-08-04 09:24:36,43.5570428639532,-5.62094040009838,40.026248,,,126.23006112598,39.041996,4.250186,108.974084852,117.99048934,28,5,16.721,126.23006112598,40.026248,21.7206874,108.974084852,4.026492,-1.342164,0.223694,332.9, 15.7, 6.4,,,0,0,1024,1024,1383,1356,0,0,54,50,324.3,-3.9,0,99,4.185,4.184,4.163,4.183,0,0,8.736,84.92,126.23006112598,40.026248,31,Sport,
22500,2025-08-04 09:24:36,43.55704234276,-5.62093973030795,40.026248,,,126.23006112598,39.041996,3.8251674,108.732286944,118.250331868,27,5,16.721,126.23006112598,40.026248,21.7206874,108.974084852,3.802798,-0.447388,0,329.4, -7.7, 17.2,,,0,0,1024,1024,1382,1356,0,0,54,50,324.3,-3.9,0,99,4.185,4.184,4.163,4.183,0,0,8.736,84.92,126.23006112598,40.026248,31,Sport,
22700,2025-08-04 09:24:37,43.5570462039065,-5.62094008817704,40.026248,,,126.23006112598,39.041996,4.921268,110.078087512,119.66207732,29,5,16.721,126.23006112598,40.026248,21.7206874,110.078087512,4.921268,0,0,329.3, -16.5, 20.9,,,0,0,1024,1024,1383,1338,0,0,54,48,324.3,-3.9,0,99,4.185,4.184,4.163,4.183,0,0,8.736,84.92,126.23006112598,40.026248,31,Sport,
22900,2025-08-04 09:24:37,43.5570515902846,-5.62094017612738,40.026248,,,126.23006112598,39.041996,6.9568834,111.919951088,121.627628564,26,5,16.721,126.23006112598,40.026248,21.7206874,111.919951088,6.934514,0.447388,0,329.8, -17.3, 20.6,,,0,0,1024,1024,1394,1340,0,0,56,48,324.3,-4,0,99,4.185,4.184,4.163,4.183,0,0,8.736,84.92,126.23006112598,40.026248,31,Sport,
23100,2025-08-04 09:24:37,43.5570579096086,-5.62093926408173,40.026248,,,126.23006112598,39.041996,8.5674802,113.991801548,123.945542024,26,5,16.721,126.23006112598,40.026248,21.7206874,113.991801548,8.500372,1.11847,0,330.4, -16.5, 17.9,,,0,0,1024,1024,1389,1240,0,0,55,33,324.3,-5,0,99,4.185,4.184,4.163,4.183,0,0,8.736,84.92,126.23006112598,40.026248,31,Sport,
23300,2025-08-04 09:24:37,43.5570659368139,-5.62093790489019,40.026248,,,126.23006112598,39.041996,9.9767524,116.618770136,126.89632952,26,5,16.663,126.23006112598,40.026248,21.7206874,116.618770136,9.842536,1.565858,0,330.8, -17.7, 13.6,,,0,0,1024,1024,1391,1227,0,0,56,31,324.3,-5,0,99,4.162,4.165,4.144,4.164,0,0,8.285,84.92,126.23006112598,40.026248,31,Sport,
23500,2025-08-04 09:24:37,43.5570731144524,-5.62093640601948,40.026248,,,126.23006112598,39.041996,11.0504836,118.956368636,129.544951652,26,5,16.663,126.23006112598,40.026248,21.7206874,118.956368636,10.961006,1.342164,0,331.1, -17.9, 9.5,,,0,0,1024,1024,1391,1226,0,0,56,31,324.3,-5.6,0,99,4.162,4.165,4.144,4.164,0,0,8.285,84.92,126.23006112598,40.026248,31,Sport,
23700,2025-08-04 09:24:37,43.5570830713613,-5.62093474402426,40.026248,,,126.23006112598,39.041996,11.9005208,122.254597088,133.204072504,24,5,16.663,126.23006112598,40.026248,21.7206874,122.254597088,11.855782,1.11847,0,331.3, -18.3, 7.8,,,0,0,1024,1024,1401,1269,0,0,57,37,324.3,-5.6,0,99,4.162,4.165,4.144,4.164,0,0,8.285,84.92,126.23006112598,40.026248,31,Sport,
23900,2025-08-04 09:24:38,43.5570936293568,-5.62093333536203,40.026248,,,126.23006112598,39.041996,12.7729274,125.80216938,137.074151368,24,5,16.663,126.23006112598,40.026248,21.7206874,125.80216938,12.750558,0.671082,0,331.2, -18.4, 7.8,,,0,0,1024,1024,1396,1292,0,0,56,41,324.3,-5.8,0,99,4.162,4.165,4.144,4.164,0,0,8.285,84.92,126.23006112598,40.026248,31,Sport,
24100,2025-08-04 09:24:38,43.557105261849,-5.62093217504342,40.026248,,,126.23006112598,39.041996,13.42164,129.76214326,141.329400848,25,5,16.663,126.23006112598,40.026248,21.7206874,129.76214326,13.42164,0.447388,0,330.8, -18.5, 10.3,,,0,0,1024,1024,1393,1277,0,0,56,38,324.3,-5.8,0,99,4.162,4.165,4.144,4.164,0,0,8.285,84.92,126.23006112598,40.026248,31,Sport,
24300,2025-08-04 09:24:38,43.5571167673075,-5.6209314179296,40.026248,,,126.23006112598,39.041996,14.316416,133.726054148,145.531828804,22,5,16.664,126.23006112598,40.026248,21.7206874,133.726054148,14.316416,0.447388,0,330.5, -18.1, 13,,,0,0,1024,1024,1463,1288,0,0,67,40,324.3,-8.7,0,99,4.169,4.172,4.152,4.172,0,0,8.916,84.92,126.23006112598,40.026248,31,Sport,
24500,2025-08-04 09:24:38,43.55712937268,-5.62093060754868,40.026248,,,126.23006112598,39.041996,15.211192,138.086290508,150.135831576,22,5,16.664,126.23006112598,40.026248,21.7206874,138.086290508,15.211192,0.447388,0,330.2, -18.6, 13.3,,,0,0,1024,1024,1463,1260,0,0,67,36,324.3,-9.7,0,99,4.169,4.172,4.152,4.172,0,0,8.916,84.92,126.23006112598,40.026248,31,Sport,
24700,2025-08-04 09:24:38,43.557139399666,-5.62093001119404,40.026248,,,126.23006112598,39.041996,16.329662,141.569230252,153.7975771,22,5,16.664,126.23006112598,40.026248,21.7206874,141.569230252,16.329662,0.447388,0,330.3, -21.3, 12.4,,,0,0,1024,1024,1464,1152,0,0,67,19,324.3,-9.8,0,99,4.169,4.172,4.152,4.172,0,0,8.916,84.92,126.23006112598,40.026248,31,Sport,
24900,2025-08-04 09:24:39,43.5571534127531,-5.62092918731306,40.026248,,,126.23006112598,39.041996,17.224438,146.45177634,158.915031332,22,5,16.664,126.23006112598,40.026248,21.7206874,146.45177634,17.224438,0.223694,0,330.9, -22.5, 8.1,,,0,0,1024,1024,1457,1145,0,0,66,18,324.3,-9.8,0,99,4.169,4.172,4.152,4.172,0,0,8.916,84.92,126.23006112598,40.026248,31,Sport,
25100,2025-08-04 09:24:39,43.5571687875971,-5.62092892005541,40.026248,,,126.23006112598,39.041996,18.342908,151.867787012,164.524939648,22,5,16.664,126.23006112598,40.026248,21.7206874,151.867787012,18.342908,0,0,331.7, -22, 3.2,,,0,0,1024,1024,1475,1140,0,0,68,18,324.3,-9.8,0,99,4.169,4.172,4.152,4.172,0,0,8.916,84.92,126.23006112598,40.026248,31,Sport,
25300,2025-08-04 09:24:39,43.5571854998742,-5.62092927292614,40.026248,,,126.23006112598,39.041996,19.0363594,157.81004442,170.623036956,22,5,16.628,126.23006112598,40.026248,21.7206874,157.81004442,19.01399,-0.894776,0,331.7, -21.5, 1.9,,,0,0,1024,1024,1487,1113,0,0,70,13,324.3,-9.8,0,99,4.157,4.162,4.141,4.162,0,0,8.941,84.92,126.23006112598,40.026248,31,Sport,
25500,2025-08-04 09:24:39,43.55720017586,-5.62093074910128,40.026248,,,126.23006112598,39.041996,19.5284862,163.108272936,175.991803532,22,5,16.628,126.23006112598,40.026248,21.7206874,163.108272936,19.461378,-1.565858,0,331.6, -21.9, 2.3,,,0,0,1024,1024,1529,1053,0,0,77,4,324.3,-9.8,0,99,4.157,4.162,4.141,4.162,0,0,8.941,84.92,126.23006112598,40.026248,31,Sport,
25700,2025-08-04 09:24:39,43.5572170495588,-5.62093303854096,40.026248,,,126.23006112598,39.041996,20.2890458,169.240819064,182.177827352,22,5,16.628,126.23006112598,40.026248,21.7206874,169.240819064,20.13246,-2.460634,0,331.7, -23.2, 1.8,,,0,0,1024,1024,1555,1024,0,0,80,0,324.3,-9.8,0,99,4.157,4.162,4.141,4.162,0,0,8.941,84.92,126.23006112598,40.026248,31,Sport,
25900,2025-08-04 09:24:40,43.557234188131,-5.6209363209019,40.026248,,,126.23006112598,39.041996,21.027236,175.529533176,188.49081968,23,5,16.628,126.23006112598,40.026248,21.7206874,175.529533176,20.803542,-3.131716,0,331.9, -24.9, 0.8,,,0,0,1024,1024,1556,1024,0,0,81,0,324.3,-9.8,0,99,4.157,4.162,4.141,4.162,0,0,8.941,84.92,126.23006112598,40.026248,31,Sport,
26100,2025-08-04 09:24:40,43.5572524670379,-5.6209407380766,40.026248,,,126.23006112598,39.041996,22.0785978,182.2916725,195.261489188,23,5,16.628,126.23006112598,40.026248,22.0785978,182.2916725,21.698318,-4.026492,0,332.1, -26.2, 0,,,0,0,1024,1024,1574,1024,0,0,83,0,324.3,-9.8,0,99,4.157,4.162,4.141,4.162,0,0,8.941,84.92,126.23006112598,40.026248,31,Sport,
26300,2025-08-04 09:24:40,43.5572661437548,-5.62094529148357,40.026248,,,126.23006112598,39.041996,22.9510044,187.42454668,200.394363368,23,5,16.628,126.23006112598,40.026248,22.9510044,187.42454668,22.3694,-5.144962,0,332, -27, 0,,,0,0,1024,1024,1578,1024,0,0,84,0,324.3,-9.8,0,99,4.157,4.162,4.141,4.162,0,0,8.941,84.92,126.23006112598,40.026248,31,Sport,
26500,2025-08-04 09:24:40,43.5572851723315,-5.62095186098022,40.026248,,,126.23006112598,39.041996,24.0247356,194.579074468,207.551187744,23,5,16.638,126.23006112598,40.026248,24.0247356,194.579074468,23.264176,-6.039738,0,332, -27.3, 0.5,,,0,0,1024,1024,1601,1024,0,0,87,0,324.3,-9.8,0,99,4.151,4.154,4.134,4.153,0,0,8.947,85.1,126.23006112598,40.026248,31,Sport,
26700,2025-08-04 09:24:40,43.5573055579935,-5.62095946817329,40.026248,,,126.23006112598,39.041996,25.0760974,202.277893612,215.2559124,23,5,16.638,126.23006112598,40.026248,25.0760974,202.277893612,24.158952,-6.71082,0,332.1, -27.8, 0.2,,,0,0,1024,1024,1634,1024,0,0,92,0,324.3,-9.8,0,99,4.151,4.154,4.134,4.153,0,0,8.947,85.1,126.23006112598,40.026248,31,Sport,
26900,2025-08-04 09:24:41,43.5573276951483,-5.62096829353681,40.026248,,,126.23006112598,39.041996,25.9708734,210.672250836,223.6630649,23,5,16.638,126.23006112598,40.026248,25.9708734,210.672250836,24.830034,-7.605596,0,332.2, -28.2, 0,,,0,0,1024,1024,1681,1024,0,0,100,0,324.3,-9.8,0,99,4.151,4.154,4.134,4.153,0,0,8.947,85.1,126.23006112598,40.026248,31,Sport,
27100,2025-08-04 09:24:41,43.5573488220356,-5.62097765547892,40.026248,,,126.23006112598,39.041996,27.0893434,218.740820648,231.758865684,23,5,16.638,126.23006112598,40.026248,27.0893434,218.740820648,25.72481,-8.500372,0,332.1, -30, 0.2,,,0,0,1024,1024,1684,1024,0,0,100,0,324.3,-9.8,0,99,4.151,4.154,4.134,4.153,0,0,8.947,85.1,126.23006112598,40.026248,31,Sport,
27300,2025-08-04 09:24:41,43.5573707405115,-5.6209879980256,40.026248,,,126.23006112598,39.041996,28.2301828,227.15223824,240.210309524,23,5,16.638,126.23006112598,40.026248,28.2301828,227.15223824,26.619586,-9.395148,0.223694,332.2, -32.3, -0.1,,,0,0,1024,1024,1684,1024,0,0,100,0,324.3,-9.8,0,99,4.151,4.154,4.134,4.153,0,0,8.947,85.1,126.23006112598,40.026248,31,Sport,
27500,2025-08-04 09:24:41,43.5573877814683,-5.62099686919538,39.698164,,,125.90197712598,39.041996,29.5947162,233.745414304,246.855650944,23,5,16.564,126.23006112598,40.026248,29.5947162,233.745414304,27.738056,-10.289924,0,332.1, -32.6, 0,,,0,0,1024,1024,1684,1024,0,0,100,0,324.3,-9.8,0,99,4.128,4.13,4.104,4.122,0,0,10.374,85.1,125.90197712598,39.698164,31,Sport,
27700,2025-08-04 09:24:41,43.5574114177665,-5.62100923973339,39.698164,,,125.90197712598,39.041996,30.9592496,242.899614072,256.078748352,23,5,16.564,126.23006112598,40.026248,30.9592496,242.899614072,28.856526,-11.1847,0,332.3, -32.8, -0.1,,,0,0,1024,1024,1684,1024,0,0,100,0,324.3,-9.8,0,99,4.128,4.13,4.104,4.122,0,0,10.374,85.1,125.90197712598,39.698164,31,Sport,
27900,2025-08-04 09:24:42,43.5574366913079,-5.62102290474837,39.698164,,,125.90197712598,39.041996,32.0329808,252.721136696,265.982291976,23,5,16.564,126.23006112598,40.026248,32.0329808,252.721136696,29.751302,-11.855782,0,332.3, -32.7, 0,,,0,0,1024,1024,1684,1024,0,0,100,0,324.3,-9.8,0,99,4.128,4.13,4.104,4.122,0,0,10.374,85.1,125.90197712598,39.698164,31,Sport,
28100,2025-08-04 09:24:42,43.5574639297984,-5.62103792194867,39.698164,,,125.90197712598,39.041996,33.106712,263.332685592,276.684063972,23,5,16.564,126.23006112598,40.026248,33.106712,263.332685592,30.646078,-12.526864,0,332.3, -32.6, -0.1,,,0,0,1024,1024,1684,1024,0,0,100,0,324.3,-9.8,0,99,4.128,4.13,4.104,4.122,0,0,10.374,85.1,125.90197712598,39.698164,31,Sport,
28300,2025-08-04 09:24:42,43.5574895139995,-5.62105269629918,39.698164,,,125.90197712598,39.041996,34.2699208,273.3513867,286.8028307,23,5,16.564,126.23006112598,40.026248,34.2699208,273.3513867,31.540854,-13.42164,0,332.2, -31.9, -0.1,,,0,0,1024,1024,1684,1024,0,0,100,0,324.3,-9.8,0,99,4.128,4.13,4.104,4.122,0,0,10.374,85.1,125.90197712598,39.698164,31,Sport,
28500,2025-08-04 09:24:42,43.5575159601077,-5.62106828740188,39.698164,,,125.90197712598,39.041996,35.1646968,283.73688572,297.295285104,23,5,16.427,126.23006112598,40.026248,35.1646968,283.73688572,32.211936,-14.092722,0,332.2, -31.6, 0.2,,,0,0,1024,1024,1684,1044,0,0,100,3,324.3,-9.8,0,99,4.1,4.105,4.083,4.103,0,0,13.21,85.1,125.90197712598,39.698164,31,Sport,
28700,2025-08-04 09:24:42,43.557542573489,-5.62108448002627,39.698164,,,125.90197712598,39.041996,35.9476258,294.230980544,307.907162084,23,5,16.427,126.23006112598,40.026248,35.9476258,294.230980544,32.883018,-14.54011,0,332.2, -31.9, 0.4,,,0,0,1024,1024,1605,1493,0,0,88,71,324.3,-9.8,0,99,4.1,4.105,4.083,4.103,0,0,13.21,85.1,125.90197712598,39.698164,31,Sport,
28900,2025-08-04 09:24:43,43.5575692724233,-5.62110105769772,39.698164,,,125.90197712598,39.041996,36.8424018,304.790692168,318.588920956,23,5,16.427,126.23006112598,40.026248,36.8424018,304.790692168,33.5541,-15.211192,0,331.3, -31.3, 3.4,,,0,0,1024,1024,1608,1535,0,0,88,77,324.3,-9.8,0,99,4.1,4.105,4.083,4.103,0,0,13.21,85.1,125.90197712598,39.698164,31,Sport,
29100,2025-08-04 09:24:43,43.5575966433908,-5.62111806736819,39.698164,,,125.90197712598,39.041996,37.6477002,315.625994352,329.54069296,23,5,16.427,126.23006112598,40.026248,37.6477002,315.625994352,34.448876,-15.211192,0,327.8, -26.4, 18.8,,,0,0,1024,1024,1592,1602,0,0,86,88,324.3,-9.8,0,99,4.1,4.105,4.083,4.103,0,0,13.21,85.1,125.90197712598,39.698164,31,Sport,
29300,2025-08-04 09:24:43,43.5576237860217,-5.62113363002584,39.698164,,,125.90197712598,39.041996,37.9608718,326.282162672,340.26575892,23,5,16.427,126.23006112598,40.026248,37.9608718,326.282162672,35.343652,-13.869028,0,327.8, -21.6, 27.4,,,0,0,1024,1024,1537,1684,0,0,78,100,324.3,-9.8,0,99,4.1,4.105,4.083,4.103,0,0,13.21,85.1,125.90197712598,39.698164,31,Sport,
29500,2025-08-04 09:24:43,43.5576524324258,-5.62114784078649,39.698164,,,125.90197712598,39.041996,38.1174576,337.3687772,351.37140232,23,5,16.427,126.23006112598,40.026248,38.1174576,337.3687772,36.238428,-11.855782,-0.223694,328, -17.5, 30.5,,,0,0,1024,1024,1684,1684,0,0,100,100,324.3,-9.8,0,99,4.1,4.105,4.083,4.103,0,0,13.21,85.1,125.90197712598,39.698164,31,Sport,
29700,2025-08-04 09:24:43,43.5576821952769,-5.62115987734111,39.698164,,,125.90197712598,39.041996,37.9832412,348.68439436,362.68701948,23,5,16.362,126.23006112598,40.026248,38.1174576,348.68439436,36.685816,-9.842536,-0.223694,327.8, -12.6, 32.5,,,0,0,1024,1024,1684,1684,0,0,100,100,324.3,-9.8,0,99,4.094,4.101,4.079,4.099,0,0,14.858,85.1,125.90197712598,39.698164,31,Sport,
29900,2025-08-04 09:24:44,43.5577121436521,-5.62116940962513,39.698164,,,125.90197712598,39.041996,37.7371778,359.87862044,373.9009306,23,5,16.362,126.23006112598,40.026248,38.1174576,359.87862044,36.90951,-7.82929,0,326.3, -14.9, 31.9,,,0,0,1024,1024,1684,1642,0,0,100,94,324.3,-9.8,0,99,4.094,4.101,4.079,4.099,0,0,14.858,85.1,125.90197712598,39.698164,31,Sport,
30100,2025-08-04 09:24:44,43.5577429682598,-5.62117643769149,39.698164,,,125.90197712598,39.041996,37.6253308,371.19751844,385.29856876,23,5,16.362,126.23006112598,40.026248,38.1174576,371.19751844,37.133204,-6.039738,0.223694,326.6, -18, 30.5,,,0,0,1024,1024,1684,1645,0,0,100,94,324.3,-9.8,0,99,4.094,4.101,4.079,4.099,0,0,14.858,85.1,125.90197712598,39.698164,31,Sport,
30300,2025-08-04 09:24:44,43.5577652522122,-5.6211789178148,39.698164,,,125.90197712598,39.041996,37.8490248,379.19620636,393.454737,23,5,16.362,126.23006112598,40.026248,38.1174576,379.19620636,37.580592,-4.47388,0,326.9, -20.7, 28.8,,,0,0,1024,1024,1684,1645,0,0,100,94,324.3,-9.8,0,99,4.094,4.101,4.079,4.099,0,0,14.858,85.1,125.90197712598,39.698164,31,Sport,
30500,2025-08-04 09:24:44,43.5577958431037,-5.62118204516617,39.698164,,,125.90197712598,39.041996,38.1621964,390.16733532,404.64896308,23,5,16.362,126.23006112598,40.026248,38.1621964,390.16733532,38.02798,-3.131716,0,327.3, -22.3, 27.4,,,0,0,1024,1024,1684,1656,0,0,100,96,324.3,-9.8,0,99,4.094,4.101,4.079,4.099,0,0,14.858,85.1,125.90197712598,39.698164,31,Sport,
30700,2025-08-04 09:24:44,43.5578289183905,-5.62118516795474,39.698164,,,125.90197712598,39.041996,38.5201068,402.02757192,416.74213932,23,5,16.441,126.23006112598,40.026248,38.5201068,402.02757192,38.475368,-2.013246,0,327.4, -22.9, 26.9,,,0,0,1024,1024,1684,1656,0,0,100,96,324.3,-9.8,0,98,4.099,4.102,4.077,4.095,0,0,12.918,85.28,125.90197712598,39.698164,31,Sport,
30900,2025-08-04 09:24:45,43.5578641264879,-5.62118769782897,39.37008,,,125.57389312598,39.041996,38.9451254,414.61287416,429.60631296,23,5,16.441,126.23006112598,40.026248,38.9451254,414.61287416,38.922756,-1.11847,0,327.3, -22.9, 27,,,0,0,1024,1024,1684,1642,0,0,100,94,324.3,-9.8,0,98,4.099,4.102,4.077,4.095,0,0,12.918,85.28,125.57389312598,39.37008,31,Sport,
31100,2025-08-04 09:24:45,43.5578966284917,-5.62118845865336,39.37008,,,125.57389312598,39.041996,39.370144,426.14174592,441.46654956,23,5,16.441,126.23006112598,40.026248,39.370144,426.14174592,39.370144,-0.223694,0,327.4, -22.7, 27.3,,,0,0,1024,1024,1684,1542,0,0,100,78,324.3,-9.8,0,98,4.099,4.102,4.077,4.095,0,0,12.918,85.28,125.57389312598,39.37008,31,Sport,
31300,2025-08-04 09:24:45,43.5579292720635,-5.6211882942867,39.37008,,,125.57389312598,39.041996,39.593838,437.67717936,453.37599876,23,5,16.441,126.23006112598,40.026248,39.593838,437.67717936,39.593838,0.447388,0,327.3, -22.9, 27.3,,,0,0,1024,1024,1684,1302,0,0,100,42,324.3,-9.8,0,98,4.099,4.102,4.077,4.095,0,0,12.918,85.28,125.57389312598,39.37008,31,Sport,
31500,2025-08-04 09:24:45,43.5579543349053,-5.62118701213673,39.37008,,,125.57389312598,39.041996,39.817532,446.47639224,462.52626152,23,5,16.441,126.23006112598,40.026248,39.817532,446.47639224,39.817532,0.894776,0,327.4, -26.8, 23.3,,,0,0,1024,1024,1684,1229,0,0,100,31,324.3,-9.8,0,98,4.099,4.102,4.077,4.095,0,0,12.918,85.28,125.57389312598,39.37008,31,Sport,
31700,2025-08-04 09:24:45,43.5579863119994,-5.6211857587829,39.37008,,,125.57389312598,39.041996,40.26492,457.74935848,474.19949024,23,5,16.272,126.23006112598,40.026248,40.26492,457.74935848,40.26492,0.894776,0,328.2, -31.4, 16.6,,,0,0,1024,1024,1684,1229,0,0,100,31,324.3,-9.8,0,98,4.067,4.071,4.047,4.068,0,0,16.353,85.28,125.57389312598,39.37008,31,Sport,
31900,2025-08-04 09:24:46,43.5580212086735,-5.62118503909711,39.37008,,,125.57389312598,39.041996,40.712308,470.10828276,486.93243028,23,5,16.272,126.23006112598,40.026248,40.712308,470.10828276,40.712308,0.223694,0,329.5, -33.2, 10.3,,,0,0,1024,1024,1483,1044,0,0,70,3,324.3,-9.8,0,98,4.067,4.071,4.047,4.068,0,0,16.353,85.28,125.57389312598,39.37008,31,Sport,
32100,2025-08-04 09:24:46,43.5580576705508,-5.62118558995366,39.37008,,,125.57389312598,39.041996,40.712308,483.11681336,500.23623648,23,5,16.272,126.23006112598,40.026248,40.712308,483.11681336,40.712308,-0.894776,0,330.1, -31.9, 7.6,,,0,0,1024,1024,1024,1024,0,0,0,0,324.3,-9.8,0,98,4.067,4.071,4.047,4.068,0,0,16.353,85.28,125.57389312598,39.37008,31,Sport,
32300,2025-08-04 09:24:46,43.558090839469,-5.62118757025687,39.37008,,,125.57389312598,39.041996,40.5333528,495.04922844,512.34909776,23,5,16.272,126.23006112598,40.026248,40.712308,495.04922844,40.488614,-2.013246,-0.894776,331.5, -11, 5,,,0,0,1024,1024,1156,1024,0,0,20,0,324.3,-9.8,0,98,4.067,4.071,4.047,4.068,0,0,16.353,85.28,125.57389312598,39.37008,31,Sport,
32500,2025-08-04 09:24:46,43.5581232337769,-5.62119061393747,39.698164,,,125.90197712598,39.041996,38.5648456,506.77166976,524.196211,23,5,16.272,126.23006112598,40.026248,40.712308,506.77166976,38.475368,-2.460634,-1.342164,332, 9.8, -11.5,,,0,0,1024,1024,1253,1024,0,0,35,0,324.3,-9.8,0,98,4.067,4.071,4.047,4.068,0,0,16.353,85.28,125.90197712598,39.698164,31,Sport,
32700,2025-08-04 09:24:46,43.5581529453612,-5.62119428122418,40.354332,,,126.55814512598,39.041996,35.0528498,517.57547588,535.07875728,23,5,16.18,126.55814512598,40.354332,40.712308,517.57547588,34.896264,-3.35541,-0.894776,328.9, 21.7, -22.7,,,0,0,1024,1024,1134,1024,0,0,17,0,324.3,-9.8,0,98,4.062,4.082,4.075,4.108,0,0,18.305,85.46,126.55814512598,40.354332,31,Sport,
32900,2025-08-04 09:24:47,43.5581791265681,-5.62119915675285,40.354332,,,126.55814512598,39.041996,31.5855928,527.18833708,544.7178652,23,5,16.18,126.55814512598,40.354332,40.712308,527.18833708,31.31716,-4.026492,0,327.4, 26, -21.3,,,0,0,1024,1024,1097,1024,0,0,11,0,324.3,-9.8,0,98,4.062,4.082,4.075,4.108,0,0,18.305,85.46,126.55814512598,40.354332,31,Sport,
33100,2025-08-04 09:24:47,43.5582018289447,-5.62120418156625,40.354332,,,126.55814512598,39.041996,27.626209,535.56760244,553.10697308,23,5,16.18,126.55814512598,40.354332,40.712308,535.56760244,27.290668,-4.250186,0.223694,328, 31.4, -13.5,,,0,0,1024,1024,1123,1024,0,0,15,0,324.3,-9.8,0,98,4.062,4.082,4.075,4.108,0,0,18.305,85.46,126.55814512598,40.354332,31,Sport,
33300,2025-08-04 09:24:47,43.5582202602002,-5.62120925105338,40.354332,,,126.55814512598,39.041996,23.823411,542.42455804,559.96392868,23,5,16.18,126.55814512598,40.354332,40.712308,542.42455804,23.48787,-4.026492,0.223694,330.5, 32.5, -6.5,,,0,0,1024,1024,1123,1024,0,0,15,0,324.3,-9.8,0,98,4.062,4.082,4.075,4.108,0,0,18.305,85.46,126.55814512598,40.354332,31,Sport,
33500,2025-08-04 09:24:47,43.5582373850496,-5.62121355934025,40.354332,,,126.55814512598,39.041996,20.3785234,548.77298344,566.31563492,23,5,16.18,126.55814512598,40.354332,40.712308,548.77298344,20.13246,-3.131716,0.223694,331.7, 32.8, -2.9,,,0,0,1024,1024,1079,1024,0,0,8,0,324.3,-9.8,0,98,4.062,4.082,4.075,4.108,0,0,18.305,85.46,126.55814512598,40.354332,31,Sport,
