time(millisecond),datetime(utc),latitude,longitude,height_above_takeoff(feet),height_above_ground_at_drone_location(feet),ground_elevation_at_drone_location(feet),altitude_above_seaLevel(feet),height_sonar(feet),speed(mph),distance(feet),mileage(feet),satellites,gpslevel,voltage(v),max_altitude(feet),max_ascent(feet),max_speed(mph),max_distance(feet), xSpeed(mph), ySpeed(mph), zSpeed(mph), compass_heading(degrees), pitch(degrees), roll(degrees),wind_speed(mph),wind_direction(degrees),isPhoto,isVideo,rc_elevator,rc_aileron,rc_throttle,rc_rudder,rc_elevator(percent),rc_aileron(percent),rc_throttle(percent),rc_rudder(percent),gimbal_heading(degrees),gimbal_pitch(degrees),gimbal_roll(degrees),battery_percent,voltageCell1,voltageCell2,voltageCell3,voltageCell4,voltageCell5,voltageCell6,current(A),battery_temperature(f),altitude(feet),ascent(feet),flycStateRaw,flycState,message
0,2025-08-04 08:56:26,43.556764994333,-5.62078863219353,0,Available with any HD 360 subscription,Available with any HD 360 subscription,86.531485380556,0,0,0,0,19,5,0,86.531485380556,0,0,0,0,0,0,318.8, 2.7, 2.1,Available with Enterprise subscription,,0,0,364,364,364,1684,-100,-100,-100,100,318.5,0,0,98,4.213,4.22,4.22,4.222,0,0,0,82.58,86.531485380556,0,41,Motors_Started,"Flying over vegetation."
200,2025-08-04 08:56:26,43.5567650201548,-5.6207886154323,0,,,86.531485380556,0,0,0.0104113848476,0.0104113848476,19,5,0,86.531485380556,0,0,0.0104113848476,0,0,0,318.8, 2.7, 2.1,,,0,0,364,364,364,1684,-100,-100,-100,100,318.5,0,0,98,4.213,4.22,4.22,4.222,0,0,0,82.58,86.531485380556,0,41,Motors_Started,
400,2025-08-04 08:56:26,43.5567650348869,-5.6207886077512,0,,,86.531485380556,0,0,0.0161458666584,0.0161572511732,19,5,0,86.531485380556,0,0,0.0161458666584,0,0,0,318.7, 2.7, 2.1,,,0,0,364,364,364,1684,-100,-100,-100,100,318.5,0,0,98,4.213,4.22,4.22,4.222,0,0,0,82.58,86.531485380556,0,41,Motors_Started,
600,2025-08-04 08:56:27,43.5567650283518,-5.62078862536645,0,,,86.531485380556,0,0,0.012542323236,0.021389600422,19,5,0,86.531485380556,0,0,0.0161458666584,0,0,0,318.7, 2.7, 2.1,,,0,0,1024,1024,1024,1024,0,0,0,0,318.5,0,0,98,4.213,4.22,4.22,4.222,0,0,0,82.58,86.531485380556,0,41,Motors_Started,"Setting new Return-To-Home altitude to 25m (82 ft). Data Recorder File Index is 196. Setting new Maximum Flight Altitude to 45m (148 ft)"
800,2025-08-04 08:56:27,43.5567650410869,-5.62078861031113,0,,,86.531485380556,0,0,0.0180126646184,0.0275080061296,19,5,0,86.531485380556,0,0,0.0180126646184,0,0,0,318.7, 2.7, 2.1,,,0,0,1024,1024,1024,1024,0,0,0,0,318.5,0,0,98,4.213,4.22,4.22,4.222,0,0,0,82.58,86.531485380556,0,41,Motors_Started,
1000,2025-08-04 08:56:27,43.5567650191587,-5.62078862336106,0,,,86.531485380556,0,0,0.009353838882,0.036220801684,19,5,17.021,86.531485380556,0,0,0.0180126646184,0,0,0,318.6, 2.7, 2.1,,,0,0,1024,1024,1024,1024,0,0,0,0,318.6,0,0,98,4.213,4.22,4.22,4.222,0,0,1.486,82.58,86.531485380556,0,41,Motors_Started,
1200,2025-08-04 08:56:27,43.5567649976985,-5.62078863048734,0,,,86.531485380556,0,0,0.00130813980564,0.044274279632,19,5,17.021,86.531485380556,0,0,0.0180126646184,0,0,0,318.7, 2.7, 2.1,,,0,0,1024,1024,1024,1024,0,0,0,0,318.5,0,0,98,4.213,4.22,4.22,4.222,0,0,1.486,82.58,86.531485380556,0,41,Motors_Started,
1400,2025-08-04 08:56:27,43.5567649622015,-5.62078869167981,0,,,86.531485380556,0,0,0.0196166672944,0.064998689744,19,5,17.021,86.531485380556,0,0,0.0196166672944,0,0,0,318.6, 2.7, 2.1,,,0,0,1024,1024,1024,1024,0,0,0,0,318.5,0,0,98,4.213,4.22,4.22,4.222,0,0,1.486,82.58,86.531485380556,0,41,Motors_Started,
1600,2025-08-04 08:56:28,43.5567649534804,-5.62078869827957,0,,,86.531485380556,0,0,0.0229669298688,0.068627626868,19,5,17.021,86.531485380556,0,0,0.0229669298688,0,0,0,318.6, 2.7, 2.1,,,0,0,1024,1024,1024,1024,0,0,0,0,318.6,0,0,98,4.213,4.22,4.22,4.222,0,0,1.486,82.58,86.531485380556,0,10,Assisted_Takeoff,
1800,2025-08-04 08:56:28,43.556764936817,-5.62078868635823,0,,,86.531485380556,0,0,0.025405840708,0.0754757242,19,5,17.021,86.531485380556,0,0,0.025405840708,0,0,0,318.6, 2.7, 2.1,,,0,0,1024,1024,1024,1024,0,0,0,0,318.5,0,0,98,4.213,4.22,4.22,4.222,0,0,1.486,82.58,86.531485380556,0,10,Assisted_Takeoff,
2000,2025-08-04 08:56:28,43.5567649348514,-5.62078867297265,0,,,86.531485380556,0,0,0.0242327107492,0.079086944788,19,5,16.903,86.531485380556,0,0,0.025405840708,0,0,0,318.6, 2.7, 2.1,,,0,0,1024,1024,1024,1024,0,0,0,0,318.5,0,0,98,4.24,4.246,4.248,4.251,0,0,2.921,82.58,86.531485380556,0,10,Assisted_Takeoff,"Cambiado al modo-S (Sport)."
2200,2025-08-04 08:56:28,43.5567649489207,-5.62078865943845,0,,,86.531485380556,0,0,0.0180668969036,0.085344162836,19,5,16.903,86.531485380556,0,0,0.025405840708,0,0,0,318.6, 2.7, 2.1,,,0,0,1024,1024,1024,1024,0,0,0,0,318.6,0,0,98,4.24,4.246,4.248,4.251,0,0,2.921,82.58,86.531485380556,0,10,Assisted_Takeoff,
2400,2025-08-04 08:56:28,43.5567649574873,-5.62078864341028,0,,,86.531485380556,0,0,0.0137663718316,0.09061023912,19,5,16.903,86.531485380556,0,0,0.025405840708,0,0,0,318.6, 2.7, 2.1,,,0,0,1024,1024,1024,1024,0,0,0,0,318.6,0,0,98,4.24,4.246,4.248,4.251,0,0,2.921,82.58,86.531485380556,0,10,Assisted_Takeoff,
2600,2025-08-04 08:56:29,43.556764976312,-5.62078865638636,0,,,86.531485380556,0,0,0.0091731958316,0.09828740472,19,5,16.903,86.531485380556,0,0,0.025405840708,0,0,0,318.6, 2.7, 2.1,,,0,0,1024,1024,1024,1024,0,0,0,0,318.5,0,0,98,4.24,4.246,4.248,4.251,0,0,2.921,82.58,86.531485380556,0,10,Assisted_Takeoff,
2800,2025-08-04 08:56:29,43.5567649862211,-5.62078864259955,0,,,86.531485380556,0,0,0.0040409778196,0.103421591236,19,5,16.903,86.531485380556,0,0,0.025405840708,0,0,0,318.6, 2.7, 2.1,,,0,0,1024,1024,1024,1024,0,0,0,0,318.5,0,0,98,4.24,4.246,4.248,4.251,0,0,2.921,82.58,86.531485380556,0,10,Assisted_Takeoff,
3000,2025-08-04 08:56:29,43.5567649529602,-5.6207886695951,0,,,86.531485380556,0,0,0.0180457354856,0.117500331844,19,5,16.96,86.531485380556,0,0,0.025405840708,0,0,0,318.5, 2.7, 2.1,,,0,0,1068,1024,1024,1024,7,0,0,0,318.5,0,0,98,4.239,4.247,4.248,4.251,0,0,3.861,82.58,86.531485380556,0,10,Assisted_Takeoff,
3200,2025-08-04 08:56:29,43.5567649439578,-5.62078867679525,0,,,86.531485380556,0,0,0.0218374022736,0.121296591808,19,5,16.96,86.531485380556,0,0,0.025405840708,0,0,0,318.6, 2.7, 2.1,,,0,0,1239,1024,1024,1024,33,0,0,0,318.5,0,0,98,4.239,4.247,4.248,4.251,0,0,3.861,82.58,86.531485380556,0,10,Assisted_Takeoff,
3400,2025-08-04 08:56:29,43.5567649349007,-5.62078868424774,0,,,86.531485380556,0,0,0.0256830388796,0.125144032876,19,5,16.96,86.531485380556,0,0,0.0256830388796,0,0,0,318.5, 2.7, 2.1,,,0,0,1458,1024,1024,1024,66,0,0,0,318.5,0,0,98,4.239,4.247,4.248,4.251,0,0,3.861,82.58,86.531485380556,0,10,Assisted_Takeoff,
3600,2025-08-04 08:56:30,43.5567649401592,-5.62078867802134,0,,,86.531485380556,0,0,0.0231837933928,0.12767224818,19,5,16.96,86.531485380556,0,0,0.0256830388796,0,0,0,318.6, 2.6, 2.2,,,0,0,1684,1024,1024,1024,100,0,0,0,318.5,0,0,98,4.239,4.247,4.248,4.251,0,0,3.861,82.58,86.531485380556,0,10,Assisted_Takeoff,
3800,2025-08-04 08:56:30,43.5567649426402,-5.62078867264637,0,,,86.531485380556,0,0,0.0216818904576,0.129357287604,19,5,16.96,86.531485380556,0,0,0.0256830388796,0,0,0,318.2, 1, 2.3,,,0,0,1682,1024,1024,1024,100,0,0,0,318.5,0,0,98,4.239,4.247,4.248,4.251,0,0,3.861,82.58,86.531485380556,0,10,Assisted_Takeoff,
4000,2025-08-04 08:56:30,43.5567650545717,-5.62078869565876,0,,,86.531485380556,0,0.223694,0.02765173973,0.170646002836,19,5,16.987,86.531485380556,0,0.223694,0.02765173973,0.223694,0,-0.447388,318.2, -5.4, 0.3,,,0,0,1683,1024,1024,1024,100,0,0,0,318.5,0,0,98,4.203,4.206,4.203,4.202,0,0,2.039,82.58,86.531485380556,0,10,Assisted_Takeoff,
4200,2025-08-04 08:56:30,43.5567654365457,-5.62078898739958,0.328084,,,86.859569380556,0.328084,0.4921268,0.186685373428,0.32993111292,19,5,16.987,86.859569380556,0.328084,0.4921268,0.186685373428,0.447388,-0.223694,-1.565858,318.2, 1.9, -0.4,,,0,0,1683,1024,1024,1024,100,0,0,0,318.5,0,0,98,4.203,4.206,4.203,4.202,0,0,2.039,82.58,86.859569380556,0.328084,31,Sport,
4400,2025-08-04 08:56:31,43.5567656778792,-5.62078931349599,0.984252,,,87.515737380556,0.984252,0.223694,0.30764600722,0.45316930584,19,5,16.987,87.515737380556,0.984252,0.4921268,0.30764600722,0,-0.223694,-3.131716,318.5, 4.6, -0.4,,,0,0,1683,1024,1024,1024,100,0,0,0,318.5,0,0,98,4.203,4.206,4.203,4.202,0,0,2.039,82.58,87.515737380556,0.984252,31,Sport,
4600,2025-08-04 08:56:31,43.5567656451437,-5.62078947752512,2.296588,,,88.828073380556,2.624672,0.223694,0.326094498624,0.49815290308,19,5,16.987,88.828073380556,2.296588,0.4921268,0.326094498624,-0.223694,0,-4.921268,318.7, 1.3, 1.7,,,0,0,1682,1024,1024,1024,100,0,0,0,318.5,0,0,98,4.203,4.206,4.203,4.202,0,0,2.039,82.58,88.828073380556,2.296588,31,Sport,
4800,2025-08-04 08:56:31,43.5567655230426,-5.62078943101709,3.937008,,,90.468493380556,4.265092,0,0.286042988156,0.54436681532,19,5,16.987,90.468493380556,3.937008,0.4921268,0.326094498624,0,0,-6.71082,318.9, -0.2, 1.9,,,0,0,1663,1024,1024,1024,97,0,0,0,318.5,0,0,98,4.203,4.206,4.203,4.202,0,0,2.039,82.58,90.468493380556,3.937008,31,Sport,
5000,2025-08-04 08:56:31,43.5567654142045,-5.62078925525797,6.56168,,,93.093165380556,6.889764,0,0.2249589967,0.60549214536,19,5,16.56,93.093165380556,6.56168,0.4921268,0.326094498624,0,0,-8.94776,319, -0.2, 1.6,,,0,0,1560,1024,1024,1024,81,0,0,0,318.5,0,0,98,4.094,4.097,4.094,4.094,0,0,9.327,82.76,93.093165380556,6.56168,31,Sport,
5200,2025-08-04 08:56:31,43.5567653540759,-5.62078916603237,9.84252,,,96.374005380556,9.84252,0,0.192743444488,0.63770999416,19,5,16.56,96.374005380556,9.84252,0.4921268,0.326094498624,0,0,-10.961006,319.3, -0.5, 1.6,,,0,0,1164,1024,1024,1024,21,0,0,0,318.5,0,0,98,4.094,4.097,4.094,4.094,0,0,9.327,82.76,96.374005380556,9.84252,31,Sport,
5400,2025-08-04 08:56:31,43.5567652842565,-5.62078919821639,13.12336,,,99.654845380556,12.795276,0,0.183266738148,0.6645669504,19,5,16.56,99.654845380556,13.12336,0.4921268,0.326094498624,0,0,-10.737312,319.3, -0.1, 1.8,,,0,0,1461,1024,1024,1024,66,0,0,0,318.5,0,0,98,4.094,4.097,4.094,4.094,0,0,9.327,82.76,99.654845380556,13.12336,31,Sport,
5600,2025-08-04 08:56:32,43.5567652746441,-5.62078922929936,16.076116,,,102.60760138056,15.419948,0,0.188107617568,0.67350067772,19,5,16.56,102.60760138056,16.076116,0.4921268,0.326094498624,0,0,-9.171454,319.3, -0.1, 2.1,,,0,0,1639,1024,1024,1024,93,0,0,0,318.5,0,0,98,4.094,4.097,4.094,4.094,0,0,9.327,82.76,102.60760138056,16.076116,31,Sport,
5800,2025-08-04 08:56:32,43.5567652798795,-5.62078936044022,19.028872,,,105.56035738056,18.04462,0,0.218928484696,0.70822836912,19,5,16.56,105.56035738056,19.028872,0.4921268,0.326094498624,0,0,-8.94776,319.2, -0.5, 1.7,,,0,0,1644,1024,1024,1024,94,0,0,0,318.5,0,0,98,4.094,4.097,4.094,4.094,0,0,9.327,82.76,105.56035738056,19.028872,31,Sport,
6000,2025-08-04 08:56:32,43.5567653370675,-5.62078941404973,21.981628,,,108.51311338056,20.669292,0,0.241603026104,0.73345146704,19,5,16.56,108.51311338056,21.981628,0.4921268,0.326094498624,0,0,-10.513618,319.3, 0, 1.6,,,0,0,1615,1024,1024,1024,90,0,0,0,318.5,0,0,98,4.174,4.182,4.118,4.119,0,0,9.327,82.76,108.51311338056,21.981628,31,Sport,
6200,2025-08-04 08:56:32,43.5567654043813,-5.62078949294387,24.934384,,,111.46586938056,24.278216,0,0.272354667508,0.76567587752,19,5,16.56,111.46586938056,24.934384,0.4921268,0.326094498624,0,0,-12.526864,319.3, 0.3, 1.6,,,0,0,1615,1024,1024,1024,90,0,0,0,318.5,0,0,98,4.174,4.182,4.118,4.119,0,0,9.327,82.76,111.46586938056,24.934384,31,Sport,
6400,2025-08-04 08:56:32,43.5567654588458,-5.62078948420619,28.543308,,,115.07479338056,28.215224,0,0.281906833168,0.785679159,19,5,16.56,115.07479338056,28.543308,0.4921268,0.326094498624,0,0,-14.092722,319.3, 0.1, 1.3,,,0,0,1380,1024,1024,1024,54,0,0,0,318.5,0,0,98,4.174,4.182,4.118,4.119,0,0,9.327,82.76,115.07479338056,28.543308,31,Sport,
6600,2025-08-04 08:56:33,43.55676548428,-5.62078940368151,33.136484,,,119.66796938056,32.152232,0,0.271226058548,0.80890422536,19,5,16.56,119.66796938056,33.136484,0.4921268,0.326094498624,0,0,-14.316416,319.4, -0.3, 1.1,,,0,0,1024,1024,1024,1024,0,0,0,0,318.5,0,0,98,4.174,4.182,4.118,4.119,0,0,9.327,82.76,119.66796938056,33.136484,31,Sport,
6800,2025-08-04 08:56:33,43.5567655112455,-5.62078930271859,37.073492,,,123.60497738056,36.417324,0,0.258842856052,0.83735566984,22,5,16.56,123.60497738056,37.073492,0.4921268,0.326094498624,0,0,-12.526864,319.3, -0.7, 1.3,,,0,0,1153,1024,1024,1024,20,0,0,0,318.5,0,0,98,4.174,4.182,4.118,4.119,0,0,9.327,82.76,123.60497738056,37.073492,31,Sport,
7000,2025-08-04 08:56:33,43.5567655073203,-5.62078919166838,40.354332,,,126.88581738056,39.698164,0,0.238563327844,0.86675199624,22,5,16.571,126.88581738056,40.354332,0.4921268,0.326094498624,0,0,-10.289924,319.3, -1, 1.5,,,0,0,1043,1024,1024,1024,3,0,0,0,318.5,0,0,98,4.156,4.175,4.178,4.184,0,0,14.299,82.76,126.88581738056,40.354332,31,Sport,
7200,2025-08-04 08:56:33,43.5567655095214,-5.62078917082504,43.635172,,,130.16665738056,42.322836,0,0.235825466864,0.87232286256,22,5,16.571,130.16665738056,43.635172,0.4921268,0.326094498624,0,0,-8.052984,319.3, -0.9, 1.8,,,0,0,1024,1024,1024,1024,0,0,0,0,318.5,0,0,98,4.156,4.175,4.178,4.184,0,0,14.299,82.76,130.16665738056,43.635172,31,Sport,
7400,2025-08-04 08:56:33,43.5567654841164,-5.62078919427693,45.275592,,,131.80707738056,42.65092,0,0.23242126728,0.88347443772,22,5,16.571,131.80707738056,45.275592,0.4921268,0.326094498624,0,0,-5.59235,319.3, -0.8, 2.2,,,0,0,1024,1024,1024,1024,0,0,0,0,318.5,0,0,98,4.156,4.175,4.178,4.184,0,0,14.299,82.76,131.80707738056,45.275592,31,Sport,
7600,2025-08-04 08:56:34,43.5567654737888,-5.620789244232,46.259844,,,132.79132938056,42.65092,0,0.238301516812,0.89720803396,22,5,16.571,132.79132938056,46.259844,0.4921268,0.326094498624,0,0,-2.908022,319.3, -0.6, 2.8,,,0,0,1024,1024,1446,1024,0,0,64,0,318.5,0,0,98,4.156,4.175,4.178,4.184,0,0,14.299,82.76,132.79132938056,46.259844,31,Sport,
7800,2025-08-04 08:56:34,43.556765439032,-5.62078930362123,46.587928,,,133.11941338056,42.65092,0,0.240500663864,0.91739176164,22,5,16.571,133.11941338056,46.587928,0.4921268,0.326094498624,0,0,-0.671082,319.2, -2.8, 2.7,,,0,0,1024,1024,1684,1024,0,0,100,0,318.5,0,0,98,4.156,4.175,4.178,4.184,0,0,14.299,82.76,133.11941338056,46.587928,31,Sport,
8000,2025-08-04 08:56:34,43.5567655477376,-5.6207894949176,46.259844,,,132.79132938056,42.65092,0.3131716,0.304631571428,0.98166669808,22,5,16.289,133.11941338056,46.587928,0.4921268,0.326094498624,0.223694,-0.223694,0,318.6, -20.7, 2.9,,,0,0,1024,1024,1684,1024,0,0,100,0,318.5,0,0,98,4.187,4.189,4.185,4.185,0,0,14.987,82.94,132.79132938056,46.259844,31,Sport,
8200,2025-08-04 08:56:34,43.5567665605629,-5.62079065813099,45.93176,,,132.46324538056,42.65092,2.3711564,0.78324805656,1.46244099168,22,5,16.289,133.11941338056,46.587928,2.3711564,0.78324805656,1.789552,-1.565858,0,318.1, -33.3, 3.3,,,0,0,1024,1024,1684,1024,0,0,100,0,318.5,0,0,98,4.187,4.189,4.185,4.185,0,0,14.987,82.94,132.46324538056,45.93176,31,Sport,
8400,2025-08-04 08:56:34,43.5567691583828,-5.62079363816567,45.603676,,,132.13516138056,42.65092,5.2344396,2.01495085188,2.69499352456,22,5,16.289,133.11941338056,46.587928,5.2344396,2.01495085188,4.026492,-3.35541,0,318.3, -33.8, 2.9,,,0,0,1024,1024,1684,1024,0,0,100,0,318.5,0,0,98,4.187,4.189,4.185,4.185,0,0,14.987,82.94,132.13516138056,45.603676,31,Sport,
8600,2025-08-04 08:56:35,43.5567738336431,-5.62079845392036,45.603676,,,132.13516138056,42.65092,7.9635064,4.1406169304,4.8235893932,22,5,16.289,133.11941338056,46.587928,7.9635064,4.1406169304,6.263432,-4.921268,0,319.9, -33.9, 2.4,,,0,0,1024,1024,1684,1024,0,0,100,0,318.5,0,0,98,4.187,4.189,4.185,4.185,0,0,14.987,82.94,132.13516138056,45.603676,31,Sport,
8800,2025-08-04 08:56:35,43.5567802218505,-5.62080507539394,45.603676,,,132.13516138056,42.65092,10.5583568,7.0546590184,7.7386157332,22,5,16.289,133.11941338056,46.587928,10.5583568,7.0546590184,8.500372,-6.263432,0,322, -34.2, 1.8,,,0,0,1024,1024,1684,1024,0,0,100,0,318.5,0,0,98,4.187,4.189,4.185,4.185,0,0,14.987,82.94,132.13516138056,45.603676,31,Sport,
9000,2025-08-04 08:56:35,43.5567895624744,-5.62081313027664,45.93176,,,132.46324538056,42.65092,12.8400356,11.0591210888,11.7572838408,22,5,16.814,133.11941338056,46.587928,12.8400356,11.0591210888,10.513618,-7.381902,0,323.6, -34.3, 1.3,,,0,0,1024,1024,1684,1024,0,0,100,0,318.5,0,0,98,4.126,4.132,4.129,4.132,0,0,5.503,83.12,132.46324538056,45.93176,31,Sport,
9200,2025-08-04 08:56:35,43.556799441029,-5.62082240251181,45.93176,,,132.46324538056,42.65092,15.2559308,15.4167983936,16.1162406732,22,5,16.814,133.11941338056,46.587928,15.2559308,15.4167983936,12.526864,-8.724066,0,324.5, -34.4, 1.1,,,0,0,1024,1024,1684,1024,0,0,100,0,318.5,0,0,98,4.126,4.132,4.129,4.132,0,0,5.503,83.12,132.46324538056,45.93176,31,Sport,
9400,2025-08-04 08:56:35,43.5568115317282,-5.62083329756816,46.259844,,,132.79132938056,42.65092,17.4928708,20.6823497432,21.3848103956,22,5,16.814,133.11941338056,46.587928,17.4928708,20.6823497432,14.316416,-10.06623,0,324.6, -34.4, 1.4,,,0,0,1024,1024,1684,1024,0,0,100,0,318.5,0,0,98,4.126,4.132,4.129,4.132,0,0,5.503,83.12,132.79132938056,46.259844,31,Sport,
9600,2025-08-04 08:56:36,43.5568237847968,-5.62084450874031,46.259844,,,132.79132938056,42.65092,19.6179638,26.0453092324,26.7488197536,22,5,16.814,133.11941338056,46.587928,19.6179638,26.0453092324,16.105968,-11.1847,0,324.5, -34.5, 1.7,,,0,0,1024,1024,1684,1024,0,0,100,0,318.5,0,0,98,4.126,4.132,4.129,4.132,0,0,5.503,83.12,132.79132938056,46.259844,31,Sport,
9800,2025-08-04 08:56:36,43.5568389911051,-5.62085779800247,46.259844,,,132.79132938056,42.65092,21.8549038,32.6084984188,33.315945948,22,5,16.814,133.11941338056,46.587928,21.8549038,32.6084984188,17.89552,-12.526864,0,324.7, -34.4, 1.9,,,0,0,1024,1024,1676,1024,0,0,99,0,318.5,0,0,98,4.126,4.132,4.129,4.132,0,0,5.503,83.12,132.79132938056,46.259844,31,Sport,
10000,2025-08-04 08:56:36,43.5568550214745,-5.62087264708766,46.259844,,,132.79132938056,42.65092,23.9576274,39.652560324,40.360237512,22,5,16.814,133.11941338056,46.587928,23.9576274,39.652560324,19.685072,-13.645334,0,325, -34.4, 1.2,,,0,0,1024,1024,1611,1024,0,0,89,0,318.5,0,0,98,4.126,4.132,4.129,4.132,0,0,5.503,83.12,132.79132938056,46.259844,31,Sport,"Flying over water."
10200,2025-08-04 08:56:36,43.5568728301182,-5.62088880618587,46.587928,,,133.11941338056,42.65092,25.7471794,47.428479208,48.13648448,22,5,16.469,133.11941338056,46.587928,25.7471794,47.428479208,21.25093,-14.54011,0,324.8, -30.1, 1,,,0,0,1024,1024,1684,1024,0,0,100,0,318.5,0,0,98,4.099,4.105,4.104,4.106,0,0,11.851,83.3,133.11941338056,46.587928,31,Sport,
10400,2025-08-04 08:56:36,43.5568910237985,-5.62090584772416,46.587928,,,133.11941338056,42.65092,26.9998658,55.45111726,56.159450616,22,5,16.469,133.11941338056,46.587928,26.9998658,55.45111726,22.145706,-15.434886,0,324.7, -28, 1.2,,,0,0,1024,1024,1670,1024,0,0,98,0,318.5,0,0,98,4.099,4.105,4.104,4.106,0,0,11.851,83.3,133.11941338056,46.587928,31,Sport,
10600,2025-08-04 08:56:37,43.5569097142997,-5.62092317600701,46.587928,,,133.11941338056,42.65092,28.1183358,63.666668704,64.374673976,22,5,16.469,133.11941338056,46.587928,28.1183358,63.666668704,23.040482,-16.105968,0,324.9, -30, 1.4,,,0,0,1024,1024,1684,1024,0,0,100,0,318.5,0,0,98,4.099,4.105,4.104,4.106,0,0,11.851,83.3,133.11941338056,46.587928,31,Sport,
10800,2025-08-04 08:56:37,43.5569288700787,-5.62094132120302,46.587928,,,133.11941338056,42.65092,29.415761,72.143703096,72.852036452,22,5,16.469,133.11941338056,46.587928,29.415761,72.143703096,24.158952,-16.77705,0,324.9, -30.8, 1.7,,,0,0,1024,1024,1684,1024,0,0,100,0,318.5,0,0,98,4.099,4.105,4.104,4.106,0,0,11.851,83.3,133.11941338056,46.587928,31,Sport,
11000,2025-08-04 08:56:37,43.5569484474559,-5.62095989188619,46.587928,,,133.11941338056,42.65092,30.534231,80.811026208,81.519687648,22,5,16.469,133.11941338056,46.587928,30.534231,80.811026208,25.053728,-17.448132,0,324.8, -32, 2.3,,,0,0,1024,1024,1684,1024,0,0,100,0,318.5,0,0,98,4.099,4.105,4.104,4.106,0,0,11.851,83.3,133.11941338056,46.587928,31,Sport,
11200,2025-08-04 08:56:37,43.5569694444361,-5.62097993212286,46.587928,,,133.11941338056,42.65092,31.8316562,90.125330968,90.834320492,22,5,16.454,133.11941338056,46.587928,31.8316562,90.125330968,26.172198,-18.119214,0,324.7, -32.1, 2.3,,,0,0,1024,1024,1567,1024,0,0,82,0,318.5,0,0,98,4.098,4.104,4.104,4.105,0,0,13.019,83.48,133.11941338056,46.587928,31,Sport,
11400,2025-08-04 08:56:37,43.5569915768695,-5.62100113973901,46.587928,,,133.11941338056,42.65092,32.9501262,99.95571186,100.665357552,22,5,16.454,133.11941338056,46.587928,32.9501262,99.95571186,27.066974,-18.790296,0,324.6, -30.9, 2.6,,,0,0,1024,1024,1099,1024,0,0,11,0,318.5,0,0,98,4.098,4.104,4.104,4.105,0,0,13.019,83.48,133.11941338056,46.587928,31,Sport,
11600,2025-08-04 08:56:38,43.5570087843064,-5.6210175891119,46.587928,,,133.11941338056,42.65092,33.9343798,107.592851212,108.302824988,22,5,16.454,133.11941338056,46.587928,33.9343798,107.592851212,27.96175,-19.237684,-0.223694,324.8, -16.5, 2.5,,,0,0,1024,1024,1024,1024,0,0,0,0,318.5,0,0,98,4.098,4.104,4.104,4.105,0,0,13.019,83.48,133.11941338056,46.587928,31,Sport,
11800,2025-08-04 08:56:38,43.5570333841117,-5.62104099957982,46.916012,,,133.44749738056,42.65092,33.1290814,118.495410616,119.205384392,22,5,16.454,133.44749738056,46.916012,33.9343798,118.495410616,27.290668,-18.790296,-0.894776,325.5, 5, 2.3,,,0,0,1024,1024,1024,1024,0,0,0,0,318.5,0,0,98,4.098,4.104,4.104,4.105,0,0,13.019,83.48,133.44749738056,46.916012,31,Sport,
12000,2025-08-04 08:56:38,43.5570551899913,-5.62106169973974,47.244096,,,133.77558138056,42.65092,31.0263578,128.151906988,128.862208848,22,5,16.454,133.77558138056,47.244096,33.9343798,128.151906988,25.501116,-17.671826,-0.223694,325.2, 27.1, 1.3,,,0,0,1024,1024,1024,1024,0,0,0,0,318.5,0,0,98,4.098,4.104,4.104,4.105,0,0,13.019,83.48,133.77558138056,47.244096,31,Sport,
12200,2025-08-04 08:56:38,43.5570757056294,-5.62108119149072,47.244096,,,133.77558138056,42.65092,27.4919926,137.239505704,137.949807564,22,5,16.441,133.77558138056,47.244096,33.9343798,137.239505704,22.593094,-15.65858,0,325.8, 33.3, 1.8,,,0,0,1024,1024,1024,1024,0,0,0,0,318.5,-1.8,0,97,4.165,4.175,4.174,4.178,0,0,12.823,83.48,133.77558138056,47.244096,31,Sport,
12400,2025-08-04 08:56:38,43.5570921023627,-5.62109673813017,47.244096,,,133.77558138056,42.65092,23.9576274,144.49803612,145.20833798,22,5,16.441,133.77558138056,47.244096,33.9343798,144.49803612,19.685072,-13.645334,0,325.9, 34.4, 1.7,,,0,0,1024,1024,1024,1024,0,0,0,0,318.5,-7.3,0,97,4.165,4.175,4.174,4.178,0,0,12.823,83.48,133.77558138056,47.244096,31,Sport,
12600,2025-08-04 08:56:39,43.5571076880578,-5.62111166252111,47.244096,,,133.77558138056,42.65092,20.4232622,151.419296184,152.129598044,22,5,16.441,133.77558138056,47.244096,33.9343798,151.419296184,16.77705,-11.632088,0.223694,326.4, 35.2, 1.4,,,0,0,1024,1024,1236,1207,0,0,32,28,318.5,-10.1,0,97,4.165,4.175,4.174,4.178,0,0,12.823,83.48,133.77558138056,47.244096,31,Sport,
12800,2025-08-04 08:56:39,43.5571202915425,-5.62112395117356,47.244096,,,133.77558138056,42.65092,17.1796992,157.04888954,157.760175652,23,5,16.441,133.77558138056,47.244096,33.9343798,157.04888954,14.092722,-9.842536,0.223694,327.1, 36.2, 3,,,0,0,1024,1024,1684,1159,0,0,100,20,318.5,-10.3,0,97,4.165,4.175,4.174,4.178,0,0,12.823,83.48,133.77558138056,47.244096,31,Sport,
13000,2025-08-04 08:56:39,43.5571293763749,-5.6211331588899,46.916012,,,133.44749738056,42.65092,13.645334,161.159453976,161.872708592,23,5,16.441,133.77558138056,47.244096,33.9343798,161.159453976,11.1847,-7.82929,0.223694,327.8, 31, 6.6,,,0,0,1024,1024,1684,1405,0,0,100,58,318.5,-10.3,0,97,4.165,4.175,4.174,4.178,0,0,12.823,83.48,133.44749738056,46.916012,31,Sport,
13200,2025-08-04 08:56:39,43.5571373334637,-5.62114059937698,46.916012,,,133.44749738056,42.65092,11.1623306,164.666343852,165.379598468,23,5,16.663,133.77558138056,47.244096,33.9343798,164.666343852,9.395148,-6.039738,0.223694,327.9, 20.1, 11.8,,,0,0,1024,1024,1684,1537,0,0,100,78,318.5,-10.3,0,97,4.155,4.16,4.162,4.164,0,0,5.761,83.66,133.44749738056,46.916012,31,Sport,
13400,2025-08-04 08:56:39,43.5571435088849,-5.62114579895371,46.916012,,,133.44749738056,42.65092,9.9096442,167.301842624,168.019034248,23,5,16.663,133.77558138056,47.244096,33.9343798,167.301842624,8.724066,-4.697574,0.223694,324, -3.1, 18.2,,,0,0,1024,1024,1684,1562,0,0,100,82,318.5,-10.3,0,97,4.155,4.16,4.162,4.164,0,0,5.761,83.66,133.44749738056,46.916012,31,Sport,
13600,2025-08-04 08:56:40,43.5571505970481,-5.62115008510654,46.916012,,,133.44749738056,42.65092,10.5583568,170.07710518,170.842525152,24,5,16.663,133.77558138056,47.244096,33.9343798,170.07710518,9.842536,-3.802798,0.223694,320.6, -19, 23.5,,,0,0,1024,1024,1684,1559,0,0,100,81,318.5,-10.3,0,97,4.155,4.16,4.162,4.164,0,0,5.761,83.66,133.44749738056,46.916012,31,Sport,
13800,2025-08-04 08:56:40,43.5571591296314,-5.62115359753236,46.587928,,,133.11941338056,42.65092,12.4821252,173.176842812,174.09121292,24,5,16.663,133.77558138056,47.244096,33.9343798,173.176842812,12.079476,-3.131716,0.223694,320.9, -21.9, 26.9,,,0,0,1024,1024,1684,1544,0,0,100,79,318.5,-10.3,0,97,4.155,4.16,4.162,4.164,0,0,5.761,83.66,133.11941338056,46.587928,31,Sport,
14000,2025-08-04 08:56:40,43.5571694711598,-5.6211564920981,46.587928,,,133.11941338056,42.65092,14.5624794,176.742459724,177.94127866,24,5,16.663,133.77558138056,47.244096,33.9343798,176.742459724,14.316416,-2.684328,0,321.1, -22.9, 26.8,,,0,0,1024,1024,1684,1528,0,0,100,76,318.5,-10.3,0,97,4.155,4.16,4.162,4.164,0,0,5.761,83.66,133.11941338056,46.587928,31,Sport,
14200,2025-08-04 08:56:40,43.5571819618101,-5.62115884668559,46.587928,,,133.11941338056,42.65092,16.665203,180.901252508,182.540688256,24,5,16.663,133.77558138056,47.244096,33.9343798,180.901252508,16.553356,-2.013246,0,321.3, -23.8, 25.1,,,0,0,1024,1024,1684,1517,0,0,100,75,318.5,-10.3,0,97,4.155,4.16,4.162,4.164,0,0,5.761,83.66,133.11941338056,46.587928,31,Sport,
14400,2025-08-04 08:56:40,43.5571959990906,-5.62116058930263,46.587928,,,133.11941338056,42.65092,18.6560796,185.472774964,187.683076872,24,5,16.52,133.77558138056,47.244096,33.9343798,185.472774964,18.566602,-1.789552,0,321.5, -25.2, 23.4,,,0,0,1024,1024,1684,1517,0,0,100,75,318.5,-10.3,0,97,4.101,4.106,4.105,4.108,0,0,8.669,83.84,133.11941338056,46.587928,31,Sport,
14600,2025-08-04 08:56:41,43.5572133896879,-5.62116245502801,46.587928,,,133.11941338056,42.65092,20.6469562,191.136489056,194.04692222,24,5,16.52,133.77558138056,47.244096,33.9343798,191.136489056,20.579848,-1.565858,0,321.6, -25.7, 22,,,0,0,1024,1024,1684,1517,0,0,100,75,318.5,-10.3,0,97,4.101,4.106,4.105,4.108,0,0,8.669,83.84,133.11941338056,46.587928,31,Sport,
14800,2025-08-04 08:56:41,43.5572314448766,-5.62116417811749,46.587928,,,133.11941338056,42.65092,22.4141388,197.033470872,200.650268888,24,5,16.52,133.77558138056,47.244096,33.9343798,197.033470872,22.3694,-1.565858,0,321.7, -26.1, 21.3,,,0,0,1024,1024,1684,1470,0,0,100,68,318.5,-10.3,0,97,4.101,4.106,4.105,4.108,0,0,8.669,83.84,133.11941338056,46.587928,31,Sport,
15000,2025-08-04 08:56:41,43.5572513769098,-5.62116594662181,46.587928,,,133.11941338056,42.65092,23.9799968,203.576450084,207.937342612,24,5,16.52,133.77558138056,47.244096,33.9343798,203.576450084,23.935258,-1.565858,0,321.4, -26.8, 22.3,,,0,0,1024,1024,1684,1397,0,0,100,57,318.5,-10.3,0,97,4.101,4.106,4.105,4.108,0,0,8.669,83.84,133.11941338056,46.587928,31,Sport,
15200,2025-08-04 08:56:41,43.5572676818852,-5.62116726735798,46.587928,,,133.11941338056,42.65092,25.5458548,208.949481752,213.896660388,24,5,16.52,133.77558138056,47.244096,33.9343798,208.949481752,25.501116,-1.565858,0,321.5, -28.1, 21,,,0,0,1024,1024,1684,1110,0,0,100,13,318.5,-10.3,0,97,4.101,4.106,4.105,4.108,0,0,8.669,83.84,133.11941338056,46.587928,31,Sport,
15400,2025-08-04 08:56:41,43.5572913998517,-5.62116935502054,46.587928,,,133.11941338056,42.65092,26.9103882,216.84055812,222.567592424,24,5,16.399,133.77558138056,47.244096,33.9343798,216.84055812,26.84328,-1.789552,0,322.7, -31, 14.1,,,0,0,1024,1024,1684,1024,0,0,100,0,318.5,-10.3,0,97,4.086,4.091,4.089,4.093,0,0,12.541,83.84,133.11941338056,46.587928,31,Sport,
15600,2025-08-04 08:56:42,43.5573146594042,-5.62117212302729,46.587928,,,133.11941338056,42.65092,28.1183358,224.720807716,231.085309232,24,5,16.399,133.77558138056,47.244096,33.9343798,224.720807716,27.96175,-2.908022,0,324.9, -33.1, 4.2,,,0,0,1024,1024,1684,1024,0,0,100,0,318.5,-10.3,0,97,4.086,4.091,4.089,4.093,0,0,12.541,83.84,133.11941338056,46.587928,31,Sport,
15800,2025-08-04 08:56:42,43.5573387940548,-5.62117650799193,46.587928,,,133.11941338056,42.65092,29.192067,233.120414284,239.966871196,24,5,16.399,133.77558138056,47.244096,33.9343798,233.120414284,28.856526,-4.47388,0,325.7, -33.7, 0,,,0,0,1024,1024,1684,1024,0,0,100,0,318.5,-10.3,0,97,4.086,4.091,4.089,4.093,0,0,12.541,83.84,133.11941338056,46.587928,31,Sport,
16000,2025-08-04 08:56:42,43.5573632117644,-5.62118268045265,46.259844,,,132.79132938056,42.65092,30.1763206,241.851385692,249.0239581,24,5,16.399,133.77558138056,47.244096,33.9343798,241.851385692,29.527608,-6.263432,0,325.8, -34.1, 0,,,0,0,1024,1024,1684,1024,0,0,100,0,318.5,-10.3,0,97,4.086,4.091,4.089,4.093,0,0,12.541,83.84,132.79132938056,46.259844,31,Sport,
16200,2025-08-04 08:56:42,43.5573877796403,-5.62119077756578,46.259844,,,132.79132938056,42.65092,31.1382048,250.870086768,258.239509576,24,5,16.399,133.77558138056,47.244096,33.9343798,250.870086768,30.19869,-7.605596,0,325.4, -34.1, 1.1,,,0,0,1024,1024,1684,1024,0,0,100,0,318.5,-10.3,0,97,4.086,4.091,4.089,4.093,0,0,12.541,83.84,132.79132938056,46.259844,31,Sport,
16400,2025-08-04 08:56:42,43.5574125900217,-5.62120039641716,46.259844,,,132.79132938056,42.65092,32.1448278,260.151583128,267.642068932,24,5,16.362,133.77558138056,47.244096,33.9343798,260.151583128,30.869772,-8.94776,0,325.4, -33.8, 1.5,,,0,0,1024,1024,1684,1024,0,0,100,0,318.5,-10.3,0,97,4.083,4.086,4.085,4.087,0,0,13.411,84.02,132.79132938056,46.259844,31,Sport,
16600,2025-08-04 08:56:43,43.5574374763988,-5.62121169158585,46.259844,,,132.79132938056,42.65092,33.1738202,269.649943012,277.200468188,24,5,16.362,133.77558138056,47.244096,33.9343798,269.649943012,31.540854,-10.289924,0,325.4, -33.7, 1.7,,,0,0,1024,1024,1684,1024,0,0,100,0,318.5,-10.3,0,97,4.083,4.086,4.085,4.087,0,0,13.411,84.02,132.79132938056,46.259844,31,Sport,
16800,2025-08-04 08:56:43,43.5574630307184,-5.62122404888436,46.259844,,,132.79132938056,42.65092,33.9567492,279.490166424,287.079733596,24,5,16.362,133.77558138056,47.244096,33.9567492,279.490166424,31.988242,-11.408394,0,325.5, -33.3, 1.5,,,0,0,1024,1024,1684,1024,0,0,100,0,318.5,-10.3,0,97,4.083,4.086,4.085,4.087,0,0,13.411,84.02,132.79132938056,46.259844,31,Sport,
17000,2025-08-04 08:56:43,43.5574890509393,-5.62123775136444,46.259844,,,132.79132938056,42.65092,34.896264,289.633867536,297.241151244,24,5,16.362,133.77558138056,47.244096,34.896264,289.633867536,32.659324,-12.30317,0,325.7, -33.3, 0.7,,,0,0,1024,1024,1684,1024,0,0,100,0,318.5,-10.3,0,97,4.083,4.086,4.085,4.087,0,0,13.411,84.02,132.79132938056,46.259844,31,Sport,
17200,2025-08-04 08:56:43,43.5575096384662,-5.62124965142125,46.259844,,,132.79132938056,42.65092,35.7239318,297.774943912,305.384852292,24,5,16.362,133.77558138056,47.244096,35.7239318,297.774943912,33.106712,-13.42164,0,325.9, -33.9, 0.1,,,0,0,1024,1024,1684,963,0,0,100,-9,318.5,-10.3,0,97,4.083,4.086,4.085,4.087,0,0,13.411,84.02,132.79132938056,46.259844,31,Sport,
17400,2025-08-04 08:56:43,43.5575387432911,-5.6212663602054,46.259844,,,132.79132938056,42.65092,36.4844914,309.271991524,316.885836912,24,5,16.286,133.77558138056,47.244096,36.4844914,309.271991524,33.5541,-14.316416,0,325.9, -33.6, 0.1,,,0,0,1024,1024,1684,903,0,0,100,-18,318.5,-10.3,0,97,4.062,4.066,4.063,4.065,0,0,14.192,84.02,132.79132938056,46.259844,31,Sport,
17600,2025-08-04 08:56:44,43.5575678648704,-5.62128393122941,46.259844,,,132.79132938056,42.65092,37.3345286,320.86779242,328.48098164,24,5,16.286,133.77558138056,47.244096,37.3345286,320.86779242,34.001488,-15.434886,0,326.2, -33, -0.7,,,0,0,1024,1024,1684,900,0,0,100,-19,318.5,-10.3,0,97,4.062,4.066,4.063,4.065,0,0,14.192,84.02,132.79132938056,46.259844,31,Sport,
17800,2025-08-04 08:56:44,43.5575978904956,-5.62130276331603,46.259844,,,132.79132938056,42.65092,38.1174576,332.90027312,340.51510276,24,5,16.286,133.77558138056,47.244096,38.1174576,332.90027312,34.448876,-16.329662,0,326.6, -32.5, -2.2,,,0,0,1024,1024,1684,905,0,0,100,-18,318.5,-10.3,0,97,4.062,4.066,4.063,4.065,0,0,14.192,84.02,132.79132938056,46.259844,31,Sport,
18000,2025-08-04 08:56:44,43.5576264728194,-5.62132193900026,46.259844,,,132.79132938056,42.65092,38.5201068,344.49148084,352.10959132,24,5,16.286,133.77558138056,47.244096,38.5201068,344.49148084,34.448876,-17.224438,0,326.7, -32.4, -2.6,,,0,0,1024,1024,1684,905,0,0,100,-18,318.5,-10.3,0,97,4.062,4.066,4.063,4.065,0,0,14.192,84.02,132.79132938056,46.259844,31,Sport,
18200,2025-08-04 08:56:44,43.5576549140404,-5.62134205610762,46.259844,,,132.79132938056,42.65092,39.1240806,356.135182,363.77297752,24,5,16.286,133.77558138056,47.244096,39.1240806,356.135182,34.67257,-18.119214,0,326.6, -32.6, -2.3,,,0,0,1024,1024,1684,840,0,0,100,-28,318.5,-10.3,0,97,4.062,4.066,4.063,4.065,0,0,14.192,84.02,132.79132938056,46.259844,31,Sport,
18400,2025-08-04 08:56:45,43.5576766526026,-5.62135863397986,46.259844,,,132.79132938056,42.65092,39.5490992,365.16733452,372.8346576,24,5,16.213,133.77558138056,47.244096,39.5490992,365.16733452,34.67257,-19.01399,0,326.4, -32.8, -1.6,,,0,0,1024,1024,1684,799,0,0,100,-34,318.5,-10.3,0,97,4.046,4.051,4.049,4.051,0,0,15.859,84.38,132.79132938056,46.259844,31,Sport,
18600,2025-08-04 08:56:45,43.5577067214735,-5.62138155963481,46.259844,,,132.79132938056,42.65092,40.0635954,377.66405408,385.3674664,24,5,16.213,133.77558138056,47.244096,40.0635954,377.66405408,34.896264,-19.685072,0,326.9, -32.1, -3.1,,,0,0,1024,1024,1684,654,0,0,100,-56,318.5,-10.3,0,97,4.046,4.051,4.049,4.051,0,0,15.859,84.38,132.79132938056,46.259844,31,Sport,
18800,2025-08-04 08:56:45,43.5577367793566,-5.62140534973122,46.259844,,,132.79132938056,42.65092,40.5109834,390.25263716,398.00854292,24,5,16.213,133.77558138056,47.244096,40.5109834,390.25263716,34.896264,-20.579848,-0.223694,328.1, -30.8, -8.3,,,0,0,1024,1024,1684,659,0,0,100,-55,318.5,-10.3,0,97,4.046,4.051,4.049,4.051,0,0,15.859,84.38,132.79132938056,46.259844,31,Sport,
19000,2025-08-04 08:56:45,43.5577666923673,-5.62143039726501,46.259844,,,132.79132938056,42.65092,40.8912632,402.93964544,410.77429136,24,5,16.213,133.77558138056,47.244096,40.8912632,402.93964544,34.67257,-21.698318,-0.223694,329.2, -29.7, -14.3,,,0,0,1024,1024,1684,666,0,0,100,-54,318.5,-10.3,0,97,4.046,4.051,4.049,4.051,0,0,15.859,84.38,132.79132938056,46.259844,31,Sport,
19200,2025-08-04 08:56:45,43.5577951968564,-5.62145615434131,46.259844,,,132.79132938056,42.65092,41.0702184,415.24279544,423.20539412,24,5,16.213,133.77558138056,47.244096,41.0702184,415.24279544,34.001488,-23.040482,0,329.2, -29.1, -15.2,,,0,0,1024,1024,1684,676,0,0,100,-53,318.5,-10.3,0,97,4.046,4.051,4.049,4.051,0,0,15.859,84.38,132.79132938056,46.259844,31,Sport,
19400,2025-08-04 08:56:45,43.5578233023236,-5.62148369184383,46.587928,,,133.11941338056,42.65092,41.2939124,427.6246856,435.78413468,24,5,16.202,133.77558138056,47.244096,41.2939124,427.6246856,33.330406,-24.382646,0,328.8, -28.7, -14.1,,,0,0,1024,1024,1684,677,0,0,100,-53,318.5,-10.3,0,97,4.052,4.058,4.057,4.061,0,0,16.423,84.56,133.11941338056,46.587928,31,Sport,
19600,2025-08-04 08:56:46,43.5578494540521,-5.6215110132265,46.587928,,,133.11941338056,42.65092,41.607084,439.3536886,447.74935816,24,5,16.202,133.77558138056,47.244096,41.607084,439.3536886,32.883018,-25.501116,0,328.4, -28.1, -12.8,,,0,0,1024,1024,1684,693,0,0,100,-50,318.5,-10.3,0,97,4.052,4.058,4.057,4.061,0,0,16.423,84.56,133.11941338056,46.587928,31,Sport,
19800,2025-08-04 08:56:46,43.5578758812437,-5.62154054790819,46.587928,,,133.11941338056,42.65092,41.9873638,451.44030316,460.15749504,24,5,16.202,133.77558138056,47.244096,41.9873638,451.44030316,32.659324,-26.395892,0,328.2, -27.7, -11.9,,,0,0,1024,1024,1684,697,0,0,100,-50,318.5,-10.3,0,97,4.052,4.058,4.057,4.061,0,0,16.423,84.56,133.11941338056,46.587928,31,Sport,
20000,2025-08-04 08:56:46,43.5579010730808,-5.62156971449416,46.587928,,,133.11941338056,42.65092,42.2110578,463.09712768,472.15552692,24,5,16.202,133.77558138056,47.244096,42.2110578,463.09712768,32.211936,-27.290668,0,327.9, -27.8, -11,,,0,0,1024,1024,1684,723,0,0,100,-46,318.5,-10.3,0,97,4.052,4.058,4.057,4.061,0,0,16.423,84.56,133.11941338056,46.587928,31,Sport,
20200,2025-08-04 08:56:46,43.5579260032411,-5.62159982435383,46.259844,,,132.79132938056,42.65092,42.3229048,474.79660312,484.24214148,24,5,16.202,133.77558138056,47.244096,42.3229048,474.79660312,31.764548,-27.96175,0,327.8, -27.8, -10.7,,,0,0,1024,1024,1684,763,0,0,100,-40,318.5,-10.3,0,97,4.052,4.058,4.057,4.061,0,0,16.423,84.56,132.79132938056,46.259844,31,Sport,
20400,2025-08-04 08:56:47,43.557949553801,-5.62162924424755,46.259844,,,132.79132938056,42.65092,42.4571212,485.98754836,495.8333492,24,5,16.239,133.77558138056,47.244096,42.4571212,485.98754836,31.540854,-28.409138,0,327.8, -28.6, -9.9,,,0,0,1024,1024,1684,789,0,0,100,-36,318.5,-10.3,0,97,4.054,4.059,4.058,4.063,0,0,14.562,84.74,132.79132938056,46.259844,31,Sport,
20600,2025-08-04 08:56:47,43.5579754345527,-5.62166209537591,46.259844,,,132.79132938056,42.65092,42.9045092,498.36943852,508.66471444,24,5,16.239,133.77558138056,47.244096,42.9045092,498.36943852,31.540854,-29.08022,0,327.4, -29.1, -8.4,,,0,0,1024,1024,1684,796,0,0,100,-35,318.5,-10.6,0,97,4.054,4.059,4.058,4.063,0,0,14.562,84.74,132.79132938056,46.259844,31,Sport,
20800,2025-08-04 08:56:47,43.5580013523232,-5.62169537617097,46.259844,,,132.79132938056,42.65092,42.8821398,510.83663052,521.58138152,24,5,16.239,133.77558138056,47.244096,42.9045092,510.83663052,31.31716,-29.303914,0,326.9, -29.6, -6.2,,,0,0,1024,1024,1684,796,0,0,100,-35,318.5,-11,0,97,4.054,4.059,4.058,4.063,0,0,14.562,84.74,132.79132938056,46.259844,31,Sport,
21000,2025-08-04 08:56:47,43.5580275003517,-5.62172918839696,46.259844,,,132.79132938056,42.65092,43.3518972,523.46786452,534.65552892,24,5,16.239,133.77558138056,47.244096,43.3518972,523.46786452,31.540854,-29.751302,0,326.8, -29.8, -5.2,,,0,0,1024,1024,1684,795,0,0,100,-35,318.5,-11,0,97,4.054,4.059,4.058,4.063,0,0,14.562,84.74,132.79132938056,46.259844,31,Sport,
21200,2025-08-04 08:56:47,43.5580531726198,-5.62176263097333,46.259844,,,132.79132938056,42.65092,43.3518972,535.92193316,547.53610676,24,5,16.239,133.77558138056,47.244096,43.3518972,535.92193316,31.540854,-29.751302,0,326.9, -30.2, -5.6,,,0,0,1024,1024,1684,784,0,0,100,-36,318.5,-11,0,97,4.054,4.059,4.058,4.063,0,0,14.562,84.74,132.79132938056,46.259844,31,Sport,
21400,2025-08-04 08:56:47,43.558078745248,-5.62179597759145,46.259844,,,132.79132938056,42.65092,43.6650688,548.34975508,560.37403368,24,5,16.169,133.77558138056,47.244096,43.6650688,548.34975508,31.764548,-29.974996,0,326.9, -30.1, -5.9,,,0,0,1024,1024,1684,780,0,0,100,-37,318.5,-11,0,97,4.037,4.045,4.044,4.046,0,0,15.439,84.92,132.79132938056,46.259844,31,Sport,
21600,2025-08-04 08:56:48,43.5581043471892,-5.6218295909322,46.259844,,,132.79132938056,42.65092,43.8216546,560.83991296,573.26445404,24,5,16.169,133.77558138056,47.244096,43.8216546,560.83991296,31.764548,-30.19869,0,327, -30.1, -6.6,,,0,0,1024,1024,1684,811,0,0,100,-32,318.5,-11,0,97,4.037,4.045,4.044,4.046,0,0,15.439,84.92,132.79132938056,46.259844,31,Sport,
21800,2025-08-04 08:56:48,43.558130384622,-5.6218640427115,46.259844,,,132.79132938056,42.65092,43.9782404,573.59581888,586.42718412,24,5,16.169,133.77558138056,47.244096,43.9782404,573.59581888,31.764548,-30.422384,0,327.2, -30.2, -6.9,,,0,0,1024,1024,1684,828,0,0,100,-30,318.5,-11,0,97,4.037,4.045,4.044,4.046,0,0,15.439,84.92,132.79132938056,46.259844,31,Sport,
22000,2025-08-04 08:56:48,43.5581552341955,-5.62189722285353,46.259844,,,132.79132938056,42.65092,44.291412,585.83007124,599.04201392,24,5,16.169,133.77558138056,47.244096,44.291412,585.83007124,31.764548,-30.869772,0,326.7, -30.2, -5.4,,,0,0,1024,1024,1684,834,0,0,100,-29,318.5,-11.7,0,97,4.037,4.045,4.044,4.046,0,0,15.439,84.92,132.79132938056,46.259844,31,Sport,
22200,2025-08-04 08:56:48,43.5581802519439,-5.62193075930577,46.259844,,,132.79132938056,42.65092,44.291412,598.17587216,611.76839228,24,5,16.169,133.77558138056,47.244096,44.291412,598.17587216,31.764548,-30.869772,0,326.5, -30.3, -4.1,,,0,0,1024,1024,1684,840,0,0,100,-28,318.5,-12.2,0,97,4.037,4.045,4.044,4.046,0,0,15.439,84.92,132.79132938056,46.259844,31,Sport,
22400,2025-08-04 08:56:48,43.5582040891177,-5.62196278860877,46.259844,,,132.79132938056,42.65092,44.4479978,609.96721112,623.90750028,24,5,16.169,133.77558138056,47.244096,44.4479978,609.96721112,31.988242,-30.869772,0,326.4, -31.1, -2.7,,,0,0,1024,1024,1684,851,0,0,100,-26,318.5,-12.3,0,97,4.037,4.045,4.044,4.046,0,0,15.439,84.92,132.79132938056,46.259844,31,Sport,
22600,2025-08-04 08:56:49,43.5582311673138,-5.62199915116727,46.259844,,,132.79132938056,42.65092,44.6045836,623.37272336,637.69358996,24,5,16.12,133.77558138056,47.244096,44.6045836,623.37272336,32.211936,-30.869772,0,326.2, -31, -1.8,,,0,0,1024,1024,1684,931,0,0,100,-14,318.5,-12.3,0,97,4.027,4.033,4.032,4.033,0,0,16.55,85.1,132.79132938056,46.259844,31,Sport,
22800,2025-08-04 08:56:49,43.5582570461466,-5.62203341859377,46.259844,,,132.79132938056,42.65092,44.6045836,636.13191012,650.77757988,24,5,16.12,133.77558138056,47.244096,44.6045836,636.13191012,32.211936,-30.869772,0,326.1, -31.4, -1.5,,,0,0,1024,1024,1684,932,0,0,100,-14,318.5,-12.6,0,97,4.027,4.033,4.032,4.033,0,0,16.55,85.1,132.79132938056,46.259844,31,Sport,
23000,2025-08-04 08:56:49,43.5582833033032,-5.62206785893128,46.259844,,,132.79132938056,42.65092,44.7835388,649.0485772,663.99608424,24,5,16.12,133.77558138056,47.244096,44.7835388,649.0485772,32.659324,-30.646078,0,325.8, -31.7, 0,,,0,0,1024,1024,1684,937,0,0,100,-13,318.5,-15.9,0,97,4.027,4.033,4.032,4.033,0,0,16.55,85.1,132.79132938056,46.259844,31,Sport,
23200,2025-08-04 08:56:49,43.5583080622632,-5.62209984706036,46.259844,,,132.79132938056,42.65092,44.8059082,661.171281,676.37141272,24,5,16.12,133.77558138056,47.244096,44.8059082,661.171281,32.883018,-30.422384,0,325.4, -32.1, 1,,,0,0,1024,1024,1684,939,0,0,100,-13,318.5,-19.5,0,97,4.027,4.033,4.032,4.033,0,0,16.55,85.1,132.79132938056,46.259844,31,Sport,
23400,2025-08-04 08:56:49,43.5583361658911,-5.62213582578873,46.259844,,,132.79132938056,42.65092,44.8059082,674.89503472,690.35763364,24,5,16.12,133.77558138056,47.244096,44.8059082,674.89503472,33.106712,-30.19869,0,325.3, -32.5, 1.6,,,0,0,1024,1024,1684,1020,0,0,100,-1,318.5,-20.5,0,97,4.027,4.033,4.032,4.033,0,0,16.55,85.1,132.79132938056,46.259844,31,Sport,
23600,2025-08-04 08:56:50,43.5583630562802,-5.62216941487931,46.259844,,,132.79132938056,42.65092,44.8282776,687.91996952,703.58926136,24,5,16.11,133.77558138056,47.244096,44.8282776,687.91996952,33.330406,-29.974996,0,325.4, -32.4, 1.2,,,0,0,1024,1024,1684,1024,0,0,100,0,318.5,-20.5,0,96,4.019,4.022,4.019,4.021,0,0,16.71,85.46,132.79132938056,46.259844,31,Sport,
23800,2025-08-04 08:56:50,43.5583906619434,-5.62220348037198,46.259844,,,132.79132938056,42.65092,45.0072328,701.24017992,717.10304132,24,5,16.11,133.77558138056,47.244096,45.0072328,701.24017992,33.777794,-29.751302,0,325.2, -32.2, 1.8,,,0,0,1024,1024,1684,1136,0,0,100,17,318.5,-20.5,0,96,4.019,4.022,4.019,4.021,0,0,16.71,85.46,132.79132938056,46.259844,31,Sport,
24000,2025-08-04 08:56:50,43.558418260584,-5.62223677254373,46.259844,,,132.79132938056,42.65092,45.0296022,714.45540344,730.47574516,24,5,16.11,133.77558138056,47.244096,45.0296022,714.45540344,34.001488,-29.527608,0,325.2, -32.3, 2.1,,,0,0,1024,1024,1642,1516,0,0,94,75,318.5,-20.5,0,96,4.019,4.022,4.019,4.021,0,0,16.71,85.46,132.79132938056,46.259844,31,Sport,
24200,2025-08-04 08:56:50,43.5584456326585,-5.62226941882917,46.259844,,,132.79132938056,42.65092,45.2309268,727.51314664,743.67456448,24,5,16.11,133.77558138056,47.244096,45.2309268,727.51314664,34.448876,-29.303914,0,324.6, -32.3, 4.2,,,0,0,1024,1024,1647,1522,0,0,94,75,318.5,-20.5,0,96,4.019,4.022,4.019,4.021,0,0,16.71,85.46,132.79132938056,46.259844,31,Sport,
24400,2025-08-04 08:56:50,43.5584735811017,-5.6223016851857,46.259844,,,132.79132938056,42.65092,45.1414492,740.70212344,756.971809,24,5,16.11,133.77558138056,47.244096,45.2309268,740.70212344,34.896264,-28.632832,-0.223694,321.4, -28.9, 17.1,,,0,0,1024,1024,1643,1581,0,0,94,84,318.5,-20.5,0,96,4.019,4.022,4.019,4.021,0,0,16.71,85.46,132.79132938056,46.259844,31,Sport,
24600,2025-08-04 08:56:51,43.5585018320697,-5.62233246463253,46.587928,,,133.11941338056,42.65092,45.0519716,753.77299,770.10501152,24,5,16.063,133.77558138056,47.244096,45.2309268,753.77299,36.014734,-27.066974,-0.447388,320.9, -24.6, 25.2,,,0,0,1024,1024,1631,1630,0,0,92,92,318.5,-20.5,0,96,4.011,4.017,4.017,4.024,0,0,17.492,85.64,133.11941338056,46.587928,31,Sport,
24800,2025-08-04 08:56:51,43.5585310433739,-5.62236124547263,46.587928,,,133.11941338056,42.65092,44.4256284,766.85369908,783.19884396,24,5,16.063,133.77558138056,47.244096,45.2309268,766.85369908,36.685816,-25.053728,-0.223694,320.2, -21.6, 29.2,,,0,0,1024,1024,1611,1681,0,0,89,100,318.5,-20.5,0,96,4.011,4.017,4.017,4.024,0,0,17.492,85.64,133.11941338056,46.587928,31,Sport,
25000,2025-08-04 08:56:51,43.5585607363077,-5.62238757388814,46.587928,,,133.11941338056,42.65092,43.8887628,779.73099608,796.07614096,24,5,16.063,133.77558138056,47.244096,45.2309268,779.73099608,37.356898,-23.040482,-0.223694,319.5, -18.4, 31.3,,,0,0,1024,1024,1598,1684,0,0,87,100,318.5,-20.5,0,96,4.011,4.017,4.017,4.024,0,0,17.492,85.64,133.11941338056,46.587928,31,Sport,
25200,2025-08-04 08:56:51,43.5585910919868,-5.62241147015098,46.587928,,,133.11941338056,42.65092,43.1505726,792.46393612,808.8254852,24,5,16.063,133.77558138056,47.244096,45.2309268,792.46393612,37.804286,-20.803542,0,319.1, -16, 32.5,,,0,0,1024,1024,1595,1684,0,0,87,100,318.5,-20.5,0,96,4.011,4.017,4.017,4.024,0,0,17.492,85.64,133.11941338056,46.587928,31,Sport,
25400,2025-08-04 08:56:51,43.5586217323605,-5.6224324672368,46.916012,,,133.44749738056,42.65092,42.5242294,804.86879216,821.3090814,24,5,16.063,133.77558138056,47.244096,45.2309268,804.86879216,38.251674,-18.566602,0,318.9, -14.2, 33.1,,,0,0,1024,1024,1592,1684,0,0,86,100,318.5,-20.5,0,96,4.011,4.017,4.017,4.024,0,0,17.492,85.64,133.44749738056,46.916012,31,Sport,
25600,2025-08-04 08:56:52,43.5586527315836,-5.6224512666756,46.916012,,,133.44749738056,42.65092,41.8084086,817.07351696,833.661444,24,5,16.255,133.77558138056,47.244096,45.2309268,817.07351696,38.475368,-16.329662,0,318.7, -13.8, 33,,,0,0,1024,1024,1591,1684,0,0,86,100,318.5,-20.5,0,96,4.068,4.074,4.075,4.078,0,0,14.448,85.82,133.44749738056,46.916012,31,Sport,
25800,2025-08-04 08:56:52,43.5586837076296,-5.62246754444752,46.916012,,,133.44749738056,42.65092,41.271543,828.9206302,845.75462024,24,5,16.255,133.77558138056,47.244096,45.2309268,828.9206302,38.699062,-14.316416,0,318.4, -13.9, 32.8,,,0,0,1024,1024,1592,1684,0,0,86,100,318.5,-20.5,0,96,4.068,4.074,4.075,4.078,0,0,14.448,85.82,133.44749738056,46.916012,31,Sport,
26000,2025-08-04 08:56:52,43.5587149832106,-5.62248183476418,46.916012,,,133.44749738056,42.65092,40.824155,840.5840164,857.775618,24,5,16.255,133.77558138056,47.244096,45.2309268,840.5840164,38.922756,-12.30317,0,318.5, -14.4, 32.5,,,0,0,1024,1024,1592,1673,0,0,86,98,318.5,-20.5,0,96,4.068,4.074,4.075,4.078,0,0,14.448,85.82,133.44749738056,46.916012,31,Sport,
26200,2025-08-04 08:56:52,43.5587457409038,-5.62249374807491,46.916012,,,133.44749738056,42.65092,40.5333528,851.76839996,869.43244252,24,5,16.255,133.77558138056,47.244096,45.2309268,851.76839996,39.14645,-10.513618,0,318.6, -14.6, 32.2,,,0,0,1024,1024,1684,1379,0,0,100,54,318.5,-20.5,0,96,4.068,4.074,4.075,4.078,0,0,14.448,85.82,133.44749738056,46.916012,31,Sport,
26400,2025-08-04 08:56:53,43.5587755569378,-5.62250330828007,46.916012,,,133.44749738056,42.65092,40.376767,862.34254728,880.60042188,24,5,16.255,133.77558138056,47.244096,45.2309268,862.34254728,39.370144,-8.94776,0,318.4, -15.5, 31.6,,,0,0,1024,1024,1684,1226,0,0,100,31,318.5,-20.5,0,96,4.068,4.074,4.075,4.078,0,0,14.448,85.82,133.44749738056,46.916012,31,Sport,
26600,2025-08-04 08:56:53,43.5588078452925,-5.62251272605148,46.916012,,,133.44749738056,42.65092,40.1083342,873.68113032,892.64110468,24,5,16.266,133.77558138056,47.244096,45.2309268,873.68113032,39.370144,-7.605596,0.223694,318.2, -22.2, 27.3,,,0,0,1024,1024,1684,1152,0,0,100,19,318.5,-20.5,0,96,4.047,4.05,4.05,4.053,0,0,11.773,86,133.44749738056,46.916012,31,Sport,
26800,2025-08-04 08:56:53,43.5588402403254,-5.62252100219158,46.916012,,,133.44749738056,42.65092,40.2425506,884.91800732,904.66210244,24,5,16.266,133.77558138056,47.244096,45.2309268,884.91800732,39.593838,-7.158208,0.223694,321, -29.1, 18.8,,,0,0,1024,1024,1684,1047,0,0,100,3,318.5,-20.5,0,96,4.047,4.05,4.05,4.053,0,0,11.773,86,133.44749738056,46.916012,31,Sport,
27000,2025-08-04 08:56:53,43.5588728757415,-5.62252956371967,46.587928,,,133.11941338056,42.65092,40.488614,896.28611792,916.7815254,24,5,16.266,133.77558138056,47.244096,45.2309268,896.28611792,39.817532,-7.381902,0,323.2, -33.5, 9.7,,,0,0,1024,1024,1684,1024,0,0,100,0,318.5,-20.5,0,96,4.047,4.05,4.05,4.053,0,0,11.773,86,133.11941338056,46.587928,31,Sport,
27200,2025-08-04 08:56:53,43.5589052723941,-5.62253857522998,46.587928,,,133.11941338056,42.65092,40.936002,907.6607902,928.8386124,24,5,16.266,133.77558138056,47.244096,45.2309268,907.6607902,40.041226,-8.500372,0,324.8, -34.8, 3.8,,,0,0,1024,1024,1684,1024,0,0,100,0,318.5,-20.5,0,96,4.047,4.05,4.05,4.053,0,0,11.773,86,133.11941338056,46.587928,31,Sport,
27400,2025-08-04 08:56:53,43.558938094375,-5.62254963477631,46.587928,,,133.11941338056,42.65092,41.1820654,919.46197168,941.16472828,24,5,16.266,133.77558138056,47.244096,45.2309268,919.46197168,40.041226,-9.618842,0,324.9, -35, 2.3,,,0,0,1024,1024,1669,1024,0,0,98,0,318.5,-20.5,0,96,4.047,4.05,4.05,4.053,0,0,11.773,86,133.11941338056,46.587928,31,Sport,
27600,2025-08-04 08:56:54,43.5589693126358,-5.62256120652019,46.587928,,,133.11941338056,42.65092,41.2939124,930.83664396,952.95934808,24,5,16.063,133.77558138056,47.244096,45.2309268,930.83664396,39.817532,-10.961006,0,324.9, -34.8, 2.4,,,0,0,1024,1024,1524,1057,0,0,76,5,318.5,-20.5,0,96,4.014,4.02,4.019,4.022,0,0,15.501,86.36,133.11941338056,46.587928,31,Sport,
27800,2025-08-04 08:56:54,43.5590004548227,-5.62257445557997,46.587928,,,133.11941338056,42.65092,41.4057594,942.42129,964.84911224,24,5,16.063,133.77558138056,47.244096,45.2309268,942.42129,39.593838,-12.079476,0,324.9, -34.5, 2.5,,,0,0,1024,1024,1024,1024,0,0,0,0,318.5,-20.5,0,96,4.014,4.02,4.019,4.022,0,0,15.501,86.36,133.11941338056,46.587928,31,Sport,
28000,2025-08-04 08:56:54,43.5590299407918,-5.62258823896691,46.916012,,,133.44749738056,42.65092,41.4504982,953.5597418,976.20738032,24,5,16.063,133.77558138056,47.244096,45.2309268,953.5597418,39.370144,-12.974252,-0.223694,325.1, -20.3, 2.8,,,0,0,1024,1024,1024,1024,0,0,0,0,318.5,-20.5,0,96,4.014,4.02,4.019,4.022,0,0,15.501,86.36,133.44749738056,46.916012,31,Sport,
28200,2025-08-04 08:56:54,43.5590605622486,-5.62260354097673,47.244096,,,133.77558138056,42.65092,40.1754424,965.26249808,988.0905828,24,5,16.063,133.77558138056,47.244096,45.2309268,965.26249808,38.02798,-12.974252,-1.11847,326.2, 3, -6,,,0,0,1024,1024,1024,1024,0,0,0,0,318.5,-20.5,0,96,4.014,4.02,4.019,4.022,0,0,15.501,86.36,133.77558138056,47.244096,31,Sport,
28400,2025-08-04 08:56:54,43.5590890655603,-5.62261804858771,47.244096,,,133.77558138056,42.65092,37.2226816,976.19425696,999.17326032,24,5,16.063,133.77558138056,47.244096,45.2309268,976.19425696,34.896264,-12.974252,-0.894776,322.8, 20.7, -19.1,,,0,0,1024,1024,1343,757,0,0,48,-40,318.5,-20.5,0,96,4.014,4.02,4.019,4.022,0,0,15.501,86.36,133.77558138056,47.244096,31,Sport,
28600,2025-08-04 08:56:55,43.5591177214306,-5.62263393372344,47.57218,,,134.10366538056,42.65092,33.5988388,987.35895548,1010.43966488,24,5,16.063,134.10366538056,47.57218,45.2309268,987.35895548,31.093466,-12.750558,0,321.2, 25.6, -21.9,,,0,0,1024,1024,1390,577,0,0,55,-68,318.5,-20.5,0,96,4.124,4.132,4.123,4.135,0,0,16.341,86.36,134.10366538056,47.57218,31,Sport,
28800,2025-08-04 08:56:55,43.5591419214263,-5.6226486889216,47.57218,,,134.10366538056,42.65092,30.1315818,996.96197416,1020.095177,24,5,16.063,134.10366538056,47.57218,45.2309268,996.96197416,27.290668,-12.750558,0.447388,320.6, 26.1, -23.1,,,0,0,1024,1024,1443,492,0,0,63,-81,318.5,-20.5,0,96,4.124,4.132,4.123,4.135,0,0,16.341,86.36,134.10366538056,47.57218,31,Sport,
29000,2025-08-04 08:56:55,43.5591617209239,-5.62266289560718,47.244096,,,133.77558138056,42.65092,26.3287838,1005.09845736,1028.23494104,24,5,16.063,134.10366538056,47.57218,45.2309268,1005.09845736,23.040482,-12.750558,0.223694,320.8, 21.2, -28.2,,,0,0,1024,1024,1483,492,0,0,70,-81,318.5,-20.5,0,96,4.124,4.132,4.123,4.135,0,0,16.341,86.36,133.77558138056,47.244096,31,Sport,
29200,2025-08-04 08:56:55,43.5591769834018,-5.62267697178643,47.244096,,,133.77558138056,42.65092,23.7786722,1011.7782476,1034.93441632,24,5,16.063,134.10366538056,47.57218,45.2309268,1011.7782476,19.461378,-13.645334,0.223694,320.6, 19.2, -30.4,,,0,0,1024,1024,1652,494,0,0,95,-80,318.5,-20.5,0,96,4.124,4.132,4.123,4.135,0,0,16.341,86.36,133.77558138056,47.244096,31,Sport,
29400,2025-08-04 08:56:55,43.5591901596681,-5.6226931763643,46.916012,,,133.44749738056,42.65092,21.3851464,1018.07417956,1041.37470524,24,5,16.063,134.10366538056,47.57218,45.2309268,1018.07417956,15.882274,-14.316416,0.223694,320.5, 18.5, -30.7,,,0,0,1024,1024,1655,558,0,0,96,-71,318.5,-20.5,0,96,4.124,4.132,4.123,4.135,0,0,16.341,86.36,133.44749738056,46.916012,31,Sport,
29600,2025-08-04 08:56:56,43.5592012988048,-5.62271020354397,46.587928,,,133.11941338056,42.65092,19.7074414,1023.8353346,1047.43769756,24,5,16.479,134.10366538056,47.57218,45.2309268,1023.8353346,12.526864,-15.211192,0.223694,321.6, 17, -26.2,,,0,0,1024,1024,1684,565,0,0,100,-70,318.5,-20.5,0,96,4.11,4.116,4.117,4.115,0,0,5.571,86.54,133.11941338056,46.587928,31,Sport,
29800,2025-08-04 08:56:56,43.5592095284988,-5.62272827313818,46.587928,,,133.11941338056,42.65092,18.9245124,1028.81564972,1053.08074236,24,5,16.479,134.10366538056,47.57218,45.2309268,1028.81564972,10.289924,-15.882274,0.223694,327.1, -3.6, -19.2,,,0,0,1024,1024,1684,565,0,0,100,-70,318.5,-20.5,0,96,4.11,4.116,4.117,4.115,0,0,5.571,86.54,133.11941338056,46.587928,31,Sport,
30000,2025-08-04 08:56:56,43.5592170848982,-5.62274692808247,46.587928,,,133.11941338056,42.65092,19.5284862,1033.66801208,1058.73034884,24,5,16.479,134.10366538056,47.57218,45.2309268,1033.66801208,9.618842,-17.000744,0.223694,331.7, -19.8, -16.3,,,0,0,1024,1024,1684,566,0,0,100,-69,318.5,-20.8,0,96,4.11,4.116,4.117,4.115,0,0,5.571,86.54,133.11941338056,46.587928,31,Sport,
30200,2025-08-04 08:56:56,43.5592241922535,-5.62276683871696,46.259844,,,132.79132938056,42.65092,20.915389,1038.55646368,1064.5997716,24,5,16.479,134.10366538056,47.57218,45.2309268,1038.55646368,10.06623,-18.342908,0.223694,329.5, -24.3, -15.9,,,0,0,1024,1024,1684,583,0,0,100,-67,318.5,-22.9,0,96,4.11,4.116,4.117,4.115,0,0,5.571,86.54,132.79132938056,46.259844,31,Sport,
30400,2025-08-04 08:56:56,43.5592316376269,-5.62278768733629,46.259844,,,132.79132938056,42.65092,22.5036164,1043.6844166,1070.74478492,24,5,16.479,134.10366538056,47.57218,45.2309268,1043.6844166,10.513618,-19.908766,0,329.1, -25.6, -16.3,,,0,0,1024,1024,1684,597,0,0,100,-65,318.5,-24.3,0,96,4.11,4.116,4.117,4.115,0,0,5.571,86.54,132.79132938056,46.259844,31,Sport,
30600,2025-08-04 08:56:57,43.5592402796222,-5.62281200615354,45.93176,,,132.46324538056,42.65092,24.1142132,1049.66538792,1077.90685864,24,5,16.419,134.10366538056,47.57218,45.2309268,1049.66538792,10.961006,-21.474624,0,329, -26.7, -15.7,,,0,0,1024,1024,1684,638,0,0,100,-58,318.5,-24.5,0,96,4.072,4.076,4.076,4.077,0,0,7.854,86.54,132.46324538056,45.93176,31,Sport,
30800,2025-08-04 08:56:57,43.559249595454,-5.62283748857519,45.93176,,,132.46324538056,42.65092,25.612963,1056.03349836,1085.45279064,24,5,16.419,134.10366538056,47.57218,45.2309268,1056.03349836,11.632088,-22.816788,0,328.6, -27.9, -14.3,,,0,0,1024,1024,1684,694,0,0,100,-50,318.5,-24.5,0,96,4.072,4.076,4.076,4.077,0,0,7.854,86.54,132.46324538056,45.93176,31,Sport,
31000,2025-08-04 08:56:57,43.5592598630967,-5.62286479883143,45.93176,,,132.46324538056,42.65092,27.1117128,1062.96263244,1093.585993,24,5,16.419,134.10366538056,47.57218,45.2309268,1062.96263244,12.30317,-24.158952,0,328, -29, -12.4,,,0,0,1024,1024,1684,745,0,0,100,-42,318.5,-24.5,0,96,4.072,4.076,4.076,4.077,0,0,7.854,86.54,132.46324538056,45.93176,31,Sport,
31200,2025-08-04 08:56:57,43.5592703380015,-5.62289273148346,46.259844,,,132.79132938056,42.65092,28.520985,1070.05580852,1101.9029224,24,5,16.419,134.10366538056,47.57218,45.2309268,1070.05580852,13.197946,-25.277422,0,327.8, -30, -10,,,0,0,1024,1024,1603,1398,0,0,88,57,318.5,-24.5,0,96,4.072,4.076,4.076,4.077,0,0,7.854,86.54,132.79132938056,46.259844,31,Sport,
31400,2025-08-04 08:56:57,43.5592817170084,-5.62292176217712,46.259844,,,132.79132938056,42.65092,29.527608,1077.60174052,1110.6299568,24,5,16.419,134.10366538056,47.57218,45.2309268,1077.60174052,14.092722,-25.948504,0,325.9, -32, -2.3,,,0,0,1024,1024,1589,1470,0,0,86,68,318.5,-24.5,0,96,4.072,4.076,4.076,4.077,0,0,7.854,86.54,132.79132938056,46.259844,31,Sport,
31600,2025-08-04 08:56:58,43.559293937082,-5.62295116514175,46.259844,,,132.79132938056,42.65092,30.4894922,1085.47903736,1119.58993084,24,5,16.247,134.10366538056,47.57218,45.2309268,1085.47903736,15.65858,-26.172198,0,322.4, -30.8, 13,,,0,0,1024,1024,1524,1684,0,0,76,100,318.5,-24.5,0,96,4.051,4.055,4.054,4.057,0,0,11.985,86.54,132.79132938056,46.259844,31,Sport,
31800,2025-08-04 08:56:58,43.5593077079668,-5.62297986751765,46.259844,,,132.79132938056,42.65092,30.6684474,1093.75331584,1128.690981,24,5,16.247,134.10366538056,47.57218,45.2309268,1093.75331584,17.671826,-25.053728,-0.447388,321.1, -19.8, 28.2,,,0,0,1024,1024,1517,1684,0,0,75,100,318.5,-24.5,0,96,4.051,4.055,4.054,4.057,0,0,11.985,86.54,132.79132938056,46.259844,31,Sport,
32000,2025-08-04 08:56:58,43.5593230176002,-5.62300639399425,46.587928,,,133.11941338056,42.65092,29.8184102,1102.21132136,1137.65751672,24,5,16.247,134.10366538056,47.57218,45.2309268,1102.21132136,19.461378,-22.593094,-0.447388,319.6, -11.9, 32.9,,,0,0,1024,1024,1498,1672,0,0,72,98,318.5,-24.5,0,96,4.051,4.055,4.054,4.057,0,0,11.985,86.54,133.11941338056,46.587928,31,Sport,
32200,2025-08-04 08:56:58,43.5593393333344,-5.62302965666002,46.587928,,,133.11941338056,42.65092,29.1025894,1110.52496992,1146.21722828,24,5,16.247,134.10366538056,47.57218,45.2309268,1110.52496992,20.803542,-20.356154,0,319, -9.9, 34.2,,,0,0,814,1024,1492,1608,-32,0,71,88,318.5,-24.5,0,96,4.051,4.055,4.054,4.057,0,0,11.985,86.54,133.11941338056,46.587928,31,Sport,
32400,2025-08-04 08:56:58,43.5593561756857,-5.62304877177099,46.916012,,,133.44749738056,42.65092,28.3420298,1118.41867096,1154.17326528,24,5,16.247,134.10366538056,47.57218,45.2309268,1118.41867096,22.145706,-17.671826,0,318.9, -9.7, 34.4,,,0,0,426,1127,1202,1024,-91,16,27,0,318.5,-24.5,0,96,4.051,4.055,4.054,4.057,0,0,11.985,86.54,133.44749738056,46.916012,31,Sport,
32600,2025-08-04 08:56:59,43.559375201563,-5.62306673330424,46.916012,,,133.44749738056,42.65092,27.849903,1126.82418304,1162.5820582,24,5,16.366,134.10366538056,47.57218,45.2309268,1126.82418304,23.040482,-15.65858,0.671082,317.2, -13.2, 34.2,,,0,0,375,1152,1024,1024,-98,19,0,0,318.7,-24.5,0,96,4.096,4.1,4.098,4.101,0,0,11.448,86.72,133.44749738056,46.916012,31,Sport,
