time(millisecond),datetime(utc),latitude,longitude,height_above_takeoff(feet),height_above_ground_at_drone_location(feet),ground_elevation_at_drone_location(feet),altitude_above_seaLevel(feet),height_sonar(feet),speed(mph),distance(feet),mileage(feet),satellites,gpslevel,voltage(v),max_altitude(feet),max_ascent(feet),max_speed(mph),max_distance(feet), xSpeed(mph), ySpeed(mph), zSpeed(mph), compass_heading(degrees), pitch(degrees), roll(degrees),wind_speed(mph),wind_direction(degrees),isPhoto,isVideo,rc_elevator,rc_aileron,rc_throttle,rc_rudder,rc_elevator(percent),rc_aileron(percent),rc_throttle(percent),rc_rudder(percent),gimbal_heading(degrees),gimbal_pitch(degrees),gimbal_roll(degrees),battery_percent,voltageCell1,voltageCell2,voltageCell3,voltageCell4,voltageCell5,voltageCell6,current(A),battery_temperature(f),altitude(feet),ascent(feet),flycStateRaw,flycState,message
100,2025-08-04 09:50:58,43.556765448239,-5.62078761703128,0,Available with any HD 360 subscription,Available with any HD 360 subscription,86.203813125976,0,0,0,0,28,5,0,86.203813125976,0,0,0,0,0,0,303.8, 2.8, 2.1,Available with Enterprise subscription,,0,0,364,364,364,1684,-100,-100,-100,100,303.9,0,0,100,4.263,4.247,4.259,4.259,0,0,0,83.66,86.203813125976,0,41,Motors_Started,"Flying over vegetation."
300,2025-08-04 09:50:58,43.5567654447753,-5.62078760819002,0,,,86.203813125976,0,0,0.00265737541312,0.00265737541312,28,5,0,86.203813125976,0,0,0.00265737541312,0,0,0,303.8, 2.8, 2.1,,,0,0,364,364,364,1684,-100,-100,-100,100,303.9,0,0,100,4.263,4.247,4.259,4.259,0,0,0,83.66,86.203813125976,0,41,Motors_Started,"Setting new Return-To-Home altitude to 25m (82 ft). Data Recorder File Index is 198. Setting new Maximum Flight Altitude to 45m (148 ft)"
500,2025-08-04 09:50:58,43.5567654430407,-5.6207876063238,0,,,86.203813125976,0,0,0.003407644466,0.0034598754388,28,5,0,86.203813125976,0,0,0.003407644466,0,0,0,303.7, 2.8, 2.1,,,0,0,1024,1024,1024,1024,0,0,0,0,303.9,0,0,100,4.263,4.247,4.259,4.259,0,0,0,83.66,86.203813125976,0,41,Motors_Started,
700,2025-08-04 09:50:59,43.5567654454263,-5.62078759398627,0,,,86.203813125976,0,0,0.0061790028224,0.0068360566492,28,5,0,86.203813125976,0,0,0.0061790028224,0,0,0,303.6, 2.8, 2.2,,,0,0,1024,1024,1024,1024,0,0,0,0,303.9,0,0,100,4.263,4.247,4.259,4.259,0,0,0,83.66,86.203813125976,0,41,Motors_Started,
900,2025-08-04 09:50:59,43.5567654552258,-5.62078757709015,0,,,86.203813125976,0,0,0.0108638783004,0.0125580056512,28,5,0,86.203813125976,0,0,0.0108638783004,0,0,0,303.5, 2.7, 2.2,,,0,0,1024,1024,1024,1024,0,0,0,0,303.9,0,0,100,4.263,4.247,4.259,4.259,0,0,0,83.66,86.203813125976,0,41,Motors_Started,
1100,2025-08-04 09:50:59,43.5567654622362,-5.62078756366116,0,,,86.203813125976,0,0,0.0150069230524,0.0169340228516,28,5,0,86.203813125976,0,0,0.0150069230524,0,0,0,303.5, 2.8, 2.2,,,0,0,1024,1024,1024,1024,0,0,0,0,303.9,0,0,100,4.263,4.247,4.259,4.259,0,0,0,83.66,86.203813125976,0,41,Motors_Started,
1300,2025-08-04 09:50:59,43.5567654652507,-5.62078754012862,0,,,86.203813125976,0,0,0.021259515116,0.0232525597992,28,5,17.131,86.203813125976,0,0,0.021259515116,0,0,0,303.4, 2.7, 2.2,,,0,0,1024,1024,1024,1024,0,0,0,0,303.9,0,0,100,4.263,4.247,4.259,4.259,0,0,1.475,83.66,86.203813125976,0,41,Motors_Started,
1500,2025-08-04 09:50:59,43.556765469781,-5.62078752458837,0,,,86.203813125976,0,0,0.0256748039712,0.027681431332,28,5,17.131,86.203813125976,0,0,0.0256748039712,0,0,0,303.3, 2.7, 2.2,,,0,0,1024,1024,1024,1024,0,0,0,0,303.8,0,0,100,4.263,4.247,4.259,4.259,0,0,1.475,83.66,86.203813125976,0,41,Motors_Started,
1700,2025-08-04 09:51:00,43.5567654797254,-5.62078751794968,0,,,86.203813125976,0,0,0.0286055783432,0.031711943272,28,5,17.131,86.203813125976,0,0,0.0286055783432,0,0,0,303.3, 2.7, 2.2,,,0,0,1024,1024,1024,1024,0,0,0,0,303.8,0,0,100,4.263,4.247,4.259,4.259,0,0,1.475,83.66,86.203813125976,0,10,Assisted_Takeoff,
1900,2025-08-04 09:51:00,43.556765482502,-5.62078751909926,0,,,86.203813125976,0,0,0.0287532161432,0.0327696204712,28,5,17.131,86.203813125976,0,0,0.0287532161432,0,0,0,303.3, 2.7, 2.2,,,0,0,1024,1024,1024,1024,0,0,0,0,303.8,0,0,100,4.263,4.247,4.259,4.259,0,0,1.475,83.66,86.203813125976,0,10,Assisted_Takeoff,
2100,2025-08-04 09:51:00,43.5567654897915,-5.62078750323553,0,,,86.203813125976,0,0,0.033691602128,0.03773622168,28,5,17.131,86.203813125976,0,0,0.033691602128,0,0,0,303.3, 2.7, 2.2,,,0,0,1024,1024,1024,1024,0,0,0,0,303.8,0,0,100,4.263,4.247,4.259,4.259,0,0,1.475,83.66,86.203813125976,0,10,Assisted_Takeoff,
2300,2025-08-04 09:51:00,43.5567654820371,-5.6207875257156,0,,,86.203813125976,0,0,0.027110893256,0.044318899056,28,5,16.994,86.203813125976,0,0,0.033691602128,0,0,0,303.2, 2.7, 2.2,,,0,0,1304,1024,1024,1024,42,0,0,0,303.8,0,0,99,4.27,4.255,4.272,4.274,0,0,4.531,83.66,86.203813125976,0,10,Assisted_Takeoff,
2500,2025-08-04 09:51:00,43.5567654908941,-5.62078755167066,0,,,86.203813125976,0,0,0.0232561687232,0.051904201136,28,5,16.994,86.203813125976,0,0,0.033691602128,0,0,0,303.2, 2.7, 2.2,,,0,0,1465,1024,1024,1024,67,0,0,0,303.7,0,0,99,4.27,4.255,4.272,4.274,0,0,4.531,83.66,86.203813125976,0,10,Assisted_Takeoff,
2700,2025-08-04 09:51:01,43.5567654899017,-5.62078760848019,0,,,86.203813125976,0,0,0.0153678154524,0.066929464084,28,5,16.994,86.203813125976,0,0,0.033691602128,0,0,0,303.2, 2.6, 2.3,,,0,0,1684,1024,1024,1024,100,0,0,0,303.7,0,0,99,4.27,4.255,4.272,4.274,0,0,4.531,83.66,86.203813125976,0,10,Assisted_Takeoff,
2900,2025-08-04 09:51:01,43.5567655034517,-5.62078761889725,0,,,86.203813125976,0,0,0.0201503615372,0.072588585,28,5,16.994,86.203813125976,0,0,0.033691602128,0,0,0,302.8, 2, 2.3,,,0,0,1684,1024,1024,1024,100,0,0,0,303.7,0,0,99,4.27,4.255,4.272,4.274,0,0,4.531,83.66,86.203813125976,0,10,Assisted_Takeoff,
3100,2025-08-04 09:51:01,43.5567655510946,-5.62078764391658,0,,,86.203813125976,0,0,0.038194226944,0.091187338876,28,5,16.994,86.203813125976,0,0,0.038194226944,0,0,-0.447388,302.1, -3.8, 1.6,,,0,0,1684,1024,1024,1024,100,0,0,0,303.6,0,0,99,4.27,4.255,4.272,4.274,0,0,4.531,83.66,86.203813125976,0,10,Assisted_Takeoff,
3300,2025-08-04 09:51:01,43.5567657473979,-5.62078792203189,0.328084,,,86.531897125976,0.328084,0.3131716,0.135707681508,0.19383694846,28,5,17.097,86.531897125976,0.328084,0.3131716,0.135707681508,0.223694,-0.223694,-1.565858,303.2, 0, 0.9,,,0,0,1684,1024,1024,1024,100,0,0,0,303.6,0,0,99,4.278,4.261,4.278,4.278,0,0,2.525,83.66,86.531897125976,0.328084,31,Sport,
3500,2025-08-04 09:51:01,43.5567658918223,-5.62078833610809,0.984252,,,87.188065125976,0.984252,0.223694,0.249681110352,0.315340561272,28,5,17.097,87.188065125976,0.984252,0.3131716,0.249681110352,0,-0.223694,-3.131716,303.5, 4, -0.3,,,0,0,1684,1024,1024,1024,100,0,0,0,303.6,0,0,99,4.278,4.261,4.278,4.278,0,0,2.525,83.66,87.188065125976,0.984252,31,Sport,
3700,2025-08-04 09:51:02,43.5567658019348,-5.62078868985162,1.968504,,,88.172317125976,2.296588,0.223694,0.311631571652,0.41445539384,29,5,17.097,88.172317125976,1.968504,0.3131716,0.311631571652,0,-0.223694,-4.921268,303.5, 2.2, 2.3,,,0,0,1684,1024,1024,1024,100,0,0,0,303.6,0,0,99,4.278,4.261,4.278,4.278,0,0,2.525,83.66,88.172317125976,1.968504,31,Sport,
3900,2025-08-04 09:51:02,43.5567657090607,-5.62078896487352,3.937008,,,90.140821125976,4.265092,0.223694,0.36886156036,0.49467849352,29,5,17.097,90.140821125976,3.937008,0.3131716,0.36886156036,0,-0.223694,-6.71082,303.8, 2.9, 3.4,,,0,0,1684,1024,1024,1024,100,0,0,0,303.6,0,0,99,4.278,4.261,4.278,4.278,0,0,2.525,83.66,90.140821125976,3.937008,31,Sport,
4100,2025-08-04 09:51:02,43.5567656925049,-5.62078902963335,6.233596,,,92.437409125976,6.56168,0,0.38398295192,0.51283466208,31,5,17.097,92.437409125976,6.233596,0.3131716,0.38398295192,0,0,-8.94776,304, 3.4, 3,,,0,0,1684,1024,1024,1024,100,0,0,0,303.6,0,0,99,4.278,4.261,4.278,4.278,0,0,2.525,83.66,92.437409125976,6.233596,31,Sport,
4300,2025-08-04 09:51:02,43.5567656589557,-5.620788883689,9.514436,,,95.718249125976,9.514436,0,0.3436187774,0.55332022768,31,5,17.006,95.718249125976,9.514436,0.3131716,0.38398295192,0,0,-10.961006,304, 2.1, 0.9,,,0,0,1684,1024,1024,1024,100,0,0,0,303.6,0,0,99,4.199,4.182,4.192,4.194,0,0,3.29,83.66,95.718249125976,9.514436,31,Sport,
4500,2025-08-04 09:51:02,43.5567655014401,-5.62078884407154,12.795276,,,98.999089125976,12.795276,0,0.325013789928,0.61173558388,31,5,17.006,98.999089125976,12.795276,0.3131716,0.38398295192,0,0,-12.974252,303.8, 1.1, 2.6,,,0,0,1579,1024,1024,1024,84,0,0,0,303.6,0,0,99,4.199,4.182,4.192,4.194,0,0,3.29,83.66,98.999089125976,12.795276,31,Sport,
4700,2025-08-04 09:51:03,43.5567653035824,-5.62078896920041,17.060368,,,103.26418112598,17.060368,0,0.36139436852,0.69114503524,30,5,17.006,103.26418112598,17.060368,0.3131716,0.38398295192,0,0,-14.987498,304.3, 2.2, 4.5,,,0,0,1221,1024,1024,1024,30,0,0,0,303.6,0,0,99,4.199,4.182,4.192,4.194,0,0,3.29,83.66,103.26418112598,17.060368,31,Sport,
4900,2025-08-04 09:51:03,43.5567651221173,-5.62078904671762,21.653544,,,107.85735712598,20.997376,0,0.39629922528,0.7604494994,30,5,17.006,107.85735712598,21.653544,0.3131716,0.39629922528,0,0,-14.316416,304.6, 2.3, 5.9,,,0,0,1053,1024,1024,1024,4,0,0,0,303.6,0,0,99,4.199,4.182,4.192,4.194,0,0,3.29,83.66,107.85735712598,21.653544,31,Sport,
5100,2025-08-04 09:51:03,43.5567648291854,-5.62078916387465,25.918636,,,112.12244912598,24.934384,0,0.46721130104,0.87172574968,29,5,17.006,112.12244912598,25.918636,0.3131716,0.46721130104,0,0,-12.750558,304, 1.2, 5.8,,,0,0,1467,1024,1024,1024,67,0,0,0,303.6,0,0,99,4.199,4.182,4.192,4.194,0,0,3.29,83.66,112.12244912598,25.918636,31,Sport,
5300,2025-08-04 09:51:03,43.5567647318002,-5.62078930461759,29.52756,,,115.73137312598,28.215224,0,0.51712928164,0.92317588256,29,5,16.587,115.73137312598,29.52756,0.3131716,0.51712928164,0,0,-10.513618,303.9, 2.2, 6,,,0,0,1227,1024,1024,1024,31,0,0,0,303.6,0,0,99,4.113,4.098,4.112,4.112,0,0,12.773,83.3,115.73137312598,29.52756,31,Sport,
5500,2025-08-04 09:51:03,43.556764558588,-5.62078957168715,31.16798,,,117.37179312598,31.16798,0,0.61029529512,1.01793966512,29,5,16.587,117.37179312598,31.16798,0.3131716,0.61029529512,0,0,-8.94776,303.8, 2.8, 5.9,,,0,0,1024,1024,1024,1024,0,0,0,0,303.6,0,0,99,4.113,4.098,4.112,4.112,0,0,12.773,83.3,117.37179312598,31.16798,31,Sport,
5700,2025-08-04 09:51:04,43.5567644913896,-5.62078976299344,33.792652,,,119.99646512598,33.136484,0,0.66619752788,1.07415029684,29,5,16.587,119.99646512598,33.792652,0.3131716,0.66619752788,0,0,-6.71082,303.8, 3.5, 6.7,,,0,0,1024,1024,1024,1024,0,0,0,0,303.6,0,0,99,4.113,4.098,4.112,4.112,0,0,12.773,83.3,119.99646512598,33.792652,31,Sport,
5900,2025-08-04 09:51:04,43.5567643958817,-5.62078995096656,35.761156,,,121.96496912598,34.44882,0,0.72679464268,1.13484911768,29,5,16.587,121.96496912598,35.761156,0.3131716,0.72679464268,0,0,-4.250186,303.5, 4.3, 7,,,0,0,1024,1024,1024,1024,0,0,0,0,303.6,0,0,99,4.113,4.098,4.112,4.112,0,0,12.773,83.3,121.96496912598,35.761156,31,Sport,
6100,2025-08-04 09:51:04,43.5567643748747,-5.62079003403063,36.745408,,,122.94922112598,35.104988,0,0.74951117884,1.15811027328,29,5,16.587,122.94922112598,36.745408,0.3131716,0.74951117884,0,0,-1.565858,303.4, 4.5, 7.5,,,0,0,1024,1024,1024,1024,0,0,0,0,303.6,0,0,99,4.113,4.098,4.112,4.112,0,0,12.773,83.3,122.94922112598,36.745408,31,Sport,
6300,2025-08-04 09:51:04,43.5567643516878,-5.62078994578865,36.745408,,,122.94922112598,35.433072,0,0.73429136208,1.18292982788,30,5,16.791,122.94922112598,36.745408,0.3131716,0.74951117884,0,0,0,303.2, 3.2, 6.8,,,0,0,1000,1562,1024,1024,-4,82,0,0,306.1,0,0,99,4.231,4.215,4.229,4.224,0,0,13.79,83.66,122.94922112598,36.745408,31,Sport,
6500,2025-08-04 09:51:04,43.5567643990074,-5.62078977047075,36.417324,,,122.62113712598,35.433072,0,0.68610238416,1.23239505256,32,5,16.791,122.94922112598,36.745408,0.3131716,0.74951117884,0,0,0,308, 2.1, 6,,,0,0,1024,1072,1024,1024,0,7,0,0,317.1,0,0,99,4.231,4.215,4.229,4.224,0,0,13.79,83.66,122.62113712598,36.417324,31,Sport,
6700,2025-08-04 09:51:05,43.5567645305091,-5.6207894440341,36.08924,,,122.29305312598,35.433072,0.223694,0.587762486,1.33114505572,32,5,16.791,122.94922112598,36.745408,0.3131716,0.74951117884,0,0.223694,0,318.2, 2.8, 6.1,,,0,0,1024,1489,1024,1024,0,70,0,0,318.1,0,0,99,4.231,4.215,4.229,4.224,0,0,13.79,83.66,122.29305312598,36.08924,31,Sport,
6900,2025-08-04 09:51:05,43.5567646483194,-5.62078904072134,35.761156,,,121.96496912598,35.433072,0.223694,0.4763123512,1.44611881268,30,5,16.791,122.94922112598,36.745408,0.3131716,0.74951117884,0,0.223694,0,319.4, 1.8, 3.4,,,0,0,1024,1024,1024,1024,0,0,0,0,323.6,0,0,99,4.231,4.215,4.229,4.224,0,0,13.79,83.66,121.96496912598,35.761156,31,Sport,
7100,2025-08-04 09:51:05,43.5567646898939,-5.62078856979711,35.761156,,,121.96496912598,35.433072,0.223694,0.37418308284,1.57155188756,31,5,16.791,122.94922112598,36.745408,0.3131716,0.74951117884,0,0.223694,0,324, 1.6, 3.1,,,0,0,1024,1024,1024,1024,0,0,0,0,323.6,0,0,99,4.231,4.215,4.229,4.224,0,0,13.79,83.66,121.96496912598,35.761156,31,Sport,
7300,2025-08-04 09:51:05,43.5567646577609,-5.62078829136208,35.761156,,,121.96496912598,35.433072,0,0.33906825232,1.64609913404,32,5,16.965,122.94922112598,36.745408,0.3131716,0.74951117884,0,0,0,323.5, 0.5, 3.8,,,0,0,1024,1024,1110,1024,0,0,13,0,323.6,0,0,99,4.202,4.18,4.202,4.202,0,0,5.048,83.84,121.96496912598,35.761156,31,Sport,"Flying near Helipuerto del Hospital de Cabueñes helipad (Helipuerto del Hospital de Cabueñes), 3738m away."
7500,2025-08-04 09:51:05,43.5567644835525,-5.62078802089688,36.08924,,,122.29305312598,35.433072,0,0.36780841072,1.74177499012,32,5,16.965,122.94922112598,36.745408,0.3131716,0.74951117884,0,0,0,323.4, -0.2, 3.7,,,0,0,1024,1024,1643,999,0,0,94,-4,323.6,0,0,99,4.202,4.18,4.202,4.202,0,0,5.048,83.84,122.29305312598,36.08924,31,Sport,
7700,2025-08-04 09:51:06,43.5567644796189,-5.62078810381192,36.08924,,,122.29305312598,35.433072,0.223694,0.37610893592,1.7637467756,32,5,16.965,122.94922112598,36.745408,0.3131716,0.74951117884,0,-0.223694,0,322.6, -13, 5.2,,,0,0,1024,1024,1581,1024,0,0,84,0,323.6,0,0,99,4.202,4.18,4.202,4.202,0,0,5.048,83.84,122.29305312598,36.08924,31,Sport,
7900,2025-08-04 09:51:06,43.5567650819645,-5.62078893996079,36.08924,,,122.29305312598,35.433072,1.7448132,0.37444555004,2.07547250736,32,5,16.965,122.94922112598,36.745408,1.7448132,0.74951117884,1.342164,-1.11847,0,321.8, -29.4, 6,,,0,0,1024,1024,1457,1024,0,0,66,0,323.6,0,0,99,4.202,4.18,4.202,4.202,0,0,5.048,83.84,122.29305312598,36.08924,31,Sport,
8100,2025-08-04 09:51:06,43.5567672784764,-5.62079137638535,36.417324,,,122.62113712598,35.433072,4.47388,1.19746066824,3.10368776336,32,5,16.965,122.94922112598,36.745408,4.47388,1.19746066824,3.579104,-2.684328,0,321.7, -29.5, 6.4,,,0,0,1024,1024,1129,1024,0,0,16,0,323.6,0,0,99,4.202,4.18,4.202,4.202,0,0,5.048,83.84,122.62113712598,36.417324,31,Sport,
8300,2025-08-04 09:51:06,43.5567711536123,-5.62079532051597,36.417324,,,122.62113712598,35.433072,6.5766036,2.91234261288,4.8605316516,30,5,16.763,122.94922112598,36.745408,6.5766036,2.91234261288,5.368656,-3.802798,0,325, -17.9, 6.6,,,0,0,1024,1024,1114,1024,0,0,14,0,323.6,0,0,99,4.191,4.182,4.201,4.203,0,0,8.802,83.84,122.62113712598,36.417324,31,Sport,
8500,2025-08-04 09:51:06,43.5567762783913,-5.62080002211379,36.417324,,,122.62113712598,35.433072,7.2029468,5.1353020016,7.1058401224,31,5,16.763,122.94922112598,36.745408,7.2029468,5.1353020016,6.263432,-3.579104,0,330.4, -2.6, 6.3,,,0,0,1024,1024,1182,1024,0,0,24,0,323.6,0,0,99,4.191,4.182,4.201,4.203,0,0,8.802,83.84,122.62113712598,36.417324,31,Sport,
8700,2025-08-04 09:51:07,43.5567827808807,-5.62080276349144,36.417324,,,122.62113712598,35.433072,7.1134692,7.48523646,9.5865160548,32,5,16.763,122.94922112598,36.745408,7.2029468,7.48523646,6.487126,-2.908022,0,335.7, 0.9, 5,,,0,0,1024,1024,1165,1024,0,0,21,0,323.6,-1.2,0,99,4.191,4.182,4.201,4.203,0,0,8.802,83.84,122.62113712598,36.417324,31,Sport,
8900,2025-08-04 09:51:07,43.5567882052923,-5.62080613620099,36.417324,,,122.62113712598,35.433072,6.822667,9.6392063452,11.7572510324,31,5,16.763,122.94922112598,36.745408,7.2029468,9.6392063452,6.263432,-2.684328,0,335.7, 0.1, 4.3,,,0,0,1024,1024,1105,1024,0,0,12,0,323.6,-6.7,0,99,4.191,4.182,4.201,4.203,0,0,8.802,83.84,122.62113712598,36.417324,31,Sport,
9100,2025-08-04 09:51:07,43.5567943200809,-5.62080821916882,36.417324,,,122.62113712598,35.433072,6.822667,11.8589898808,14.0551841768,31,5,16.763,122.94922112598,36.745408,7.2029468,11.8589898808,6.263432,-2.684328,0,335, 1.6, 4.3,,,0,0,1024,1024,1113,1024,0,0,13,0,323.6,-9.6,0,99,4.191,4.182,4.201,4.203,0,0,8.802,83.84,122.62113712598,36.417324,31,Sport,
9300,2025-08-04 09:51:07,43.5567993137027,-5.62081092558731,36.417324,,,122.62113712598,35.433072,6.3976484,13.8074807568,16.0125989376,32,5,16.724,122.94922112598,36.745408,7.2029468,13.8074807568,5.816044,-2.684328,0,334, 2.6, 4,,,0,0,1024,1024,1048,1024,0,0,4,0,323.6,-11.1,0,99,4.2,4.185,4.203,4.204,0,0,8.856,83.84,122.62113712598,36.417324,31,Sport,
9500,2025-08-04 09:51:07,43.5568040536548,-5.62081273979223,36.417324,,,122.62113712598,35.433072,6.1068462,15.5729007608,17.807251226,30,5,16.724,122.94922112598,36.745408,7.2029468,15.5729007608,5.59235,-2.460634,0,333.4, 2.4, 4.2,,,0,0,1024,1024,1104,1024,0,0,12,0,323.6,-13.4,0,99,4.2,4.185,4.203,4.204,0,0,8.856,83.84,122.62113712598,36.417324,31,Sport,
9700,2025-08-04 09:51:08,43.5568085081153,-5.62081519734889,36.417324,,,122.62113712598,35.433072,5.816044,17.3203417616,19.5575465576,32,5,16.724,122.94922112598,36.745408,7.2029468,17.3203417616,5.368656,-2.23694,0,332.8, 4.1, 3.9,,,0,0,1024,1024,1457,1024,0,0,66,0,323.6,-14.6,0,99,4.2,4.185,4.203,4.204,0,0,8.856,83.84,122.62113712598,36.417324,31,Sport,
9900,2025-08-04 09:51:08,43.5568128168388,-5.6208171529367,36.417324,,,122.62113712598,35.433072,5.6147194,18.9649284284,21.212435062,32,5,16.724,122.94922112598,36.745408,7.2029468,18.9649284284,5.144962,-2.23694,0,332.6, -2.5, 3.4,,,0,0,1024,1024,1684,1024,0,0,100,0,323.6,-14.8,0,99,4.2,4.185,4.203,4.204,0,0,8.856,83.84,122.62113712598,36.417324,31,Sport,
10100,2025-08-04 09:51:08,43.5568170862443,-5.62081952089337,36.417324,,,122.62113712598,35.433072,6.1068462,20.6423563036,22.89124089,32,5,16.724,122.94922112598,36.745408,7.2029468,20.6423563036,5.59235,-2.460634,0,333.2, -22.1, 2.6,,,0,0,1024,1024,1684,1024,0,0,100,0,323.6,-14.8,0,99,4.2,4.185,4.203,4.204,0,0,8.856,83.84,122.62113712598,36.417324,31,Sport,
10300,2025-08-04 09:51:08,43.5568222025108,-5.62082254072334,36.417324,,,122.62113712598,35.433072,8.2095698,22.6723432452,24.9215231072,32,5,16.795,122.94922112598,36.745408,8.2095698,22.6723432452,7.381902,-3.579104,0,333, -33.2, 4.7,,,0,0,1024,1024,1684,1024,0,0,100,0,323.6,-14.8,0,99,4.2,4.183,4.2,4.203,0,0,7.721,84.02,122.62113712598,36.417324,31,Sport,"Flying over water."
10500,2025-08-04 09:51:08,43.5568294775426,-5.62082713586619,36.417324,,,122.62113712598,35.433072,10.9162672,25.59137221,27.8406504972,31,5,16.795,122.94922112598,36.745408,10.9162672,25.59137221,9.842536,-4.697574,0,333.3, -34, 4.9,,,0,0,1024,1024,1684,1024,0,0,100,0,323.6,-14.8,0,99,4.2,4.183,4.2,4.203,0,0,7.721,84.02,122.62113712598,36.417324,31,Sport,
10700,2025-08-04 09:51:09,43.5568382146732,-5.62083275735112,36.417324,,,122.62113712598,35.433072,13.309793,29.1082030312,31.3578750192,30,5,16.795,122.94922112598,36.745408,13.309793,29.1082030312,12.079476,-5.59235,0,333.7, -34.3, 4.4,,,0,0,1024,1024,1684,1024,0,0,100,0,323.6,-14.8,0,99,4.2,4.183,4.2,4.203,0,0,7.721,84.02,122.62113712598,36.417324,31,Sport,
10900,2025-08-04 09:51:09,43.5568491564915,-5.62083965426593,36.417324,,,122.62113712598,35.433072,15.6362106,33.497048316,35.746720304,29,5,16.795,122.94922112598,36.745408,15.6362106,33.497048316,14.316416,-6.263432,0,335, -34.1, 3.4,,,0,0,1024,1024,1684,1024,0,0,100,0,323.6,-14.8,0,99,4.2,4.183,4.2,4.203,0,0,7.721,84.02,122.62113712598,36.417324,31,Sport,
11100,2025-08-04 09:51:09,43.556862254585,-5.62084737716928,36.417324,,,122.62113712598,35.433072,17.7389342,38.692914624,40.943570864,30,5,16.795,122.94922112598,36.745408,17.7389342,38.692914624,16.329662,-6.934514,0,335.8, -34.1, 3,,,0,0,1024,1024,1659,1024,0,0,96,0,323.6,-14.8,0,99,4.2,4.183,4.2,4.203,0,0,7.721,84.02,122.62113712598,36.417324,31,Sport,
11300,2025-08-04 09:51:09,43.5568767997016,-5.62085618569195,36.417324,,,122.62113712598,35.433072,19.9535048,44.4881904,46.73884664,30,5,16.782,122.94922112598,36.745408,19.9535048,44.4881904,18.342908,-7.82929,0,335.5, -34.2, 3.5,,,0,0,1024,1024,1636,1024,0,0,93,0,323.6,-14.8,0,99,4.175,4.16,4.177,4.177,0,0,7.887,84.2,122.62113712598,36.417324,31,Sport,
11500,2025-08-04 09:51:09,43.5568937347808,-5.62086639443089,36.417324,,,122.62113712598,35.433072,21.9443814,51.230644684,53.481629008,31,5,16.782,122.94922112598,36.745408,21.9443814,51.230644684,20.13246,-8.724066,0,335.3, -32.7, 3.9,,,0,0,1024,1024,1633,1024,0,0,92,0,323.6,-14.8,0,99,4.175,4.16,4.177,4.177,0,0,7.887,84.2,122.62113712598,36.417324,31,Sport,
11700,2025-08-04 09:51:10,43.5569108221104,-5.62087673475961,36.417324,,,122.62113712598,35.433072,23.7339334,58.0380596,60.289043924,28,5,16.782,122.94922112598,36.745408,23.7339334,58.0380596,21.698318,-9.618842,0,335.5, -30.3, 4.1,,,0,0,1024,1024,1684,1024,0,0,100,0,323.6,-14.8,0,99,4.175,4.16,4.177,4.177,0,0,7.887,84.2,122.62113712598,36.417324,31,Sport,
11900,2025-08-04 09:51:10,43.5569296883354,-5.62088803930139,36.417324,,,122.62113712598,35.433072,25.1432056,65.541996848,67.793309256,29,5,16.782,122.94922112598,36.745408,25.1432056,65.541996848,23.040482,-10.06623,0,335.5, -30.4, 4.5,,,0,0,1024,1024,1684,1024,0,0,100,0,323.6,-14.8,0,99,4.175,4.16,4.177,4.177,0,0,7.887,84.2,122.62113712598,36.417324,31,Sport,
12100,2025-08-04 09:51:10,43.5569490539409,-5.62089971262386,36.417324,,,122.62113712598,35.433072,26.3511532,73.252298932,75.50361134,28,5,16.782,122.94922112598,36.745408,26.3511532,73.252298932,24.158952,-10.513618,0,335.6, -32.4, 3.6,,,0,0,835,1024,1617,1024,-29,0,90,0,323.6,-14.8,0,99,4.175,4.16,4.177,4.177,0,0,7.887,84.2,122.62113712598,36.417324,31,Sport,
12300,2025-08-04 09:51:10,43.5569691388044,-5.6209117921772,36.417324,,,122.62113712598,35.433072,27.5591008,81.245737508,83.497378,30,5,16.595,122.94922112598,36.745408,27.5591008,81.245737508,25.277422,-10.961006,0.894776,335.4, -33.5, 3.8,,,0,0,391,1024,1095,1024,-96,0,11,0,323.6,-14.8,0,99,4.152,4.138,4.155,4.158,0,0,11.735,84.2,122.62113712598,36.417324,31,Sport,
12500,2025-08-04 09:51:10,43.5569899436023,-5.62092457187128,35.761156,,,121.96496912598,35.433072,27.849903,89.554464808,91.8061053,30,5,16.595,122.94922112598,36.745408,27.849903,89.554464808,25.501116,-11.1847,2.684328,335.7, -22.5, 4.8,,,0,0,772,1024,1035,1024,-38,0,2,0,323.6,-14.8,0,99,4.152,4.138,4.155,4.158,0,0,11.735,84.2,121.96496912598,35.761156,31,Sport,
12700,2025-08-04 09:51:11,43.5570093239851,-5.62093651590883,34.776904,,,120.98071712598,35.433072,27.5591008,97.298559544,99.550200036,28,5,16.595,122.94922112598,36.745408,27.849903,97.298559544,25.277422,-10.961006,2.684328,336.5, -0.2, 4.4,,,0,0,469,1024,1024,1024,-84,0,0,0,323.6,-14.8,0,99,4.152,4.138,4.155,4.158,0,0,11.735,84.2,120.98071712598,34.776904,31,Sport,
12900,2025-08-04 09:51:11,43.5570293754704,-5.6209488495148,34.120736,,,120.32454912598,35.433072,25.948504,105.308074236,107.559714728,27,5,16.595,122.94922112598,36.745408,27.849903,105.308074236,23.711564,-10.513618,2.23694,336.2, 24.2, 2.9,,,0,0,897,1024,1024,1024,-19,0,0,0,323.6,-14.8,0,99,4.152,4.138,4.155,4.158,0,0,11.735,84.2,120.32454912598,34.120736,31,Sport,
13100,2025-08-04 09:51:11,43.557047557336,-5.62096022773753,33.136484,,,119.34029712598,35.433072,23.040482,112.59186712,114.843835696,29,5,16.595,122.94922112598,36.745408,27.849903,112.59186712,21.027236,-9.395148,2.460634,337.5, 33.5, 3.1,,,0,0,411,1024,1024,1024,-93,0,0,0,323.6,-14.8,0,99,4.152,4.138,4.155,4.158,0,0,11.735,84.2,119.34029712598,33.136484,31,Sport,
13300,2025-08-04 09:51:11,43.5570625809526,-5.62096956791396,32.152232,,,118.35604512598,35.433072,19.8192884,118.603678336,120.855646912,31,5,16.738,122.94922112598,36.745408,27.849903,118.603678336,18.119214,-8.052984,2.684328,337.7, 33.1, 4.6,,,0,0,1024,1024,1024,1024,0,0,0,0,323.6,-14.8,0,99,4.212,4.198,4.223,4.227,0,0,10.327,84.2,118.35604512598,32.152232,31,Sport,
13500,2025-08-04 09:51:11,43.5570756729895,-5.62097769010262,31.16798,,,117.37179312598,35.433072,16.9112664,123.840883228,126.092851804,31,5,16.738,122.94922112598,36.745408,27.849903,123.840883228,15.434886,-6.934514,2.908022,338.4, 34.3, 2.7,,,0,0,1024,1024,1658,1024,0,0,96,0,323.6,-14.8,0,99,4.212,4.198,4.223,4.227,0,0,10.327,84.2,117.37179312598,31.16798,31,Sport,
13700,2025-08-04 09:51:12,43.5570859081526,-5.62098404108575,30.839896,,,117.04370912598,35.433072,12.6163416,127.935371548,130.187340124,30,5,16.738,122.94922112598,36.745408,27.849903,127.935371548,11.408394,-5.368656,1.11847,338.6, 32.2, 4.3,,,0,0,1024,1024,1684,1024,0,0,100,0,323.6,-14.8,0,99,4.212,4.198,4.223,4.227,0,0,10.327,84.2,117.04370912598,30.839896,31,Sport,
13900,2025-08-04 09:51:12,43.5570935298989,-5.62098888790899,30.511812,,,116.71562512598,35.433072,9.618842,130.997051436,133.249348096,31,5,16.738,122.94922112598,36.745408,27.849903,130.997051436,8.724066,-4.026492,0.223694,337.6, 18.1, 6.2,,,0,0,1024,1024,1684,1024,0,0,100,0,323.6,-14.8,0,99,4.212,4.198,4.223,4.227,0,0,10.327,84.2,116.71562512598,30.511812,31,Sport,
14100,2025-08-04 09:51:12,43.5570997418148,-5.62099258723098,30.511812,,,116.71562512598,35.433072,8.724066,133.465227368,135.717524028,30,5,16.738,122.94922112598,36.745408,27.849903,133.465227368,8.052984,-3.35541,0,335.3, -8.1, 8.9,,,0,0,1024,1024,1684,1024,0,0,100,0,323.6,-14.8,0,99,4.212,4.198,4.223,4.227,0,0,10.327,84.2,116.71562512598,30.511812,31,Sport,
14300,2025-08-04 09:51:12,43.5571055840826,-5.62099557830595,30.511812,,,116.71562512598,35.433072,9.730689,135.734256312,137.991146148,30,5,16.892,122.94922112598,36.745408,27.849903,135.734256312,8.94776,-3.802798,0.223694,334.8, -31, 5.9,,,0,0,1024,1024,1684,1024,0,0,100,0,323.6,-14.8,0,99,4.152,4.143,4.166,4.166,0,0,7.081,84.56,116.71562512598,30.511812,31,Sport,
14500,2025-08-04 09:51:12,43.5571137440759,-5.62100015262817,30.511812,,,116.71562512598,35.433072,12.2136924,138.946198672,141.204728928,31,5,16.892,122.94922112598,36.745408,27.849903,138.946198672,11.1847,-4.921268,0,334.5, -34, 6.1,,,0,0,1024,1024,1684,1024,0,0,100,0,323.6,-14.8,0,99,4.152,4.143,4.166,4.166,0,0,7.081,84.56,116.71562512598,30.511812,31,Sport,
14700,2025-08-04 09:51:13,43.5571235156929,-5.62100580734615,30.839896,,,117.04370912598,35.433072,14.6295876,142.81168436,145.0705427,29,5,16.892,122.94922112598,36.745408,27.849903,142.81168436,13.42164,-5.816044,0,334.8, -33.6, 6.4,,,0,0,1024,1024,1684,1024,0,0,100,0,323.6,-14.8,0,99,4.152,4.143,4.166,4.166,0,0,7.081,84.56,117.04370912598,30.839896,31,Sport,
14900,2025-08-04 09:51:13,43.5571351231024,-5.6210125849667,30.839896,,,117.04370912598,35.433072,17.1349604,147.409453536,149.668968044,31,5,16.892,122.94922112598,36.745408,27.849903,147.409453536,15.65858,-6.934514,0,334.5, -31.5, 7.1,,,0,0,1024,1024,1684,1024,0,0,100,0,323.6,-14.8,0,99,4.152,4.143,4.166,4.166,0,0,7.081,84.56,117.04370912598,30.839896,31,Sport,
15100,2025-08-04 09:51:13,43.5571491968435,-5.62102082508064,30.511812,,,116.71562512598,35.433072,19.3271616,152.986881536,155.247052212,29,5,16.892,122.94922112598,36.745408,27.849903,152.986881536,17.671826,-7.82929,0,334.7, -30.1, 7.3,,,0,0,1024,1024,1684,1024,0,0,100,0,323.6,-14.8,0,99,4.152,4.143,4.166,4.166,0,0,7.081,84.56,116.71562512598,30.511812,31,Sport,
15300,2025-08-04 09:51:13,43.5571642140658,-5.62102956499805,30.511812,,,116.71562512598,35.433072,21.2285606,158.932419784,161.193574712,30,5,16.676,122.94922112598,36.745408,27.849903,158.932419784,19.461378,-8.500372,0,335, -28.2, 7.6,,,0,0,1024,1024,1684,1024,0,0,100,0,323.6,-14.8,0,99,4.158,4.143,4.16,4.16,0,0,10.256,84.56,116.71562512598,30.511812,31,Sport,
15500,2025-08-04 09:51:13,43.5571813824103,-5.62103942916585,30.511812,,,116.71562512598,35.433072,22.6378328,165.716540736,167.978679916,28,5,16.676,122.94922112598,36.745408,27.849903,165.716540736,20.803542,-8.94776,0,335.5, -28.4, 5.6,,,0,0,1024,1024,1684,1024,0,0,100,0,323.6,-14.8,0,99,4.158,4.143,4.16,4.16,0,0,10.256,84.56,116.71562512598,30.511812,31,Sport,
15700,2025-08-04 09:51:14,43.5571989766517,-5.62104967475153,30.511812,,,116.71562512598,35.433072,24.270799,172.683076392,174.94587174,30,5,16.676,122.94922112598,36.745408,27.849903,172.683076392,22.3694,-9.395148,0,335.4, -29.2, 4.4,,,0,0,1024,1024,1663,1024,0,0,97,0,323.6,-14.8,0,99,4.158,4.143,4.16,4.16,0,0,10.256,84.56,116.71562512598,30.511812,31,Sport,
15900,2025-08-04 09:51:14,43.5572185183656,-5.62106107225168,30.511812,,,116.71562512598,35.433072,25.5458548,180.42323412,182.686357552,28,5,16.676,122.94922112598,36.745408,27.849903,180.42323412,23.48787,-10.06623,0,335.3, -30.3, 4.7,,,0,0,1024,1024,1662,1024,0,0,97,0,323.6,-14.8,0,99,4.158,4.143,4.16,4.16,0,0,10.256,84.56,116.71562512598,30.511812,31,Sport,
16100,2025-08-04 09:51:14,43.5572390422737,-5.62107338927832,30.511812,,,116.71562512598,35.433072,27.0446046,188.588588712,190.852040228,29,5,16.676,122.94922112598,36.745408,27.849903,188.588588712,24.830034,-10.737312,0,335.2, -30.1, 5.6,,,0,0,1024,1024,1664,1024,0,0,97,0,323.6,-14.8,0,99,4.158,4.143,4.16,4.16,0,0,10.256,84.56,116.71562512598,30.511812,31,Sport,
16300,2025-08-04 09:51:14,43.5572593747457,-5.62108571371974,30.511812,,,116.71562512598,35.433072,28.3420298,196.69127926,198.954730776,28,5,16.589,122.94922112598,36.745408,28.3420298,196.69127926,25.948504,-11.408394,0,335.2, -29.3, 6.4,,,0,0,1024,1024,1651,1024,0,0,95,0,323.6,-16,0,99,4.141,4.128,4.146,4.149,0,0,11.574,84.56,116.71562512598,30.511812,31,Sport,
16500,2025-08-04 09:51:14,43.5572806582702,-5.62109861962513,30.511812,,,116.71562512598,35.433072,29.751302,205.173234912,207.436686428,27,5,16.589,122.94922112598,36.745408,29.751302,205.173234912,27.290668,-11.855782,0,335.5, -29.4, 5.3,,,0,0,1024,1024,1641,1024,0,0,93,0,323.6,-20.5,0,99,4.141,4.128,4.146,4.149,0,0,11.574,84.56,116.71562512598,30.511812,31,Sport,
16700,2025-08-04 09:51:15,43.5572979765968,-5.62110926506456,30.511812,,,116.71562512598,35.433072,30.757925,212.090229884,214.3536814,29,5,16.589,122.94922112598,36.745408,30.757925,212.090229884,28.185444,-12.30317,0,335.2, -29, 6.2,,,0,0,1024,1024,1637,1024,0,0,93,0,323.6,-22.8,0,99,4.141,4.128,4.146,4.149,0,0,11.574,84.56,116.71562512598,30.511812,31,Sport,
16900,2025-08-04 09:51:15,43.5573228100307,-5.62112434804763,30.511812,,,116.71562512598,35.433072,31.652701,221.989180332,224.252959932,26,5,16.589,122.94922112598,36.745408,31.652701,221.989180332,29.08022,-12.526864,0,335.3, -29, 6.3,,,0,0,1024,1024,1642,1024,0,0,94,0,323.6,-23,0,99,4.141,4.128,4.146,4.149,0,0,11.574,84.56,116.71562512598,30.511812,31,Sport,
17100,2025-08-04 09:51:15,43.5573499553231,-5.62114083834578,30.511812,,,116.71562512598,35.433072,32.4579994,232.810374904,235.074154504,28,5,16.589,122.94922112598,36.745408,32.4579994,232.810374904,29.751302,-12.974252,0,335.5, -30, 5,,,0,0,1024,1024,1650,1024,0,0,95,0,323.6,-23,0,99,4.141,4.128,4.146,4.149,0,0,11.574,84.56,116.71562512598,30.511812,31,Sport,
17300,2025-08-04 09:51:15,43.5573754230147,-5.62115630216776,30.511812,,,116.71562512598,35.433072,33.665947,242.962278116,245.225729632,29,5,16.54,122.94922112598,36.745408,33.665947,242.962278116,30.869772,-13.42164,0,335.4, -27.8, 5.5,,,0,0,1024,1024,1657,1024,0,0,96,0,323.6,-23,0,99,4.126,4.111,4.131,4.134,0,0,12.561,84.74,116.71562512598,30.511812,31,Sport,
17500,2025-08-04 09:51:15,43.5574026050417,-5.62117285240035,30.511812,,,116.71562512598,35.433072,34.3593984,253.801845392,256.065624992,26,5,16.54,122.94922112598,36.745408,34.3593984,253.801845392,31.540854,-13.645334,0,335.5, -28.3, 4.7,,,0,0,1024,1024,1659,1024,0,0,96,0,323.6,-23,0,99,4.126,4.111,4.131,4.134,0,0,12.561,84.74,116.71562512598,30.511812,31,Sport,
17700,2025-08-04 09:51:16,43.5574280950755,-5.62118842211834,30.511812,,,116.71562512598,35.433072,35.0752192,263.972121308,266.235900908,29,5,16.54,122.94922112598,36.745408,35.0752192,263.972121308,32.211936,-13.869028,0,335.6, -28.7, 4,,,0,0,1024,1024,1659,1024,0,0,96,0,323.6,-23,0,99,4.126,4.111,4.131,4.134,0,0,12.561,84.74,116.71562512598,30.511812,31,Sport,
17900,2025-08-04 09:51:16,43.5574545943454,-5.621204787808,30.511812,,,116.71562512598,35.433072,35.9476258,274.564313248,276.828420932,31,5,16.54,122.94922112598,36.745408,35.9476258,274.564313248,32.883018,-14.54011,0,335.1, -28.7, 5.7,,,0,0,1024,1024,1658,1024,0,0,96,0,323.6,-23,0,99,4.126,4.111,4.131,4.134,0,0,12.561,84.74,116.71562512598,30.511812,31,Sport,
18100,2025-08-04 09:51:16,43.5574812315984,-5.62122124284255,30.511812,,,116.71562512598,35.433072,36.6634466,285.211951384,287.476387152,31,5,16.54,122.94922112598,36.745408,36.6634466,285.211951384,33.5541,-14.763804,0,335, -28.3, 6.8,,,0,0,1024,1024,1668,1024,0,0,98,0,323.6,-23,0,99,4.126,4.111,4.131,4.134,0,0,12.561,84.74,116.71562512598,30.511812,31,Sport,
18300,2025-08-04 09:51:16,43.5575078696056,-5.62123777121779,30.511812,,,116.71562512598,35.433072,37.356898,295.86779162,298.132555472,31,5,16.494,122.94922112598,36.745408,37.356898,295.86779162,34.225182,-14.987498,0,335, -27.9, 7.7,,,0,0,1024,1024,1662,1024,0,0,97,0,323.6,-23,0,99,4.119,4.106,4.123,4.128,0,0,13.415,84.74,116.71562512598,30.511812,31,Sport,
18500,2025-08-04 09:51:16,43.557536566931,-5.62125525658253,30.511812,,,116.71562512598,35.433072,37.8713942,307.313330044,309.578093896,27,5,16.494,122.94922112598,36.745408,37.8713942,307.313330044,34.67257,-15.211192,0,335.2, -28.1, 6.2,,,0,0,1024,1024,1659,1024,0,0,96,0,323.6,-23,0,99,4.119,4.106,4.123,4.128,0,0,13.415,84.74,116.71562512598,30.511812,31,Sport,
18700,2025-08-04 09:51:17,43.5575642286346,-5.62127200993053,30.511812,,,116.71562512598,35.433072,38.475368,318.33498394,320.599747792,28,5,16.494,122.94922112598,36.745408,38.475368,318.33498394,35.343652,-15.211192,0,335.4, -28.4, 4.7,,,0,0,1024,1024,1659,1024,0,0,96,0,323.6,-23,0,99,4.119,4.106,4.123,4.128,0,0,13.415,84.74,116.71562512598,30.511812,31,Sport,
18900,2025-08-04 09:51:17,43.557593668331,-5.6212898239298,30.511812,,,116.71562512598,35.433072,38.7661702,330.06234652,332.32940696,30,5,16.494,122.94922112598,36.745408,38.7661702,330.06234652,35.567346,-15.434886,0,335.4, -29.5, 4.4,,,0,0,1024,1024,1653,1024,0,0,95,0,323.6,-23,0,99,4.119,4.106,4.123,4.128,0,0,13.415,84.74,116.71562512598,30.511812,31,Sport,
19100,2025-08-04 09:51:17,43.5576218273368,-5.62130693373029,30.183728,,,116.38754112598,35.433072,39.2806664,341.289381,343.5531606,29,5,16.494,122.94922112598,36.745408,39.2806664,341.289381,36.014734,-15.65858,0,335.4, -29, 4.7,,,0,0,1024,1024,1654,1024,0,0,95,0,323.6,-23,0,99,4.119,4.106,4.123,4.128,0,0,13.415,84.74,116.38754112598,30.183728,31,Sport,
19300,2025-08-04 09:51:17,43.5576500082055,-5.62132414793814,30.183728,,,116.38754112598,35.433072,39.7727932,352.53281968,354.79659928,27,5,16.446,122.94922112598,36.745408,39.7727932,352.53281968,36.462122,-15.882274,0,335.2, -28.4, 5.6,,,0,0,1024,1024,1656,1024,0,0,96,0,323.6,-23,0,98,4.12,4.106,4.122,4.123,0,0,13.871,84.74,116.38754112598,30.183728,31,Sport,
19500,2025-08-04 09:51:17,43.5576731258741,-5.62133834395655,30.183728,,,116.38754112598,35.433072,40.0635954,361.76510344,364.02888304,29,5,16.446,122.94922112598,36.745408,40.0635954,361.76510344,36.685816,-16.105968,0,335.4, -29.4, 5.3,,,0,0,1024,1024,1657,1024,0,0,96,0,323.6,-23,0,98,4.12,4.106,4.122,4.123,0,0,13.871,84.74,116.38754112598,30.183728,31,Sport,
19700,2025-08-04 09:51:18,43.5577040869355,-5.62135725813059,30.183728,,,116.38754112598,35.433072,40.5557222,374.11746604,376.38452648,27,5,16.446,122.94922112598,36.745408,40.5557222,374.11746604,37.133204,-16.329662,0,335.3, -28.9, 6.1,,,0,0,1024,1024,1658,1024,0,0,96,0,323.6,-23,0,98,4.12,4.106,4.122,4.123,0,0,13.871,84.74,116.38754112598,30.183728,31,Sport,
19900,2025-08-04 09:51:18,43.5577388927321,-5.62137852508151,30.183728,,,116.38754112598,35.433072,40.9807408,388.00526176,390.2723222,29,5,16.446,122.94922112598,36.745408,40.9807408,388.00526176,37.580592,-16.329662,0,335.2, -29.5, 5.5,,,0,0,1024,1024,1665,1024,0,0,97,0,323.6,-23,0,98,4.12,4.106,4.122,4.123,0,0,13.871,84.74,116.38754112598,30.183728,31,Sport,
20100,2025-08-04 09:51:18,43.5577703096637,-5.62139773679457,30.183728,,,116.38754112598,35.433072,41.4728676,400.54463224,402.80841184,29,5,16.446,122.94922112598,36.745408,41.4728676,400.54463224,38.02798,-16.553356,-0.223694,335.4, -28.2, 5,,,0,0,1024,1024,1669,1024,0,0,98,0,323.6,-23,0,98,4.12,4.106,4.122,4.123,0,0,13.871,84.74,116.38754112598,30.183728,31,Sport,
20300,2025-08-04 09:51:18,43.5578022271319,-5.62141723887171,30.183728,,,116.38754112598,35.433072,41.4728676,413.28085312,415.54463272,29,5,16.363,122.94922112598,36.745408,41.4728676,413.28085312,38.02798,-16.553356,0,335.4, -29.4, 4.7,,,0,0,1024,1024,1665,1024,0,0,97,0,323.6,-23,0,98,4.09,4.076,4.093,4.094,0,0,14.964,84.92,116.38754112598,30.183728,31,Sport,
20500,2025-08-04 09:51:18,43.5578343166661,-5.62143696462633,30.183728,,,116.38754112598,35.433072,41.5623452,426.09581416,428.3628746,30,5,16.363,122.94922112598,36.745408,41.5623452,426.09581416,38.02798,-16.77705,0,335.1, -30.6, 5.7,,,0,0,1024,1024,1657,1024,0,0,96,0,323.6,-23,0,98,4.09,4.076,4.093,4.094,0,0,14.964,84.92,116.38754112598,30.183728,31,Sport,
20700,2025-08-04 09:51:19,43.5578647530922,-5.6214558217758,30.183728,,,116.38754112598,35.433072,41.8531474,438.26773056,440.534791,30,5,16.363,122.94922112598,36.745408,41.8531474,438.26773056,38.251674,-17.000744,0,334.9, -30.1, 6.7,,,0,0,1024,1024,1656,1024,0,0,96,0,323.6,-23,0,98,4.09,4.076,4.093,4.094,0,0,14.964,84.92,116.38754112598,30.183728,31,Sport,
20900,2025-08-04 09:51:19,43.5578960625051,-5.62147500683503,30.183728,,,116.38754112598,35.433072,42.5689682,450.76773096,453.03151056,28,5,16.363,122.94922112598,36.745408,42.5689682,450.76773096,38.922756,-17.224438,0,335.1, -27.3, 6.6,,,0,0,1024,1024,1645,1024,0,0,94,0,323.6,-24.1,0,98,4.09,4.076,4.093,4.094,0,0,14.964,84.92,116.38754112598,30.183728,31,Sport,
21100,2025-08-04 09:51:19,43.557926911075,-5.62149385416285,30.183728,,,116.38754112598,35.433072,42.4794906,463.07744264,465.34122224,30,5,16.363,122.94922112598,36.745408,42.5689682,463.07744264,38.922756,-17.000744,0,335, -27, 6.5,,,0,0,1024,1024,1643,1024,0,0,94,0,323.6,-28.9,0,98,4.09,4.076,4.093,4.094,0,0,14.964,84.92,116.38754112598,30.183728,31,Sport,
21300,2025-08-04 09:51:19,43.5579580690381,-5.62151283089814,30.183728,,,116.38754112598,35.433072,42.4794906,475.50198372,477.76904416,28,5,16.382,122.94922112598,36.745408,42.5689682,475.50198372,38.922756,-17.000744,0,335.3, -28, 5.7,,,0,0,1024,1024,1645,1024,0,0,94,0,323.6,-31.7,0,98,4.094,4.083,4.099,4.105,0,0,14.904,85.1,116.38754112598,30.183728,31,Sport,
21500,2025-08-04 09:51:19,43.5579892698781,-5.62153183426836,30.183728,,,116.38754112598,35.433072,42.4794906,487.94620984,490.20998944,27,5,16.382,122.94922112598,36.745408,42.5689682,487.94620984,38.922756,-17.000744,0,335.3, -28.4, 5.8,,,0,0,1024,1024,1646,1024,0,0,94,0,323.6,-32.1,0,98,4.094,4.083,4.099,4.105,0,0,14.904,85.1,116.38754112598,30.183728,31,Sport,
21700,2025-08-04 09:51:20,43.5580207360988,-5.62155113007021,30.183728,,,116.38754112598,35.433072,42.5689682,500.5085462,502.77560664,28,5,16.382,122.94922112598,36.745408,42.5689682,500.5085462,38.922756,-17.224438,0,334.8, -28.4, 6.8,,,0,0,1024,1024,1646,1024,0,0,94,0,323.6,-32.1,0,98,4.094,4.083,4.099,4.105,0,0,14.904,85.1,116.38754112598,30.183728,31,Sport,
21900,2025-08-04 09:51:20,43.5580522017843,-5.62157050235105,30.183728,,,116.38754112598,35.433072,42.5689682,513.08072508,515.34450468,29,5,16.382,122.94922112598,36.745408,42.5689682,513.08072508,38.922756,-17.224438,0,334.5, -27.8, 7.6,,,0,0,1024,1024,1647,1024,0,0,94,0,323.6,-32.1,0,98,4.094,4.083,4.099,4.105,0,0,14.904,85.1,116.38754112598,30.183728,31,Sport,
22100,2025-08-04 09:51:20,43.5580837229833,-5.62158977325171,30.183728,,,116.38754112598,35.433072,42.7702928,525.65946564,527.92324524,28,5,16.382,122.94922112598,36.745408,42.7702928,525.65946564,39.14645,-17.224438,0,334.5, -27.7, 7.1,,,0,0,1024,1024,1651,1024,0,0,95,0,323.6,-32.1,0,98,4.094,4.083,4.099,4.105,0,0,14.904,85.1,116.38754112598,30.183728,31,Sport,
22300,2025-08-04 09:51:20,43.5581153069343,-5.62160904146759,30.511812,,,116.71562512598,35.433072,42.9716174,538.25789124,540.52167084,29,5,16.38,122.94922112598,36.745408,42.9716174,538.25789124,39.370144,-17.224438,-0.223694,334.9, -27.6, 5.3,,,0,0,1024,1024,1659,1024,0,0,96,0,323.6,-32.1,0,98,4.094,4.078,4.094,4.095,0,0,14.53,85.28,116.71562512598,30.511812,31,Sport,
22500,2025-08-04 09:51:20,43.5581478033606,-5.6216288046693,30.511812,,,116.71562512598,35.433072,42.9716174,551.2139284,553.48098884,30,5,16.38,122.94922112598,36.745408,42.9716174,551.2139284,39.370144,-17.224438,0,334.7, -28, 6.3,,,0,0,1024,1024,1661,1288,0,0,97,40,323.6,-32.1,0,98,4.094,4.078,4.094,4.095,0,0,14.53,85.28,116.71562512598,30.511812,31,Sport,
22700,2025-08-04 09:51:21,43.5581786276953,-5.62164762437104,30.511812,,,116.71562512598,35.433072,42.9716174,563.51051672,565.77757716,29,5,16.38,122.94922112598,36.745408,42.9716174,563.51051672,39.370144,-17.224438,0,334.2, -28.4, 8.3,,,0,0,1024,1024,1646,1281,0,0,94,39,323.6,-32.1,0,98,4.094,4.078,4.094,4.095,0,0,14.53,85.28,116.71562512598,30.511812,31,Sport,
22900,2025-08-04 09:51:21,43.5582104688028,-5.62166675159893,30.511812,,,116.71562512598,35.433072,43.0834644,576.1811208,578.44818124,30,5,16.38,122.94922112598,36.745408,43.0834644,576.1811208,39.593838,-17.000744,0,332.7, -28, 13.9,,,0,0,1024,1024,1067,1024,0,0,7,0,323.6,-32.1,0,98,4.094,4.078,4.094,4.095,0,0,14.53,85.28,116.71562512598,30.511812,31,Sport,
23100,2025-08-04 09:51:21,43.5582422679669,-5.62168522306893,30.511812,,,116.71562512598,35.433072,43.0387256,588.76642304,591.03676432,30,5,16.38,122.94922112598,36.745408,43.0834644,588.76642304,39.817532,-16.329662,-0.223694,334, -15.9, 9.7,,,0,0,1024,1024,1024,1024,0,0,0,0,323.6,-32.1,0,98,4.094,4.078,4.094,4.095,0,0,14.53,85.28,116.71562512598,30.511812,31,Sport,
23300,2025-08-04 09:51:21,43.5582738953812,-5.62170322234484,30.839896,,,117.04370912598,35.433072,41.830778,601.2467384,603.51707968,28,5,16.38,122.94922112598,36.745408,43.0834644,601.2467384,38.699062,-15.882274,-0.894776,335.3, 4.9, 5.1,,,0,0,1024,1024,1024,1024,0,0,0,0,323.6,-32.1,0,98,4.093,4.084,4.108,4.121,0,0,14.53,85.28,117.04370912598,30.839896,31,Sport,
23500,2025-08-04 09:51:21,43.5583041817129,-5.62172074367492,31.16798,,,117.37179312598,35.433072,39.3030358,613.22508524,615.49870736,28,5,16.38,122.94922112598,36.745408,43.0834644,613.22508524,36.238428,-15.211192,-0.671082,336.2, 26.6, 1.6,,,0,0,1024,1024,1370,1238,0,0,52,32,323.6,-32.1,0,98,4.093,4.084,4.108,4.121,0,0,14.53,85.28,117.37179312598,31.16798,31,Sport,
23700,2025-08-04 09:51:22,43.5583320496924,-5.62173719952907,31.16798,,,117.37179312598,35.433072,35.8581482,624.28479688,626.558419,25,5,16.38,122.94922112598,36.745408,43.0834644,624.28479688,32.883018,-14.316416,0,337.2, 32, 4.1,,,0,0,1024,1024,1476,1348,0,0,68,49,323.6,-32.1,0,98,4.093,4.084,4.108,4.121,0,0,14.53,85.28,117.37179312598,31.16798,31,Sport,
23900,2025-08-04 09:51:22,43.5583571868463,-5.6217523242266,31.16798,,,117.37179312598,35.433072,31.9658726,634.29135888,636.564981,25,5,16.38,122.94922112598,36.745408,43.0834644,634.29135888,29.303914,-12.750558,0.223694,340.1, 31, 16.2,,,0,0,1024,1024,1476,1447,0,0,68,64,323.6,-32.1,0,98,4.093,4.084,4.108,4.121,0,0,14.53,85.28,117.37179312598,31.16798,31,Sport,
24100,2025-08-04 09:51:22,43.5583794297463,-5.62176506191804,31.16798,,,117.37179312598,35.433072,28.3196604,643.07416756,645.35107052,25,5,16.38,122.94922112598,36.745408,43.0834644,643.07416756,26.395892,-10.289924,0.223694,341.9, 24.6, 26,,,0,0,1024,1024,1144,1024,0,0,18,0,323.6,-32.1,0,98,4.093,4.084,4.108,4.121,0,0,14.53,85.28,117.37179312598,31.16798,31,Sport,
24300,2025-08-04 09:51:22,43.5583990732511,-5.62177467384239,30.839896,,,117.04370912598,35.433072,25.5458548,650.65946964,652.95605764,25,5,16.429,122.94922112598,36.745408,43.0834644,650.65946964,24.382646,-7.605596,0.223694,341.8, 22.4, 24.2,,,0,0,1024,1024,1256,1398,0,0,35,57,323.6,-32.1,0,98,4.178,4.157,4.17,4.168,0,0,14.213,85.46,117.04370912598,30.839896,31,Sport,
24500,2025-08-04 09:51:22,43.5584178504818,-5.62178185709541,30.839896,,,117.04370912598,35.433072,23.0628514,657.69687144,660.06235708,25,5,16.429,122.94922112598,36.745408,43.0834644,657.69687144,22.3694,-5.59235,0,339, 24.8, 10.8,,,0,0,1024,1024,1384,1564,0,0,55,82,323.6,-32.1,0,98,4.178,4.157,4.17,4.168,0,0,14.213,85.46,117.04370912598,30.839896,31,Sport,
24700,2025-08-04 09:51:23,43.5584336228688,-5.621787021447,30.839896,,,117.04370912598,35.433072,20.579848,663.52036244,665.9777116,25,5,16.429,122.94922112598,36.745408,43.0834644,663.52036244,20.13246,-4.250186,0,341.1, 25.6, 21.3,,,0,0,1024,1024,1489,1282,0,0,70,39,323.6,-32.1,0,98,4.178,4.157,4.17,4.168,0,0,14.213,85.46,117.04370912598,30.839896,31,Sport,
24900,2025-08-04 09:51:23,43.5584491759302,-5.62179037985362,30.839896,,,117.04370912598,35.433072,18.4771244,669.0781054,671.72246244,25,5,16.429,122.94922112598,36.745408,43.0834644,669.0781054,18.342908,-2.23694,0.223694,340.9, 19.7, 25.6,,,0,0,1024,1024,1480,1106,0,0,69,12,323.6,-32.1,0,98,4.178,4.157,4.17,4.168,0,0,14.213,85.46,117.04370912598,30.839896,31,Sport,
25100,2025-08-04 09:51:23,43.5584627324417,-5.62179120536502,30.839896,,,117.04370912598,35.433072,17.448132,673.71065148,676.67325,25,5,16.429,122.94922112598,36.745408,43.0834644,673.71065148,17.448132,-0.447388,0.223694,335.9, -1.3, 17.1,,,0,0,1024,1024,1550,1024,0,0,80,0,323.6,-32.1,0,98,4.178,4.157,4.17,4.168,0,0,14.213,85.46,117.04370912598,30.839896,31,Sport,
25300,2025-08-04 09:51:23,43.558475900491,-5.62179129076246,30.839896,,,117.04370912598,35.433072,17.448132,678.13650464,681.47639976,25,5,16.727,122.94922112598,36.745408,43.0834644,678.13650464,17.448132,-0.223694,0,335.1, -12.4, 7.1,,,0,0,1024,1024,1538,1024,0,0,78,0,323.6,-33.7,0,98,4.162,4.148,4.164,4.166,0,0,8.637,85.82,117.04370912598,30.839896,31,Sport,
25500,2025-08-04 09:51:23,43.5584865905815,-5.62179126683639,30.839896,,,117.04370912598,35.433072,17.9178894,681.7257436,685.37731852,25,5,16.727,122.94922112598,36.745408,43.0834644,681.7257436,17.89552,-0.894776,0,334.3, -20.5, 3.5,,,0,0,1024,1024,1528,1024,0,0,76,0,323.6,-36.7,0,98,4.162,4.148,4.164,4.166,0,0,8.637,85.82,117.04370912598,30.839896,31,Sport,
25700,2025-08-04 09:51:24,43.5585017763027,-5.62179309575144,30.839896,,,117.04370912598,35.433072,18.678449,687.01773852,690.93834232,25,5,16.727,122.94922112598,36.745408,43.0834644,687.01773852,18.566602,-2.013246,0,334.1, -23.1, 4.4,,,0,0,1024,1024,1543,1024,0,0,79,0,323.6,-37.7,0,98,4.162,4.148,4.164,4.166,0,0,8.637,85.82,117.04370912598,30.839896,31,Sport,
25900,2025-08-04 09:51:24,43.5585196177634,-5.62179667650836,31.16798,,,117.37179312598,35.433072,19.685072,693.3891298,697.51642652,25,5,16.727,122.94922112598,36.745408,43.0834644,693.3891298,19.461378,-2.908022,0,333.4, -23, 6,,,0,0,1024,1024,1567,1024,0,0,82,0,323.6,-37.7,0,98,4.162,4.148,4.164,4.166,0,0,8.637,85.82,117.37179312598,31.16798,31,Sport,
26100,2025-08-04 09:51:24,43.558536354714,-5.62180082554604,31.16798,,,117.37179312598,35.433072,20.7140644,699.44884128,703.72049496,25,5,16.727,122.94922112598,36.745408,43.0834644,699.44884128,20.356154,-3.802798,0,332.1, -23.1, 7.4,,,0,0,1024,1024,1647,1024,0,0,94,0,323.6,-37.7,0,98,4.162,4.148,4.164,4.166,0,0,8.637,85.82,117.37179312598,31.16798,31,Sport,
26300,2025-08-04 09:51:24,43.5585544734545,-5.6218066629546,31.16798,,,117.37179312598,35.433072,21.7206874,706.14831656,710.50855292,25,5,16.677,122.94922112598,36.745408,43.0834644,706.14831656,21.25093,-4.47388,0,331.8, -25.7, 7.6,,,0,0,1024,1024,1647,1024,0,0,94,0,323.6,-37.7,0,98,4.149,4.133,4.149,4.152,0,0,7.067,86,117.37179312598,31.16798,31,Sport,
26500,2025-08-04 09:51:24,43.558572506122,-5.62181259399373,31.16798,,,117.37179312598,35.433072,22.9510044,712.8281068,717.273645,25,5,16.677,122.94922112598,36.745408,43.0834644,712.8281068,22.3694,-5.144962,0,332.7, -28.2, 7.5,,,0,0,1024,1024,1647,1024,0,0,94,0,323.6,-37.7,0,98,4.149,4.133,4.149,4.152,0,0,7.067,86,117.37179312598,31.16798,31,Sport,
26700,2025-08-04 09:51:25,43.558591599857,-5.62181989178469,31.16798,,,117.37179312598,35.433072,24.4050154,720.00658472,724.50133552,25,5,16.677,122.94922112598,36.745408,43.0834644,720.00658472,23.711564,-5.816044,0,333.3, -28.5, 7,,,0,0,1024,1024,1646,1024,0,0,94,0,323.6,-37.7,0,98,4.149,4.133,4.149,4.152,0,0,7.067,86,117.37179312598,31.16798,31,Sport,
26900,2025-08-04 09:51:25,43.5586114334804,-5.62182739865704,31.16798,,,117.37179312598,35.433072,25.72481,727.45409152,732.0046166,25,5,16.677,122.94922112598,36.745408,43.0834644,727.45409152,24.830034,-6.71082,0,333.6, -28.9, 6.8,,,0,0,1024,1024,1644,1024,0,0,94,0,323.6,-37.7,0,98,4.149,4.133,4.149,4.152,0,0,7.067,86,117.37179312598,31.16798,31,Sport,
27100,2025-08-04 09:51:25,43.5586318632381,-5.6218358974107,31.16798,,,117.37179312598,35.433072,26.9774964,735.20671644,739.79004992,25,5,16.677,122.94922112598,36.745408,43.0834644,735.20671644,25.948504,-7.381902,0,333.7, -29.3, 6.3,,,0,0,1024,1024,1631,1024,0,0,92,0,323.6,-37.7,0,98,4.149,4.133,4.149,4.152,0,0,7.067,86,117.37179312598,31.16798,31,Sport,
27300,2025-08-04 09:51:25,43.5586532937273,-5.62184491562434,30.839896,,,117.04370912598,35.433072,28.0288582,743.34648048,747.9659032,25,5,16.612,122.94922112598,36.745408,43.0834644,743.34648048,26.84328,-8.052984,0,333.8, -29.5, 6.3,,,0,0,1024,1024,1546,1024,0,0,79,0,323.6,-37.7,0,98,4.125,4.108,4.125,4.129,0,0,8.363,86,117.04370912598,30.839896,31,Sport,
27500,2025-08-04 09:51:25,43.5586761641557,-5.62185512507967,30.839896,,,117.04370912598,35.433072,29.2815446,752.09319992,756.73558852,25,5,16.612,122.94922112598,36.745408,43.0834644,752.09319992,27.96175,-8.724066,0,333.9, -27, 6.5,,,0,0,1024,1024,1024,1024,0,0,0,0,323.6,-37.7,0,98,4.125,4.108,4.125,4.129,0,0,8.363,86,117.04370912598,30.839896,31,Sport,
27700,2025-08-04 09:51:26,43.558698574969,-5.62186528571132,30.839896,,,117.04370912598,35.433072,29.863149,760.68243904,765.34123184,25,5,16.612,122.94922112598,36.745408,43.0834644,760.68243904,28.409138,-9.171454,-0.223694,334.2, -8.5, 6.1,,,0,0,1024,1024,1024,1024,0,0,0,0,323.6,-37.7,0,98,4.125,4.108,4.125,4.129,0,0,8.363,86,117.04370912598,30.839896,31,Sport,
27900,2025-08-04 09:51:26,43.5587211961841,-5.62187581951907,31.16798,,,117.37179312598,35.433072,28.7223096,769.37666504,774.05186204,25,5,16.612,122.94922112598,36.745408,43.0834644,769.37666504,27.290668,-8.94776,-0.447388,335.9, 17.3, 2.5,,,0,0,1024,1024,1024,1024,0,0,0,0,323.6,-37.7,0,98,4.125,4.108,4.125,4.129,0,0,8.363,86,117.37179312598,31.16798,31,Sport,
28100,2025-08-04 09:51:26,43.5587420360534,-5.62188565645532,31.16798,,,117.37179312598,35.433072,26.0379816,777.40159968,782.0866392,25,5,16.612,122.94922112598,36.745408,43.0834644,777.40159968,24.60634,-8.500372,0,335, 30.9, -5.1,,,0,0,1024,1024,1024,1024,0,0,0,0,323.6,-37.7,0,98,4.125,4.108,4.125,4.129,0,0,8.363,86,117.37179312598,31.16798,31,Sport,
28300,2025-08-04 09:51:26,43.5587601224494,-5.62189489389185,31.16798,,,117.37179312598,35.433072,22.7273104,784.43572064,789.124041,25,5,16.508,122.94922112598,36.745408,43.0834644,784.43572064,21.25093,-8.052984,0,335.6, 33.9, -4.3,,,0,0,1024,1024,1024,1024,0,0,0,0,323.6,-37.7,0,98,4.18,4.165,4.174,4.182,0,0,10.367,86,117.37179312598,31.16798,31,Sport,
28500,2025-08-04 09:51:26,43.5587754567462,-5.62190325899205,31.16798,,,117.37179312598,35.433072,19.349531,790.44950036,795.14110156,25,5,16.508,122.94922112598,36.745408,43.0834644,790.44950036,17.89552,-7.381902,0.223694,336.6, 35.2, -0.8,,,0,0,1024,1024,1024,1024,0,0,0,0,323.6,-37.7,0,98,4.18,4.165,4.174,4.182,0,0,10.367,86,117.37179312598,31.16798,31,Sport,
28700,2025-08-04 09:51:27,43.5587866767593,-5.62190982139418,31.16798,,,117.37179312598,35.433072,16.0388598,794.89503856,799.58663976,25,5,16.508,122.94922112598,36.745408,43.0834644,794.89503856,14.763804,-6.263432,0.223694,337.2, 35.7, 1.9,,,0,0,1024,1024,1024,1024,0,0,0,0,323.6,-37.7,0,98,4.18,4.165,4.174,4.182,0,0,10.367,86,117.37179312598,31.16798,31,Sport,
28900,2025-08-04 09:51:27,43.5587973024305,-5.62191609392488,31.16798,,,117.37179312598,35.433072,12.8400356,799.11091796,803.80251916,25,5,16.508,122.94922112598,36.745408,43.0834644,799.11091796,11.855782,-4.921268,0.223694,337.7, 33.5, 2.9,,,0,0,1024,1024,1024,1024,0,0,0,0,323.6,-37.7,0,98,4.18,4.165,4.174,4.182,0,0,10.367,86,117.37179312598,31.16798,31,Sport,
29100,2025-08-04 09:51:27,43.5588052537244,-5.62192119669813,30.839896,,,117.04370912598,35.433072,9.9320136,802.30645612,807.00133816,25,5,16.508,122.94922112598,36.745408,43.0834644,802.30645612,9.171454,-3.802798,0.447388,338, 34.7, 4.7,,,0,0,1024,1024,1024,1024,0,0,0,0,323.6,-37.7,0,98,4.18,4.165,4.174,4.182,0,0,10.367,86,117.04370912598,30.839896,31,Sport,
29300,2025-08-04 09:51:27,43.5588107139124,-5.62192470605086,30.839896,,,117.04370912598,35.433072,6.598973,804.50133808,809.19950096,25,5,16.468,122.94922112598,36.745408,43.0834644,804.50133808,6.039738,-2.684328,0.223694,338.3, 35.1, 4.8,,,0,0,1024,1024,1024,1024,0,0,0,0,323.6,-37.7,0,98,4.157,4.136,4.15,4.149,0,0,11.624,86.18,117.04370912598,30.839896,31,Sport,
29500,2025-08-04 09:51:27,43.5588132556022,-5.62192691353233,30.839896,,,117.04370912598,35.433072,3.5119958,805.58073444,810.29530152,25,5,16.468,122.94922112598,36.745408,43.0834644,805.58073444,3.131716,-1.565858,0,337.8, 25.9, 6,,,0,0,1024,1024,1024,1024,0,0,0,0,323.6,-37.7,0,98,4.157,4.136,4.15,4.149,0,0,11.624,86.18,117.04370912598,30.839896,31,Sport,
29700,2025-08-04 09:51:28,43.5588147348606,-5.62192823960666,30.839896,,,117.04370912598,35.433072,1.8119214,806.21065572,810.93834616,25,5,16.468,122.94922112598,36.745408,43.0834644,806.21065572,1.565858,-0.894776,0,337, 12.5, 6.9,,,0,0,1024,1024,1399,1024,0,0,57,0,323.6,-37.7,0,98,4.157,4.136,4.15,4.149,0,0,11.624,86.18,117.04370912598,30.839896,31,Sport,
29900,2025-08-04 09:51:28,43.5588153098692,-5.62192931942054,30.839896,,,117.04370912598,35.433072,1.2079476,806.512493,811.29267688,25,5,16.468,122.94922112598,36.745408,43.0834644,806.512493,1.11847,-0.447388,0,336.8, 7.1, 6.4,,,0,0,1024,1024,1639,1024,0,0,93,0,323.6,-37.7,0,98,4.157,4.136,4.15,4.149,0,0,11.624,86.18,117.04370912598,30.839896,31,Sport,
30100,2025-08-04 09:51:28,43.5588157438327,-5.62193001319457,30.839896,,,117.04370912598,35.433072,1.2079476,806.72902844,811.53545904,25,5,16.468,122.94922112598,36.745408,43.0834644,806.72902844,1.11847,-0.447388,0,335.8, -11.4, 6.3,,,0,0,1024,1024,1684,1024,0,0,100,0,323.6,-37.7,0,98,4.157,4.136,4.15,4.149,0,0,11.624,86.18,117.04370912598,30.839896,31,Sport,
30300,2025-08-04 09:51:28,43.5588166623408,-5.62193143100984,30.839896,,,117.04370912598,35.433072,2.7066974,807.17850352,812.03742756,25,5,16.669,122.94922112598,36.745408,43.0834644,807.17850352,2.460634,-1.11847,0,333.1, -28.3, 7,,,0,0,1024,1024,1684,1024,0,0,100,0,323.6,-37.7,0,98,4.155,4.141,4.158,4.16,0,0,6.144,86.36,117.04370912598,30.839896,31,Sport,
30500,2025-08-04 09:51:28,43.5588196057837,-5.62193371698629,30.839896,,,117.04370912598,35.433072,5.2120702,808.40225684,813.2710234,25,5,16.669,122.94922112598,36.745408,43.0834644,808.40225684,4.697574,-2.23694,0,333.4, -32.3, 6.8,,,0,0,1024,1024,1594,1024,0,0,86,0,323.6,-37.7,0,98,4.155,4.141,4.158,4.16,0,0,6.144,86.36,117.04370912598,30.839896,31,Sport,
30700,2025-08-04 09:51:29,43.5588247423515,-5.62193768520318,30.839896,,,117.04370912598,35.433072,7.8963982,810.531522,815.4199736,25,5,16.669,122.94922112598,36.745408,43.0834644,810.531522,7.158208,-3.35541,0,333.6, -33.3, 8.1,,,0,0,1024,1024,1209,1024,0,0,28,0,323.6,-37.7,0,98,4.155,4.141,4.158,4.16,0,0,6.144,86.36,117.04370912598,30.839896,31,Sport,
30900,2025-08-04 09:51:29,43.5588318587547,-5.62194240071198,30.511812,,,116.71562512598,35.433072,10.513618,813.40553784,818.29727028,25,5,16.669,122.94922112598,36.745408,43.0834644,813.40553784,9.618842,-4.250186,0,333.9, -31, 8.9,,,0,0,1024,1024,1097,1024,0,0,11,0,323.6,-37.7,0,98,4.155,4.141,4.158,4.16,0,0,6.144,86.36,116.71562512598,30.511812,31,Sport,
31100,2025-08-04 09:51:29,43.5588412403842,-5.62194834991429,30.511812,,,116.71562512598,35.433072,12.1242148,817.16866132,822.06695544,25,5,16.669,122.94922112598,36.745408,43.0834644,817.16866132,11.1847,-4.697574,0,334.3, -11.1, 6.3,,,0,0,1024,1024,1024,1024,0,0,0,0,323.6,-37.7,0,98,4.155,4.141,4.158,4.16,0,0,6.144,86.36,116.71562512598,30.511812,31,Sport,
31300,2025-08-04 09:51:29,43.5588507202886,-5.62195393642811,30.511812,,,116.71562512598,35.433072,12.3479088,820.9317848,825.82679808,25,5,16.602,122.94922112598,36.745408,43.0834644,820.9317848,11.408394,-4.697574,0,336.4, 4.6, 4.4,,,0,0,1024,1024,1024,1024,0,0,0,0,323.6,-37.7,0,98,4.145,4.133,4.155,4.16,0,0,9.566,86.54,116.71562512598,30.511812,31,Sport,
31500,2025-08-04 09:51:29,43.5588604407467,-5.62195964417496,30.839896,,,117.04370912598,35.433072,11.1399612,824.78349096,829.68178508,25,5,16.602,122.94922112598,36.745408,43.0834644,824.78349096,10.289924,-4.250186,0,336.7, 29.1, 2.6,,,0,0,1024,1024,1024,1024,0,0,0,0,323.6,-37.7,0,98,4.145,4.133,4.155,4.16,0,0,9.566,86.54,117.04370912598,30.839896,31,Sport,
31700,2025-08-04 09:51:30,43.5588678306056,-5.62196397884771,30.839896,,,117.04370912598,35.433072,8.3214168,827.71328108,832.6115752,25,5,16.602,122.94922112598,36.745408,43.0834644,827.71328108,7.605596,-3.35541,0,337, 33.6, 2.1,,,0,0,1024,1024,1024,1024,0,0,0,0,323.6,-37.7,0,98,4.145,4.133,4.155,4.16,0,0,9.566,86.54,117.04370912598,30.839896,31,Sport,
31900,2025-08-04 09:51:30,43.5588733907173,-5.62196729064088,30.511812,,,116.71562512598,35.433072,5.4133948,829.9212864,834.81958052,25,5,16.602,122.94922112598,36.745408,43.0834644,829.9212864,4.921268,-2.23694,0.223694,337.6, 35.1, 3.3,,,0,0,1024,1024,1024,1024,0,0,0,0,323.6,-37.7,0,98,4.145,4.133,4.155,4.16,0,0,9.566,86.54,116.71562512598,30.511812,31,Sport,
32100,2025-08-04 09:51:30,43.5588760479555,-5.62196919246408,30.511812,,,116.71562512598,35.433072,2.3040482,831.01052528,835.91210024,25,5,16.602,122.94922112598,36.745408,43.0834644,831.01052528,2.013246,-1.11847,0,337.9, 25, 6.4,,,0,0,1024,1024,1024,1024,0,0,0,0,323.6,-37.7,0,98,4.145,4.133,4.155,4.16,0,0,9.566,86.54,116.71562512598,30.511812,31,Sport,
32300,2025-08-04 09:51:30,43.5588763399149,-5.62196975090823,30.511812,,,116.71562512598,35.433072,0.8052984,831.16472476,836.09582728,25,5,16.553,122.94922112598,36.745408,43.0834644,831.16472476,0.671082,-0.447388,0,337.1, 11.5, 7.2,,,0,0,1024,1024,1024,1024,0,0,0,0,323.6,-37.7,0,97,4.129,4.113,4.131,4.138,0,0,9.545,86.36,116.71562512598,30.511812,31,Sport,
32500,2025-08-04 09:51:30,43.5588762055855,-5.62196999991225,30.511812,,,116.71562512598,35.433072,0.3131716,831.14175888,836.17784828,25,5,16.553,122.94922112598,36.745408,43.0834644,831.16472476,0.223694,-0.223694,0,336.7, 5.5, 6.9,,,0,0,879,1024,1024,1024,-22,0,0,0,323.6,-37.7,0,97,4.129,4.113,4.131,4.138,0,0,9.545,86.36,116.71562512598,30.511812,31,Sport,
32700,2025-08-04 09:51:31,43.5588749174008,-5.6219697585662,30.511812,,,116.71562512598,35.433072,0,830.68244128,836.65028924,25,5,16.553,122.94922112598,36.745408,43.0834644,831.16472476,0,0,0,336.6, 2.6, 6.2,,,0,0,753,1024,1024,1024,-41,0,0,0,323.6,-37.7,0,97,4.129,4.113,4.131,4.138,0,0,9.545,86.36,116.71562512598,30.511812,31,Sport,
32900,2025-08-04 09:51:31,43.5588745980275,-5.62196986599941,30.511812,,,116.71562512598,35.433072,0,830.58729692,836.77168032,26,5,16.553,122.94922112598,36.745408,43.0834644,831.16472476,0,0,0.894776,336.5, 2.1, 6.4,,,0,0,914,1024,1024,1024,-17,0,0,0,323.6,-37.7,0,97,4.129,4.113,4.131,4.138,0,0,9.545,86.36,116.71562512598,30.511812,31,Sport,
