time(millisecond),datetime(utc),latitude,longitude,height_above_takeoff(feet),height_above_ground_at_drone_location(feet),ground_elevation_at_drone_location(feet),altitude_above_seaLevel(feet),height_sonar(feet),speed(mph),distance(feet),mileage(feet),satellites,gpslevel,voltage(v),max_altitude(feet),max_ascent(feet),max_speed(mph),max_distance(feet), xSpeed(mph), ySpeed(mph), zSpeed(mph), compass_heading(degrees), pitch(degrees), roll(degrees),wind_speed(mph),wind_direction(degrees),isPhoto,isVideo,rc_elevator,rc_aileron,rc_throttle,rc_rudder,rc_elevator(percent),rc_aileron(percent),rc_throttle(percent),rc_rudder(percent),gimbal_heading(degrees),gimbal_pitch(degrees),gimbal_roll(degrees),battery_percent,voltageCell1,voltageCell2,voltageCell3,voltageCell4,voltageCell5,voltageCell6,current(A),battery_temperature(f),altitude(feet),ascent(feet),flycStateRaw,flycState,message
100,2025-08-04 10:22:45,43.5567658723261,-5.62078679394701,0,Available with any HD 360 subscription,Available with any HD 360 subscription,86.203813125976,0,0,0,0,27,5,0,86.203813125976,0,0,0,0,0,0,314.6, 2.8, 0.7,Available with Enterprise subscription,,0,0,364,364,364,1684,-100,-100,-100,100,314.7,0,0,100,4.259,4.258,4.253,4.258,0,0,0,87.08,86.203813125976,0,41,Motors_Started,"Flying over vegetation."
300,2025-08-04 10:22:45,43.5567658832214,-5.62078680292895,0,,,86.203813125976,0,0,0.0046305119592,0.0046305119592,27,5,0,86.203813125976,0,0,0.0046305119592,0,0,0,314.6, 2.8, 0.7,,,0,0,364,364,364,1684,-100,-100,-100,100,314.7,0,0,100,4.259,4.258,4.253,4.258,0,0,0,87.08,86.203813125976,0,41,Motors_Started,
500,2025-08-04 10:22:45,43.5567659062871,-5.62078679923279,0,,,86.203813125976,0,0,0.0124692261208,0.0131025922828,27,5,0,86.203813125976,0,0,0.0124692261208,0,0,0,314.5, 2.8, 0.7,,,0,0,364,364,364,1684,-100,-100,-100,100,314.6,0,0,100,4.259,4.258,4.253,4.258,0,0,0,87.08,86.203813125976,0,41,Motors_Started,"Setting new Return-To-Home altitude to 25m (82 ft). Data Recorder File Index is 199. Setting new Maximum Flight Altitude to 45m (148 ft)"
700,2025-08-04 10:22:45,43.5567658940871,-5.62078682285187,0,,,86.203813125976,0,0,0.0110201447096,0.0207715229744,27,5,0,86.203813125976,0,0,0.0124692261208,0,0,0,314.5, 2.8, 0.7,,,0,0,364,364,364,1684,-100,-100,-100,100,314.6,0,0,100,4.259,4.258,4.253,4.258,0,0,0,87.08,86.203813125976,0,41,Motors_Started,
900,2025-08-04 10:22:45,43.5567658817505,-5.62078684445323,0,,,86.203813125976,0,0,0.0137896001788,0.0280433736008,27,5,17.049,86.203813125976,0,0,0.0137896001788,0,0,0,314.5, 2.7, 0.7,,,0,0,364,364,364,1684,-100,-100,-100,100,314.6,0,0,100,4.259,4.258,4.253,4.258,0,0,2.314,87.08,86.203813125976,0,41,Motors_Started,
1100,2025-08-04 10:22:46,43.5567658802063,-5.62078686747968,0,,,86.203813125976,0,0,0.019653707978,0.034157809492,27,5,17.049,86.203813125976,0,0,0.019653707978,0,0,0,314.5, 2.8, 0.7,,,0,0,364,364,364,1684,-100,-100,-100,100,314.6,0,0,100,4.259,4.258,4.253,4.258,0,0,2.314,87.08,86.203813125976,0,41,Motors_Started,
1300,2025-08-04 10:22:46,43.5567658658209,-5.62078687065573,0,,,86.203813125976,0,0,0.020420440286,0.039473098376,27,5,17.049,86.203813125976,0,0,0.020420440286,0,0,0,314.5, 2.8, 0.7,,,0,0,1024,867,903,1024,0,-24,-18,0,314.7,0,0,100,4.259,4.258,4.253,4.258,0,0,2.314,87.08,86.203813125976,0,41,Motors_Started,
1500,2025-08-04 10:22:46,43.556765875113,-5.62078687043271,0,,,86.203813125976,0,0,0.0202486226952,0.042863518432,27,5,17.049,86.203813125976,0,0,0.020420440286,0,0,0,314.5, 2.8, 0.7,,,0,0,1024,1024,1024,1024,0,0,0,0,314.6,0,0,100,4.259,4.258,4.253,4.258,0,0,2.314,87.08,86.203813125976,0,41,Motors_Started,
1700,2025-08-04 10:22:46,43.5567658908653,-5.62078686881337,0,,,86.203813125976,0,0,0.0209186686484,0.04862697006,27,5,17.049,86.203813125976,0,0,0.0209186686484,0,0,0,314.5, 2.8, 0.7,,,0,0,1024,1024,1024,1024,0,0,0,0,314.6,0,0,100,4.259,4.258,4.253,4.258,0,0,2.314,87.08,86.203813125976,0,10,Assisted_Takeoff,
1900,2025-08-04 10:22:46,43.5567658899335,-5.6207868809749,0,,,86.203813125976,0,0,0.0238903879036,0.05186023788,27,5,17.03,86.203813125976,0,0,0.0238903879036,0,0,0,314.5, 2.8, 0.7,,,0,0,1024,1024,1024,1024,0,0,0,0,314.6,0,0,100,4.272,4.275,4.271,4.275,0,0,4.448,87.08,86.203813125976,0,10,Assisted_Takeoff,
2100,2025-08-04 10:22:47,43.55676589255,-5.6207868836641,0,,,86.203813125976,0,0,0.0248426189052,0.053050526632,27,5,17.03,86.203813125976,0,0,0.0248426189052,0,0,0,314.5, 2.8, 0.7,,,0,0,1024,1024,1024,1024,0,0,0,0,314.6,0,0,100,4.272,4.275,4.271,4.275,0,0,4.448,87.08,86.203813125976,0,10,Assisted_Takeoff,
2300,2025-08-04 10:22:47,43.5567658803838,-5.62078688755681,0,,,86.203813125976,0,0,0.0249247383304,0.057607285308,27,5,17.03,86.203813125976,0,0,0.0249247383304,0,0,0,314.5, 2.8, 0.7,,,0,0,1024,1024,1024,1024,0,0,0,0,314.6,0,0,100,4.272,4.275,4.271,4.275,0,0,4.448,87.08,86.203813125976,0,10,Assisted_Takeoff,
2500,2025-08-04 10:22:47,43.5567658874993,-5.62078688241268,0,,,86.203813125976,0,0,0.0240368117928,0.06053805968,27,5,17.03,86.203813125976,0,0,0.0249247383304,0,0,0,314.4, 2.8, 0.7,,,0,0,1024,1024,1024,1024,0,0,0,0,314.6,0,0,100,4.272,4.275,4.271,4.275,0,0,4.448,87.08,86.203813125976,0,10,Assisted_Takeoff,
2700,2025-08-04 10:22:47,43.5567659145968,-5.62078687965616,0,,,86.203813125976,0,0,0.0274118447092,0.070451445824,27,5,17.03,86.203813125976,0,0,0.0274118447092,0,0,0,314.5, 2.8, 0.7,,,0,0,1024,1024,1024,1024,0,0,0,0,314.6,0,0,100,4.272,4.275,4.271,4.275,0,0,4.448,87.08,86.203813125976,0,10,Assisted_Takeoff,"Cambiado al modo-S (Sport)."
2900,2025-08-04 10:22:47,43.5567659196381,-5.62078688164743,0,,,86.203813125976,0,0,0.0289078749408,0.072364503628,26,5,17.1,86.203813125976,0,0,0.0289078749408,0,0,0,314.5, 2.8, 0.7,,,0,0,1024,1024,1024,1024,0,0,0,0,314.6,0,0,100,4.276,4.276,4.272,4.276,0,0,2.048,87.08,86.203813125976,0,10,Assisted_Takeoff,
3100,2025-08-04 10:22:48,43.5567658939381,-5.62078686896825,0,,,86.203813125976,0,0,0.021345637166,0.082322509196,26,5,17.1,86.203813125976,0,0,0.0289078749408,0,0,0,314.5, 2.8, 0.7,,,0,0,1024,1024,1024,1024,0,0,0,0,314.6,0,0,100,4.276,4.276,4.272,4.276,0,0,2.048,87.08,86.203813125976,0,10,Assisted_Takeoff,
3300,2025-08-04 10:22:48,43.5567658948038,-5.62078685678243,0,,,86.203813125976,0,0,0.0185277564984,0.085560042108,25,5,17.1,86.203813125976,0,0,0.0289078749408,0,0,0,314.5, 2.8, 0.7,,,0,0,1024,1024,1024,1024,0,0,0,0,314.6,0,0,100,4.276,4.276,4.272,4.276,0,0,2.048,87.08,86.203813125976,0,10,Assisted_Takeoff,
3500,2025-08-04 10:22:48,43.5567658856175,-5.62078685415862,0,,,86.203813125976,0,0,0.0166423561756,0.088982614396,26,5,17.1,86.203813125976,0,0,0.0289078749408,0,0,0,314.5, 2.8, 0.7,,,0,0,1024,1024,1024,1024,0,0,0,0,314.6,0,0,100,4.276,4.276,4.272,4.276,0,0,2.048,87.08,86.203813125976,0,10,Assisted_Takeoff,
3700,2025-08-04 10:22:48,43.5567658835422,-5.62078685656715,0,,,86.203813125976,0,0,0.0170551842728,0.089971787656,25,5,17.1,86.203813125976,0,0,0.0289078749408,0,0,0,314.5, 2.8, 0.7,,,0,0,1554,1024,1024,1024,80,0,0,0,314.6,0,0,100,4.276,4.276,4.272,4.276,0,0,2.048,87.08,86.203813125976,0,10,Assisted_Takeoff,
3900,2025-08-04 10:22:48,43.5567658741937,-5.62078686336151,0,,,86.203813125976,0,0,0.0183660767032,0.093826774656,25,5,17.1,86.203813125976,0,0,0.0289078749408,0,0,0,314.5, 2.8, 0.7,,,0,0,1682,1024,1024,1024,100,0,0,0,314.6,0,0,100,4.276,4.276,4.272,4.276,0,0,2.058,87.08,86.203813125976,0,10,Assisted_Takeoff,
4100,2025-08-04 10:22:49,43.5567658810753,-5.62078686365169,0,,,86.203813125976,0,0,0.018704560966,0.096338913844,25,5,17.1,86.203813125976,0,0,0.0289078749408,0,0,0,314.4, 2.7, 0.7,,,0,0,1684,1024,1024,1024,100,0,0,0,314.6,0,0,100,4.276,4.276,4.272,4.276,0,0,2.058,87.08,86.203813125976,0,10,Assisted_Takeoff,
4300,2025-08-04 10:22:49,43.556765873467,-5.62078685999117,0,,,86.203813125976,0,0,0.0174672577768,0.099278546484,25,5,17.1,86.203813125976,0,0,0.0289078749408,0,0,0,314.4, 2.5, 0.6,,,0,0,1684,1024,1024,1024,100,0,0,0,314.6,0,0,100,4.276,4.276,4.272,4.276,0,0,2.058,87.08,86.203813125976,0,10,Assisted_Takeoff,
4500,2025-08-04 10:22:49,43.5567658659197,-5.62078687059438,0,,,86.203813125976,0,0,0.0204001646948,0.103208336636,25,5,17.1,86.203813125976,0,0,0.0289078749408,0,0,-0.223694,313.8, -4.1, 1.3,,,0,0,1684,1024,1024,1024,100,0,0,0,314.6,0,0,100,4.276,4.276,4.272,4.276,0,0,2.058,87.08,86.203813125976,0,10,Assisted_Takeoff,
4700,2025-08-04 10:22:49,43.5567660020436,-5.6207871137445,0,,,86.203813125976,0.328084,0.3131716,0.0968996094,0.18444718438,25,5,17.1,86.203813125976,0,0.3131716,0.0968996094,0.223694,-0.223694,-1.342164,314.3, 0.2, 0.2,,,0,0,1684,1024,1024,1024,100,0,0,0,314.6,0,0,100,4.276,4.276,4.272,4.276,0,0,2.058,87.08,86.203813125976,0,31,Sport,
4900,2025-08-04 10:22:50,43.5567661772387,-5.62078745111698,0.656168,,,86.859981125976,0.984252,0.223694,0.206319560408,0.294187017288,25,5,17.019,86.859981125976,0.656168,0.3131716,0.206319560408,0,-0.223694,-2.908022,314.5, 3.7, -0.8,,,0,0,1684,1024,1024,1024,100,0,0,0,314.6,0,0,100,4.206,4.204,4.197,4.198,0,0,3.238,86.9,86.859981125976,0.656168,31,Sport,
5100,2025-08-04 10:22:50,43.5567660717305,-5.6207877822984,1.968504,,,88.172317125976,2.296588,0.223694,0.271261819704,0.38983925132,27,5,17.019,88.172317125976,1.968504,0.3131716,0.271261819704,0,-0.223694,-4.697574,314.6, 1.3, 2.1,,,0,0,1682,1024,1024,1024,100,0,0,0,314.6,0,0,100,4.206,4.204,4.197,4.198,0,0,3.238,86.9,88.172317125976,1.968504,31,Sport,
5300,2025-08-04 10:22:50,43.5567659624749,-5.62078805561767,3.937008,,,90.140821125976,3.937008,0,0.33520670364,0.47237206236,26,5,17.019,90.140821125976,3.937008,0.3131716,0.33520670364,0,0,-6.71082,314.7, 1.7, 3.9,,,0,0,1645,1024,1024,1024,94,0,0,0,314.6,0,0,100,4.206,4.204,4.197,4.198,0,0,3.238,86.9,90.140821125976,3.937008,31,Sport,
5500,2025-08-04 10:22:50,43.5567658409358,-5.62078812763231,6.233596,,,92.437409125976,6.56168,0,0.35281825276,0.52062993792,29,5,17.019,92.437409125976,6.233596,0.3131716,0.35281825276,0,0,-8.94776,314.8, 1, 4.2,,,0,0,1615,1024,1024,1024,90,0,0,0,314.6,0,0,100,4.206,4.204,4.197,4.198,0,0,3.238,86.9,92.437409125976,6.233596,31,Sport,
5700,2025-08-04 10:22:50,43.5567657628856,-5.62078811838216,9.514436,,,95.718249125976,9.514436,0,0.35245407952,0.549212616,31,5,17.019,95.718249125976,9.514436,0.3131716,0.35281825276,0,0,-10.961006,314.9, 0.8, 4.8,,,0,0,1347,1024,1024,1024,49,0,0,0,314.6,0,0,100,4.206,4.204,4.197,4.198,0,0,3.238,86.9,95.718249125976,9.514436,31,Sport,
5900,2025-08-04 10:22:50,43.5567658735719,-5.62078794309118,12.795276,,,98.999089125976,13.12336,0,0.303837936232,0.61068571508,32,5,16.65,98.999089125976,12.795276,0.3131716,0.35281825276,0,0,-12.526864,315, 2.2, 2.2,,,0,0,1024,1024,1024,1024,0,0,0,0,314.6,0,0,99,4.132,4.131,4.126,4.124,0,0,12.704,86.54,98.999089125976,12.795276,31,Sport,
6100,2025-08-04 10:22:51,43.5567659735008,-5.62078778968983,16.4042,,,102.60801312598,16.4042,0,0.26585302688,0.6652231184,32,5,16.65,102.60801312598,16.4042,0.3131716,0.35281825276,0,0,-11.632088,315, 2.2, 1.8,,,0,0,1024,1024,1024,1024,0,0,0,0,314.6,0,0,99,4.132,4.131,4.126,4.124,0,0,12.704,86.54,102.60801312598,16.4042,31,Sport,
6300,2025-08-04 10:22:51,43.5567660049972,-5.62078763982744,20.341208,,,106.54502112598,19.356956,0,0.228831700236,0.7064796814,31,5,16.65,106.54502112598,20.341208,0.3131716,0.35281825276,0,0,-10.06623,315, 1.8, 2.3,,,0,0,1024,1024,1024,1024,0,0,0,0,314.6,0,0,99,4.132,4.131,4.126,4.124,0,0,12.704,86.54,106.54502112598,20.341208,31,Sport,
6500,2025-08-04 10:22:51,43.5567660170301,-5.62078749589903,22.96588,,,109.16969312598,21.981628,0,0.192961620348,0.74478676924,30,5,16.65,109.16969312598,22.96588,0.3131716,0.35281825276,0,0,-7.82929,315, 2, 2.5,,,0,0,1024,1024,1024,1024,0,0,0,0,314.6,0,0,99,4.132,4.131,4.126,4.124,0,0,12.704,86.54,109.16969312598,22.96588,31,Sport,
6700,2025-08-04 10:22:51,43.5567659239221,-5.62078737711961,24.934384,,,111.13819712598,23.950132,0,0.155337603396,0.79104989408,30,5,16.65,111.13819712598,24.934384,0.3131716,0.35281825276,0,0,-5.59235,315, 1.9, 3,,,0,0,1024,1024,1024,1024,0,0,0,0,314.6,0,0,99,4.132,4.131,4.126,4.124,0,0,12.704,86.54,111.13819712598,24.934384,31,Sport,
6900,2025-08-04 10:22:51,43.5567658659673,-5.62078730403587,26.24672,,,112.45053312598,24.934384,0,0.134889111928,0.81969490812,30,5,16.851,112.45053312598,26.24672,0.3131716,0.35281825276,0,0,-3.131716,315.1, 2.2, 2.6,,,0,0,1024,1024,1024,1024,0,0,0,0,314.6,0,0,99,4.242,4.243,4.24,4.244,0,0,12.791,87.08,112.45053312598,26.24672,31,Sport,
7100,2025-08-04 10:22:52,43.5567657205416,-5.62078723268566,26.24672,,,112.45053312598,25.262468,0,0.128544623536,0.87600724588,30,5,16.851,112.45053312598,26.24672,0.3131716,0.35281825276,0,0,-0.671082,315, 1.8, 3.2,,,0,0,1024,1024,1024,1366,0,0,0,52,314.6,0,0,99,4.242,4.243,4.24,4.244,0,0,12.791,87.08,112.45053312598,26.24672,31,Sport,
7300,2025-08-04 10:22:52,43.556765594018,-5.62078720694853,26.24672,,,112.45053312598,25.262468,0,0.149113849916,0.92266735236,28,5,16.851,112.45053312598,26.24672,0.3131716,0.35281825276,0,0,0,314.8, 0.4, 4.4,,,0,0,1024,1024,1024,1684,0,0,0,100,314.6,0,0,99,4.242,4.243,4.24,4.244,0,0,12.791,87.08,112.45053312598,26.24672,31,Sport,
7500,2025-08-04 10:22:52,43.5567655955563,-5.62078707421324,25.590552,,,111.79436512598,25.262468,0,0.125252300596,0.95776905952,30,5,16.851,112.45053312598,26.24672,0.3131716,0.35281825276,0,0,0,315, 0.8, 20.5,,,0,0,1024,1024,1024,1684,0,0,0,100,314.6,0,0,99,4.242,4.243,4.24,4.244,0,0,12.791,87.08,111.79436512598,25.590552,31,Sport,
7700,2025-08-04 10:22:52,43.55676632511,-5.62078604820107,25.590552,,,111.79436512598,25.262468,2.2145706,0.2572342602,1.33782484596,30,5,16.851,112.45053312598,26.24672,2.2145706,0.35281825276,1.565858,1.565858,0,313.6, 2, 33.2,,,0,0,1024,1024,1024,1684,0,0,0,100,314.6,0,0,99,4.242,4.243,4.24,4.244,0,0,12.791,87.08,111.79436512598,25.590552,31,Sport,
7900,2025-08-04 10:22:52,43.5567684631852,-5.62078313550082,25.262468,,,111.46628112598,25.262468,4.585727,1.35248691992,2.43400926424,30,5,16.913,112.45053312598,26.24672,4.585727,1.35248691992,3.35541,3.131716,0,312.8, 1.9, 34.5,,,0,0,1024,1024,1024,1535,0,0,0,77,314.6,0,0,99,4.194,4.19,4.185,4.188,0,0,5.007,87.08,111.46628112598,25.262468,31,Sport,
8100,2025-08-04 10:22:53,43.5567721387179,-5.62077831596181,25.262468,,,111.46628112598,25.590552,7.1134692,3.20186361952,4.2839240216,30,5,16.913,112.45053312598,26.24672,7.1134692,3.20186361952,5.144962,4.921268,0,312.6, 2.5, 34.7,,,0,0,1024,1024,1024,1024,0,0,0,0,314.6,0,0,99,4.194,4.19,4.185,4.188,0,0,5.007,87.08,111.46628112598,25.262468,31,Sport,
8300,2025-08-04 10:22:53,43.5567763121698,-5.62076975357077,25.590552,,,111.79436512598,25.918636,9.395148,5.8998361468,7.0122705656,31,5,16.913,112.45053312598,26.24672,9.395148,5.8998361468,5.816044,7.381902,0,321.5, 3.8, 35.1,,,0,0,1024,1024,1024,1024,0,0,0,0,314.6,0,0,99,4.194,4.19,4.185,4.188,0,0,5.007,87.08,111.79436512598,25.590552,31,Sport,
8500,2025-08-04 10:22:53,43.5567817690548,-5.62076001592643,25.590552,,,111.79436512598,26.24672,11.0057448,9.1524937312,10.2669294624,29,5,16.913,112.45053312598,26.24672,11.0057448,9.1524937312,6.71082,8.724066,0,320.9, 5.8, 13.9,,,0,0,1024,1024,1024,1024,0,0,0,0,314.6,0,0,99,4.194,4.19,4.185,4.188,0,0,5.007,87.08,111.79436512598,25.590552,31,Sport,
8700,2025-08-04 10:22:53,43.5567876346734,-5.62074953403075,25.918636,,,112.12244912598,26.24672,10.3794016,12.6529859692,13.7684715692,28,5,16.913,112.45053312598,26.24672,11.0057448,12.6529859692,6.263432,8.276678,-0.223694,320.7, 3.6, -16.9,,,0,0,1024,1024,1024,1024,0,0,0,0,314.6,0,0,99,4.194,4.19,4.185,4.188,0,0,5.007,87.08,112.12244912598,25.918636,31,Sport,
8900,2025-08-04 10:22:53,43.5567922010294,-5.62074091790859,25.918636,,,112.12244912598,26.24672,7.5161184,15.472769524,16.5908141792,30,5,16.729,112.45053312598,26.24672,11.0057448,15.472769524,4.47388,6.039738,0,323.2, 1.7, -34.4,,,0,0,1024,1024,1024,1024,0,0,0,0,314.6,0,0,99,4.207,4.213,4.21,4.214,0,0,10.794,87.08,112.12244912598,25.918636,31,Sport,
9100,2025-08-04 10:22:54,43.5567949870718,-5.62073488364355,25.918636,,,112.12244912598,26.24672,4.1607084,17.3557092168,18.4825793316,31,5,16.729,112.45053312598,26.24672,11.0057448,17.3557092168,2.460634,3.35541,0,324.4, 2, -35.2,,,0,0,1024,1024,1024,1526,0,0,0,76,314.6,0,0,99,4.207,4.213,4.21,4.214,0,0,10.794,87.08,112.12244912598,25.918636,31,Sport,
9300,2025-08-04 10:22:54,43.5567961380032,-5.62073218904428,25.918636,,,112.12244912598,26.24672,1.2974252,18.1764441512,19.3095806704,31,5,16.729,112.45053312598,26.24672,11.0057448,18.1764441512,0.671082,1.11847,0,324.3, 2.6, -16.7,,,0,0,1024,1024,1024,1157,0,0,0,20,314.6,0,0,99,4.207,4.213,4.21,4.214,0,0,10.794,87.08,112.12244912598,25.918636,31,Sport,
9500,2025-08-04 10:22:54,43.5567956994707,-5.62073182791807,25.918636,,,112.12244912598,26.24672,0.7158208,18.156004518,19.495899574,30,5,16.729,112.45053312598,26.24672,11.0057448,18.1764441512,0.223694,0.671082,0,323.9, 3.3, 15,,,0,0,1024,1024,1024,1024,0,0,0,0,314.6,0,0,99,4.207,4.213,4.21,4.214,0,0,10.794,87.08,112.12244912598,25.918636,31,Sport,
9700,2025-08-04 10:22:54,43.5567959015746,-5.62073074077325,25.918636,,,112.12244912598,26.24672,1.9908766,18.4306436344,19.792651552,31,5,16.729,112.45053312598,26.24672,11.0057448,18.4306436344,0.894776,1.789552,0,321.7, 1.1, 21.5,,,0,0,1024,1024,1105,1024,0,0,12,0,314.6,0,0,99,4.207,4.213,4.21,4.214,0,0,10.794,87.08,112.12244912598,25.918636,31,Sport,
9900,2025-08-04 10:22:54,43.5567963797485,-5.6207295767415,25.918636,,,112.12244912598,26.24672,2.4158952,18.7818903648,20.1464245292,31,5,16.771,112.45053312598,26.24672,11.0057448,18.7818903648,1.342164,2.013246,0,322.5, -0.1, -3.1,,,0,0,1024,1024,1403,1287,0,0,57,40,314.6,0,0,99,4.192,4.19,4.185,4.186,0,0,8.911,87.26,112.12244912598,25.918636,31,Sport,
10100,2025-08-04 10:22:55,43.5567971363105,-5.62072817152644,25.918636,,,112.12244912598,26.24672,1.6105968,19.244751272,20.6092854364,29,5,16.771,112.45053312598,26.24672,11.0057448,19.244751272,0.894776,1.342164,0,322.4, -1.9, 2.3,,,0,0,1024,1024,1684,1262,0,0,100,36,314.6,0,0,99,4.192,4.19,4.185,4.186,0,0,8.911,87.26,112.12244912598,25.918636,31,Sport,
10300,2025-08-04 10:22:55,43.5567983520454,-5.62072647689236,25.918636,,,112.12244912598,26.24672,1.7448132,19.8687342316,21.2397644592,29,5,16.771,112.45053312598,26.24672,11.0057448,19.8687342316,1.342164,1.11847,0,320.8, -17.9, 12.8,,,0,0,1024,1024,1684,1248,0,0,100,34,314.6,0,0,99,4.192,4.19,4.185,4.186,0,0,8.911,87.26,112.12244912598,25.918636,31,Sport,
10500,2025-08-04 10:22:55,43.5568005134771,-5.6207253762019,25.918636,,,112.12244912598,26.24672,3.35541,20.5778221808,22.0803484756,31,5,16.771,112.45053312598,26.24672,11.0057448,20.5778221808,3.35541,0.223694,0,319, -30.8, 14.5,,,0,0,1024,1024,1622,1238,0,0,91,32,314.6,0,0,99,4.192,4.19,4.185,4.186,0,0,8.911,87.26,112.12244912598,25.918636,31,Sport,
10700,2025-08-04 10:22:55,43.5568047078062,-5.62072534485914,25.918636,,,112.12244912598,26.24672,5.6594582,21.5578090888,23.6106634852,31,5,16.771,112.45053312598,26.24672,11.0057448,21.5578090888,5.59235,-0.894776,0,319.5, -30.9, 13.7,,,0,0,1024,1024,1218,1024,0,0,29,0,314.6,0,0,99,4.192,4.19,4.185,4.186,0,0,8.911,87.26,112.12244912598,25.918636,31,Sport,
10900,2025-08-04 10:22:55,43.5568106011127,-5.62072685220159,25.918636,,,112.12244912598,26.24672,8.0753534,22.748688392,25.7974745788,29,5,16.819,112.45053312598,26.24672,11.0057448,22.748688392,7.82929,-2.013246,0,319.5, -31.6, 13.5,,,0,0,955,1024,1096,1024,-10,0,11,0,314.6,0,0,99,4.183,4.181,4.178,4.183,0,0,8.518,87.44,112.12244912598,25.918636,31,Sport,
11100,2025-08-04 10:22:56,43.5568186451363,-5.62072958950877,25.918636,,,112.12244912598,26.24672,10.2675546,24.4844496024,28.8202437044,29,5,16.819,112.45053312598,26.24672,11.0057448,24.4844496024,9.842536,-2.908022,-0.223694,322.2, -17.8, 7,,,0,0,584,1024,1060,1024,-67,0,5,0,314.6,0,0,99,4.183,4.181,4.178,4.183,0,0,8.518,87.44,112.12244912598,25.918636,31,Sport,
11300,2025-08-04 10:22:56,43.5568273019171,-5.62073300866386,25.918636,,,112.12244912598,26.24672,10.5359874,26.5435375948,32.1055128384,30,5,16.819,112.45053312598,26.24672,11.0057448,26.5435375948,10.06623,-3.131716,0.223694,323, -3, 2.3,,,0,0,1024,1024,1024,1024,0,0,0,0,314.6,0,0,99,4.183,4.181,4.178,4.183,0,0,8.518,87.44,112.12244912598,25.918636,31,Sport,"Flying over water."
11500,2025-08-04 10:22:56,43.5568363202676,-5.62073663042729,25.590552,,,111.79436512598,25.590552,10.3346628,28.9232948888,35.532481452,31,5,16.819,112.45053312598,26.24672,11.0057448,28.9232948888,9.842536,-3.131716,2.23694,322.9, 2.3, 0,,,0,0,1024,1024,1024,1024,0,0,0,0,314.6,0,0,99,4.183,4.181,4.178,4.183,0,0,8.518,87.44,111.79436512598,25.590552,31,Sport,
11700,2025-08-04 10:22:56,43.5568437382911,-5.62073994636324,24.934384,,,111.13819712598,24.6063,9.2609316,30.9922582096,38.377297816,31,5,16.819,112.45053312598,26.24672,11.0057448,30.9922582096,8.724066,-3.131716,1.342164,321.6, 18.5, -8.7,,,0,0,1024,1024,1024,1024,0,0,0,0,314.6,0,0,99,4.183,4.181,4.178,4.183,0,0,8.518,87.44,111.13819712598,24.934384,31,Sport,
11900,2025-08-04 10:22:56,43.5568494458705,-5.62074251001241,24.6063,,,110.81011312598,24.278216,6.5318648,32.662566662,40.567258516,31,5,16.854,112.45053312598,26.24672,11.0057448,32.662566662,6.039738,-2.460634,0.447388,319.3, 34.5, -10.9,,,0,0,1024,1024,1024,1024,0,0,0,0,314.6,0,0,99,4.158,4.191,4.185,4.197,0,0,8.742,87.62,110.81011312598,24.6063,31,Sport,
12100,2025-08-04 10:22:57,43.5568534865222,-5.62074463525744,24.6063,,,110.81011312598,24.278216,2.9974996,33.853675624,42.145014472,31,5,16.854,112.45053312598,26.24672,11.0057448,33.853675624,2.684328,-1.342164,0,322, 28.2, -3.8,,,0,0,891,1024,1024,1024,-20,0,0,0,314.6,0,0,99,4.158,4.191,4.185,4.197,0,0,8.742,87.62,110.81011312598,24.6063,31,Sport,
12300,2025-08-04 10:22:57,43.5568553175471,-5.62074529050617,24.6063,,,110.81011312598,24.278216,1.006623,34.429791128,42.834975124,32,5,16.854,112.45053312598,26.24672,11.0057448,34.429791128,0.894776,-0.447388,0,322.8, 12.6, 2.6,,,0,0,488,1024,1024,1024,-81,0,0,0,314.6,0,0,99,4.158,4.191,4.185,4.197,0,0,8.742,87.62,110.81011312598,24.6063,31,Sport,
12500,2025-08-04 10:22:57,43.5568559767683,-5.62074542838193,24.6063,,,110.81011312598,24.278216,0.4921268,34.646326568,43.078413452,31,5,16.854,112.45053312598,26.24672,11.0057448,34.646326568,0.447388,-0.223694,0.894776,322.3, 6.5, 3.6,,,0,0,1024,1024,1024,1024,0,0,0,0,314.6,0,0,99,4.158,4.191,4.185,4.197,0,0,8.742,87.62,110.81011312598,24.6063,31,Sport,
12700,2025-08-04 10:22:57,43.5568556785552,-5.62074505312299,23.950132,,,110.15394512598,24.278216,0.447388,34.574476172,43.225723168,31,5,16.854,112.45053312598,26.24672,11.0057448,34.646326568,0.447388,0,1.565858,322.7, 4.2, 2.1,,,0,0,1024,1024,1040,1024,0,0,2,0,314.6,0,0,99,4.158,4.191,4.185,4.197,0,0,8.742,87.62,110.15394512598,23.950132,31,Sport,
12900,2025-08-04 10:22:57,43.5568556035177,-5.62074482838316,23.950132,,,110.15394512598,24.278216,0.223694,34.567586408,43.291011884,30,5,16.736,112.45053312598,26.24672,11.0057448,34.646326568,0.223694,0,0.447388,322.8, 2.2, 1.6,,,0,0,1024,1024,1443,1024,0,0,63,0,314.6,0,0,99,4.209,4.194,4.159,4.16,0,0,10.137,87.44,110.15394512598,23.950132,31,Sport,
13100,2025-08-04 10:22:58,43.5568553671574,-5.62074476071452,23.622048,,,109.82586112598,24.278216,0.223694,34.491799004,43.378938396,30,5,16.736,112.45053312598,26.24672,11.0057448,34.646326568,0.223694,0,0,323.2, 1.1, 2.3,,,0,0,1024,1024,1646,1094,0,0,94,11,314.6,0,0,99,4.209,4.194,4.159,4.16,0,0,10.137,87.44,109.82586112598,23.622048,31,Sport,
13300,2025-08-04 10:22:58,43.5568554237847,-5.62074488954754,23.622048,,,109.82586112598,24.278216,0.4921268,34.500329188,43.418964644,32,5,16.736,112.45053312598,26.24672,11.0057448,34.646326568,0.447388,-0.223694,0,322.4, -16, 2.8,,,0,0,1024,1024,1684,1210,0,0,100,28,314.6,0,0,99,4.209,4.194,4.159,4.16,0,0,10.137,87.44,109.82586112598,23.622048,31,Sport,
13500,2025-08-04 10:22:58,43.5568563854873,-5.62074609342706,23.622048,,,109.82586112598,28.215224,2.23694,34.732940744,43.89271794,31,5,16.736,112.45053312598,26.24672,11.0057448,34.732940744,1.789552,-1.342164,0,321.6, -31.9, 4.6,,,0,0,1024,1024,1684,1226,0,0,100,31,314.6,0,0,99,4.209,4.194,4.159,4.16,0,0,10.137,87.44,109.82586112598,23.622048,31,Sport,
13700,2025-08-04 10:22:58,43.5568589930583,-5.62074891184688,23.622048,,,109.82586112598,22.309712,5.2791784,35.420604808,45.101051312,31,5,16.736,112.45053312598,26.24672,11.0057448,35.420604808,4.250186,-3.131716,0,320.4, -33.6, 7.2,,,0,0,1024,1024,1684,1221,0,0,100,30,314.6,0,0,99,4.209,4.194,4.159,4.16,0,0,10.137,87.44,109.82586112598,23.622048,31,Sport,
13900,2025-08-04 10:22:58,43.556863781989,-5.62075387933142,23.950132,,,110.15394512598,22.637796,8.1872004,36.767061544,47.287075004,31,5,16.736,112.45053312598,26.24672,11.0057448,36.767061544,6.71082,-4.697574,0,319.4, -32.5, 11.1,,,0,0,1024,1024,1684,1217,0,0,100,29,314.6,0,0,99,4.209,4.194,4.159,4.16,0,0,10.137,87.44,110.15394512598,23.950132,31,Sport,
14100,2025-08-04 10:22:59,43.5568705630365,-5.62076012927303,23.950132,,,110.15394512598,22.637796,10.849159,38.841536676,50.262140716,32,5,16.767,112.45053312598,26.24672,11.0057448,38.841536676,9.171454,-5.816044,0,319.3, -32.7, 12,,,0,0,1024,1024,1684,1213,0,0,100,29,314.6,0,0,99,4.166,4.168,4.164,4.169,0,0,8.552,87.62,110.15394512598,23.950132,31,Sport,
14300,2025-08-04 10:22:59,43.5568799239228,-5.62076809993133,23.950132,,,110.15394512598,22.637796,13.533487,41.904200816,54.275264204,31,5,16.767,112.45053312598,26.24672,13.533487,41.904200816,11.632088,-6.934514,0,319.7, -32.7, 10.8,,,0,0,788,1024,1684,1198,-36,0,100,26,314.6,0,0,99,4.166,4.168,4.164,4.169,0,0,8.552,87.62,110.15394512598,23.950132,31,Sport,
14500,2025-08-04 10:22:59,43.5568908553457,-5.62077696557299,23.950132,,,110.15394512598,23.293964,16.0388598,45.673885976,58.901576688,31,5,16.767,112.45053312598,26.24672,16.0388598,45.673885976,13.869028,-8.052984,0,319.8, -32.4, 10.3,,,0,0,373,1024,1684,1188,-99,0,100,25,314.6,0,0,99,4.166,4.168,4.164,4.169,0,0,8.552,87.62,110.15394512598,23.950132,31,Sport,
14700,2025-08-04 10:22:59,43.556903705851,-5.62078704014313,23.950132,,,110.15394512598,23.293964,17.6494566,50.288387436,64.293965312,31,5,16.767,112.45053312598,26.24672,17.6494566,50.288387436,15.211192,-8.94776,1.342164,319.8, -33.5, 10.7,,,0,0,364,1024,1684,1174,-100,0,100,23,314.6,0,0,99,4.166,4.168,4.164,4.169,0,0,8.552,87.62,110.15394512598,23.950132,31,Sport,
14900,2025-08-04 10:22:59,43.5569168057598,-5.62079760617755,22.96588,,,109.16969312598,22.637796,18.454755,55.142062132,69.830054728,31,5,16.767,112.45053312598,26.24672,18.454755,55.142062132,15.882274,-9.395148,3.802798,319.7, -33.5, 10.8,,,0,0,364,1024,1684,1162,-100,0,100,21,314.6,0,0,99,4.166,4.168,4.164,4.169,0,0,8.552,87.62,109.16969312598,22.96588,31,Sport,
15100,2025-08-04 10:23:00,43.5569306807657,-5.6208087226985,21.653544,,,107.85735712598,20.997376,19.3719004,60.409122668,75.683729456,31,5,16.665,112.45053312598,26.24672,19.3719004,60.409122668,16.553356,-10.06623,6.039738,319.5, -33.4, 10.5,,,0,0,364,1024,1684,1159,-100,0,100,20,314.6,0,0,99,4.209,4.208,4.203,4.206,0,0,11.204,87.62,107.85735712598,21.653544,31,Sport,
15300,2025-08-04 10:23:00,43.5569450353119,-5.6208205785515,19.68504,,,105.88885312598,20.013124,20.9824972,65.975067728,81.787404192,31,5,16.665,112.45053312598,26.24672,20.9824972,65.975067728,17.89552,-10.961006,6.934514,319.4, -32.7, 10,,,0,0,364,1024,1684,1112,-100,0,100,13,314.6,0,0,99,4.209,4.208,4.203,4.206,0,0,11.204,87.62,105.88885312598,19.68504,31,Sport,
15500,2025-08-04 10:23:00,43.5569604016823,-5.62083328957676,17.388452,,,103.59226512598,20.013124,23.0852208,72.0308422,88.324149808,29,5,16.665,112.45053312598,26.24672,23.0852208,72.0308422,19.685072,-12.079476,7.158208,319.5, -32.6, 10.2,,,0,0,587,1024,1684,1101,-66,0,100,12,314.6,0,0,99,4.209,4.208,4.203,4.206,0,0,11.204,87.62,103.59226512598,17.388452,31,Sport,
15700,2025-08-04 10:23:00,43.5569772776433,-5.62084736472566,15.091864,,,101.29567712598,20.013124,25.389269,78.77624924,95.51837576,30,5,16.665,112.45053312598,26.24672,25.389269,78.77624924,21.698318,-13.197946,6.934514,319.9, -33.1, 9.2,,,0,0,1024,1024,1680,1044,0,0,99,3,314.6,0,0,99,4.209,4.208,4.203,4.206,0,0,11.204,87.62,101.29567712598,15.091864,31,Sport,
15900,2025-08-04 10:23:00,43.5569956459792,-5.62086271267521,12.795276,,,98.999089125976,20.013124,27.8051642,86.20243058,103.35302168,30,5,16.665,112.45053312598,26.24672,27.8051642,86.20243058,23.711564,-14.54011,6.039738,320.3, -32.8, 7.6,,,0,0,1024,1024,1681,1047,0,0,100,3,314.6,0,0,99,4.209,4.208,4.203,4.206,0,0,11.204,87.62,98.999089125976,12.795276,31,Sport,
16100,2025-08-04 10:23:01,43.5570160537296,-5.62087987987496,11.48294,,,97.686753125976,20.013124,31.0487272,94.538388852,112.073166316,28,5,16.71,112.45053312598,26.24672,31.0487272,94.538388852,26.395892,-16.329662,3.802798,321.4, -26.1, 3.8,,,0,0,1024,1024,1684,1058,0,0,100,5,314.6,0,0,99,4.168,4.116,4.112,4.109,0,0,7.492,87.8,97.686753125976,11.48294,31,Sport,
16300,2025-08-04 10:23:01,43.5570376865944,-5.6208983773194,10.826772,,,97.030585125976,20.013124,32.5698464,103.466866828,121.358599684,30,5,16.71,112.45053312598,26.24672,32.5698464,103.466866828,27.514362,-17.448132,1.11847,322.1, -18.1, 3,,,0,0,1024,1024,1684,1099,0,0,100,11,314.6,0,0,99,4.168,4.116,4.112,4.109,0,0,7.492,87.8,97.030585125976,10.826772,31,Sport,
16500,2025-08-04 10:23:01,43.5570598933468,-5.62091787109452,11.154856,,,97.358669125976,20.013124,33.3080366,112.73294324,130.960962196,29,5,16.71,112.45053312598,26.24672,33.3080366,112.73294324,27.96175,-18.119214,0,322.3, -19, 2.5,,,0,0,1024,1024,1684,1093,0,0,100,10,314.6,0,0,99,4.168,4.116,4.112,4.109,0,0,7.492,87.8,97.358669125976,11.154856,31,Sport,
16700,2025-08-04 10:23:01,43.5570826295981,-5.62093806687317,11.48294,,,97.686753125976,20.013124,33.7554246,122.294295252,140.826448076,29,5,16.71,112.45053312598,26.24672,33.7554246,122.294295252,28.185444,-18.566602,0,322.1, -20.9, 3.7,,,0,0,1024,1024,1684,1093,0,0,100,10,314.6,0,0,99,4.168,4.116,4.112,4.109,0,0,7.492,87.8,97.686753125976,11.48294,31,Sport,
16900,2025-08-04 10:23:01,43.5571060414435,-5.62095926083908,11.811024,,,98.014837125976,20.013124,34.0685962,132.22277326,151.042327668,32,5,16.71,112.45053312598,26.24672,34.0685962,132.22277326,28.409138,-18.790296,0,322.2, -25, 4.1,,,0,0,1024,1024,1684,1110,0,0,100,13,314.6,0,0,99,4.168,4.116,4.112,4.109,0,0,7.492,87.8,98.014837125976,11.811024,31,Sport,
17100,2025-08-04 10:23:02,43.5571285910498,-5.62097992196728,11.811024,,,98.014837125976,20.013124,34.9857416,141.847773568,160.917984152,31,5,16.638,112.45053312598,26.24672,34.9857416,141.847773568,29.08022,-19.461378,0,321.8, -27.5, 4.3,,,0,0,1024,1024,1678,1115,0,0,99,14,314.6,0,0,99,4.169,4.165,4.158,4.161,0,0,14.419,87.98,98.014837125976,11.811024,31,Sport,
17300,2025-08-04 10:23:02,43.5571524161723,-5.62100211049402,11.811024,,,98.014837125976,20.013124,35.9252564,152.087603292,171.405189212,29,5,16.638,112.45053312598,26.24672,35.9252564,152.087603292,29.751302,-20.13246,0.223694,321.4, -28.4, 5.8,,,0,0,1024,1024,1669,1114,0,0,98,14,314.6,0,0,99,4.169,4.165,4.158,4.161,0,0,14.419,87.98,98.014837125976,11.811024,31,Sport,
17500,2025-08-04 10:23:02,43.5571765369683,-5.62102477053814,11.811024,,,98.014837125976,20.013124,36.8647712,162.50656688,182.051515012,30,5,16.638,112.45053312598,26.24672,36.8647712,162.50656688,30.422384,-20.803542,0.223694,321.3, -27.8, 7,,,0,0,1024,1024,1646,1093,0,0,94,10,314.6,0,0,99,4.169,4.165,4.158,4.161,0,0,14.419,87.98,98.014837125976,11.811024,31,Sport,
17700,2025-08-04 10:23:02,43.5572011251153,-5.62104795300726,11.48294,,,97.686753125976,20.013124,37.6700696,173.164703704,192.916344756,31,5,16.638,112.45053312598,26.24672,37.6700696,173.164703704,31.093466,-21.25093,0,321.3, -26.8, 7.6,,,0,0,1024,1024,1672,1117,0,0,98,14,314.6,0,0,99,4.169,4.165,4.158,4.161,0,0,14.419,87.98,97.686753125976,11.48294,31,Sport,
17900,2025-08-04 10:23:02,43.557226110571,-5.62107153410917,11.48294,,,97.686753125976,20.013124,38.2740434,184.022643684,203.960636448,29,5,16.638,112.45053312598,26.24672,38.2740434,184.022643684,31.540854,-21.698318,0,321.5, -25.9, 7.4,,,0,0,1024,1024,1656,1152,0,0,96,19,314.6,0,0,99,4.169,4.165,4.158,4.161,0,0,14.419,87.98,97.686753125976,11.48294,31,Sport,
18100,2025-08-04 10:23:03,43.5572518214821,-5.62109560035501,11.154856,,,97.358669125976,20.013124,38.9674948,195.195544304,215.295938648,30,5,16.638,112.45053312598,26.24672,38.9674948,195.195544304,32.211936,-21.922012,0,321.7, -26.1, 7.2,,,0,0,1024,1024,1652,1149,0,0,95,19,314.6,-1.4,0,99,4.169,4.165,4.158,4.161,0,0,14.419,87.98,97.358669125976,11.154856,31,Sport,
18300,2025-08-04 10:23:03,43.5572779967408,-5.62111990653561,11.154856,,,97.358669125976,20.013124,39.4596216,206.566279576,226.806765788,30,5,16.555,112.45053312598,26.24672,39.4596216,206.566279576,32.659324,-22.145706,0,321.6, -25.7, 7.1,,,0,0,1024,1024,1598,1054,0,0,87,5,314.6,-5,0,99,4.135,4.136,4.135,4.139,0,0,11.96,87.98,97.358669125976,11.154856,31,Sport,
18500,2025-08-04 10:23:03,43.55730457928,-5.62114455451198,11.154856,,,97.358669125976,20.013124,39.9517484,218.12500698,238.491477448,28,5,16.555,112.45053312598,26.24672,39.9517484,218.12500698,33.106712,-22.3694,0,322, -24.5, 5.4,,,0,0,1024,1024,1540,1068,0,0,78,7,314.6,-6.6,0,99,4.135,4.136,4.135,4.139,0,0,11.96,87.98,97.358669125976,11.154856,31,Sport,
18700,2025-08-04 10:23:03,43.5573313163429,-5.62116937266177,11.154856,,,97.358669125976,20.013124,40.0859648,229.766739636,250.248367588,28,5,16.555,112.45053312598,26.24672,40.0859648,229.766739636,33.106712,-22.593094,0,322.1, -23, 4.4,,,0,0,1024,1024,1547,1149,0,0,79,19,314.6,-6.7,0,99,4.135,4.136,4.135,4.139,0,0,11.96,87.98,97.358669125976,11.154856,31,Sport,
18900,2025-08-04 10:23:03,43.5573581032306,-5.62119451864279,11.154856,,,97.358669125976,20.013124,40.0859648,241.47474526,262.06857794,28,5,16.555,112.45053312598,26.24672,40.0859648,241.47474526,33.106712,-22.593094,0,322.1, -20.1, 4.3,,,0,0,1024,1024,1611,1276,0,0,89,38,314.6,-6.7,0,99,4.135,4.136,4.135,4.139,0,0,11.96,87.98,97.358669125976,11.154856,31,Sport,
19100,2025-08-04 10:23:04,43.5573847733687,-5.62121980397445,11.154856,,,97.358669125976,20.013124,40.0188566,253.171596028,273.874352596,29,5,16.555,112.45053312598,26.24672,40.0859648,253.171596028,32.883018,-22.816788,0,321.7, -17.7, 7.5,,,0,0,1024,1024,1684,1344,0,0,100,48,314.6,-6.7,0,99,4.135,4.136,4.135,4.139,0,0,11.96,87.98,97.358669125976,11.154856,31,Sport,
19300,2025-08-04 10:23:04,43.5574115735865,-5.62124516425306,11.154856,,,97.358669125976,20.013124,39.593838,264.92947042,285.730652188,30,5,16.555,112.45053312598,26.24672,40.0859648,264.92947042,32.659324,-22.3694,0,320.7, -19.7, 14.4,,,0,0,1024,1024,1684,1483,0,0,100,70,314.6,-6.7,0,99,4.153,4.158,4.157,4.163,0,0,11.96,87.98,97.358669125976,11.154856,31,Sport,
19500,2025-08-04 10:23:04,43.5574382653137,-5.62126953777442,10.826772,,,97.030585125976,20.013124,39.593838,276.54036318,297.408474084,28,5,16.555,112.45053312598,26.24672,40.0859648,276.54036318,33.106712,-21.698318,0.223694,319, -22.9, 22.4,,,0,0,1024,1024,1666,1684,0,0,97,100,314.6,-6.7,0,99,4.153,4.158,4.157,4.163,0,0,11.96,87.98,97.030585125976,10.826772,31,Sport,
19700,2025-08-04 10:23:04,43.5574655003186,-5.62129272480416,10.826772,,,97.030585125976,20.013124,39.929379,288.186032844,309.083999392,29,5,16.555,112.45053312598,26.24672,40.0859648,288.186032844,34.225182,-20.579848,0.223694,318.8, -23.1, 25.5,,,0,0,1024,1024,1684,1684,0,0,100,100,314.6,-6.7,0,99,4.153,4.158,4.157,4.163,0,0,11.96,87.98,97.030585125976,10.826772,31,Sport,
19900,2025-08-04 10:23:04,43.5574936052391,-5.62131449212979,10.826772,,,97.030585125976,20.013124,40.4438752,299.940298312,320.842858036,28,5,16.555,112.45053312598,26.24672,40.4438752,299.940298312,35.567346,-19.237684,0,319.3, -18.4, 28,,,0,0,1024,1024,1684,1684,0,0,100,100,314.6,-6.7,0,99,4.153,4.158,4.157,4.163,0,0,11.96,87.98,97.030585125976,10.826772,31,Sport,
20100,2025-08-04 10:23:05,43.5575227379793,-5.62133484206789,10.826772,,,97.030585125976,20.013124,40.5109834,311.852372184,332.75591616,28,5,16.555,112.45053312598,26.24672,40.5109834,311.852372184,36.462122,-17.671826,-0.223694,319.4, -13.9, 28.9,,,0,0,1024,1024,1684,1684,0,0,100,100,314.6,-6.7,0,99,4.153,4.158,4.157,4.163,0,0,11.96,87.98,97.030585125976,10.826772,31,Sport,
20300,2025-08-04 10:23:05,43.5575526303747,-5.62135315519113,10.826772,,,97.030585125976,20.013124,40.5557222,323.760509048,344.68833124,29,5,16.48,112.45053312598,26.24672,40.5557222,323.760509048,37.133204,-16.329662,0,318.9, -12.2, 29.6,,,0,0,1024,1024,1684,1602,0,0,100,88,314.6,-6.7,0,98,4.118,4.121,4.12,4.125,0,0,12.748,88.16,97.030585125976,10.826772,31,Sport,
20500,2025-08-04 10:23:05,43.5575830893361,-5.62137007152913,10.826772,,,97.030585125976,20.013124,40.1754424,335.68242544,356.66667808,28,5,16.48,112.45053312598,26.24672,40.5557222,335.68242544,37.356898,-14.763804,0,318.3, -13.2, 31,,,0,0,1024,1024,1684,1603,0,0,100,88,314.6,-6.7,0,98,4.118,4.121,4.12,4.125,0,0,12.748,88.16,97.030585125976,10.826772,31,Sport,
20700,2025-08-04 10:23:05,43.5576143322017,-5.62138516997102,10.826772,,,97.030585125976,20.013124,40.1083342,347.64764892,368.74673096,30,5,16.48,112.45053312598,26.24672,40.5557222,347.64764892,37.804286,-13.42164,0,317.6, -17.1, 30.6,,,0,0,1024,1024,1684,1602,0,0,100,88,314.6,-6.7,0,98,4.118,4.121,4.12,4.125,0,0,12.748,88.16,97.030585125976,10.826772,31,Sport,
20900,2025-08-04 10:23:05,43.5576455597706,-5.62139868655586,10.826772,,,97.030585125976,20.013124,40.5333528,359.42258368,380.68570772,29,5,16.48,112.45053312598,26.24672,40.5557222,359.42258368,38.699062,-12.079476,0,318.2, -17.6, 29,,,0,0,1024,1024,1684,1589,0,0,100,86,314.6,-6.7,0,98,4.118,4.121,4.12,4.125,0,0,12.748,88.16,97.030585125976,10.826772,31,Sport,
21100,2025-08-04 10:23:06,43.5576769802927,-5.62141046413895,10.826772,,,97.030585125976,20.013124,40.6451998,371.06956568,392.56562936,29,5,16.48,112.45053312598,26.24672,40.6451998,371.06956568,39.14645,-10.961006,0,318.2, -19.6, 27.5,,,0,0,1024,1024,1684,1534,0,0,100,77,314.6,-6.7,0,98,4.118,4.121,4.12,4.125,0,0,12.748,88.16,97.030585125976,10.826772,31,Sport,
21300,2025-08-04 10:23:06,43.5577089283014,-5.62142159814527,10.826772,,,97.030585125976,20.013124,41.0702184,382.82809624,404.58662712,27,5,16.555,112.45053312598,26.24672,41.0702184,382.82809624,39.817532,-10.06623,0,318.6, -19.8, 27.4,,,0,0,1024,1024,1684,1439,0,0,100,63,314.6,-6.7,0,98,4.118,4.119,4.115,4.117,0,0,13.801,88.34,97.030585125976,10.826772,31,Sport,
21500,2025-08-04 10:23:06,43.5577410525273,-5.62143160430452,10.826772,,,97.030585125976,20.013124,41.3386512,394.53085252,416.60434404,30,5,16.555,112.45053312598,26.24672,41.3386512,394.53085252,40.26492,-9.395148,0,318.6, -20.7, 26.1,,,0,0,1024,1024,1684,1372,0,0,100,53,314.6,-6.7,0,98,4.118,4.119,4.115,4.117,0,0,13.801,88.34,97.030585125976,10.826772,31,Sport,
21700,2025-08-04 10:23:06,43.5577736966601,-5.62144142066009,10.826772,,,97.030585125976,20.013124,41.4728676,406.40421248,428.79266464,30,5,16.555,112.45053312598,26.24672,41.4728676,406.40421248,40.488614,-8.94776,-0.223694,318.3, -24.1, 23.6,,,0,0,1024,1024,1684,1279,0,0,100,39,314.6,-6.7,0,98,4.118,4.119,4.115,4.117,0,0,13.801,88.34,97.030585125976,10.826772,31,Sport,
21900,2025-08-04 10:23:06,43.5578064787538,-5.62145124089394,10.826772,,,97.030585125976,20.013124,41.7413004,418.3399084,441.03347868,29,5,16.555,112.45053312598,26.24672,41.7413004,418.3399084,40.712308,-9.171454,0,318.5, -25.7, 21.6,,,0,0,1024,1024,1684,1213,0,0,100,29,314.6,-6.7,0,98,4.118,4.119,4.115,4.117,0,0,13.801,88.34,97.030585125976,10.826772,31,Sport,
22100,2025-08-04 10:23:07,43.5578395343025,-5.6214614127914,10.826772,,,97.030585125976,20.013124,42.2110578,430.42324212,453.38912212,31,5,16.555,112.45053312598,26.24672,42.2110578,430.42324212,41.159696,-9.395148,0,319.4, -26.4, 16.5,,,0,0,1024,1024,1684,1213,0,0,100,29,314.6,-6.7,0,98,4.118,4.119,4.115,4.117,0,0,13.801,88.34,97.030585125976,10.826772,31,Sport,
22300,2025-08-04 10:23:07,43.557872613564,-5.62147224820133,10.826772,,,97.030585125976,20.013124,42.3676436,442.6017202,465.79397816,30,5,16.555,112.45053312598,26.24672,42.3676436,442.6017202,41.159696,-10.06623,0,320.1, -27.7, 11.9,,,0,0,1024,1024,1684,1186,0,0,100,25,314.6,-6.6,0,98,4.121,4.123,4.121,4.124,0,0,13.801,88.34,97.030585125976,10.826772,31,Sport,
22500,2025-08-04 10:23:07,43.557905660971,-5.62148387783181,10.826772,,,97.030585125976,20.013124,42.2557966,454.86550012,478.23492344,29,5,16.555,112.45053312598,26.24672,42.3676436,454.86550012,40.936002,-10.513618,0,320.6, -29.6, 9.5,,,0,0,1024,1024,1684,1100,0,0,100,12,314.6,-6.7,0,98,4.121,4.123,4.121,4.124,0,0,13.801,88.34,97.030585125976,10.826772,31,Sport,
22700,2025-08-04 10:23:07,43.5579384862126,-5.62149677099604,10.826772,,,97.030585125976,20.013124,42.054472,467.19817768,490.68899208,29,5,16.555,112.45053312598,26.24672,42.3676436,467.19817768,40.488614,-11.408394,0,320.9, -30, 7.5,,,0,0,1024,1024,1684,1024,0,0,100,0,314.6,-6.6,0,98,4.121,4.123,4.121,4.124,0,0,13.801,88.34,97.030585125976,10.826772,31,Sport,
22900,2025-08-04 10:23:07,43.5579712177273,-5.62151071439602,10.826772,,,97.030585125976,20.013124,42.390013,479.61615708,503.18571164,29,5,16.555,112.45053312598,26.24672,42.390013,479.61615708,40.488614,-12.526864,0,321.4, -30.8, 5.6,,,0,0,1024,1024,1684,1024,0,0,100,0,314.6,-6.7,0,98,4.121,4.123,4.121,4.124,0,0,13.801,88.34,97.030585125976,10.826772,31,Sport,
23100,2025-08-04 10:23:08,43.5580038395859,-5.62152616734269,10.826772,,,97.030585125976,20.013124,42.5242294,492.16208924,515.77101388,31,5,16.555,112.45053312598,26.24672,42.5242294,492.16208924,40.26492,-13.645334,0,321.8, -30.3, 3.9,,,0,0,1024,1024,1383,1024,0,0,54,0,314.6,-6.7,0,98,4.121,4.123,4.121,4.124,0,0,13.801,88.34,97.030585125976,10.826772,31,Sport,
23300,2025-08-04 10:23:08,43.5580363710066,-5.62154249898224,10.826772,,,97.030585125976,20.013124,42.8150316,504.77035736,528.39896704,29,5,16.493,112.45053312598,26.24672,42.8150316,504.77035736,40.26492,-14.54011,0,322, -29.5, 3,,,0,0,1024,1024,1024,1024,0,0,0,0,314.6,-6.7,0,98,4.124,4.125,4.121,4.123,0,0,15.224,88.52,97.030585125976,10.826772,31,Sport,
23500,2025-08-04 10:23:08,43.5580687978001,-5.62156026943052,10.826772,,,97.030585125976,20.013124,42.7031846,517.49673572,541.12862624,28,5,16.493,112.45053312598,26.24672,42.8150316,517.49673572,39.817532,-15.434886,-0.223694,322.3, -17.1, 2.5,,,0,0,1024,1024,1024,1024,0,0,0,0,314.6,-6.7,0,98,4.124,4.125,4.121,4.123,0,0,15.224,88.52,97.030585125976,10.826772,31,Sport,
23700,2025-08-04 10:23:08,43.5581002218023,-5.62157791643,11.154856,,,97.358669125976,20.013124,41.7413004,529.8720642,553.50723556,29,5,16.493,112.45053312598,26.24672,42.8150316,529.8720642,38.699062,-15.65858,-0.894776,322.7, 7.7, -6.6,,,0,0,1024,1024,1617,1024,0,0,90,0,314.6,-6.7,0,98,4.124,4.125,4.121,4.123,0,0,15.224,88.52,97.358669125976,11.154856,31,Sport,
23900,2025-08-04 10:23:09,43.5581308608028,-5.62159614608261,11.48294,,,97.686753125976,20.013124,39.0569724,542.0439806,565.6824328,30,5,16.493,112.45053312598,26.24672,42.8150316,542.0439806,35.79104,-15.65858,-0.671082,320.7, 23.4, -18.7,,,0,0,1024,1024,1684,1024,0,0,100,0,314.6,-6.6,0,98,4.124,4.125,4.121,4.123,0,0,15.224,88.52,97.686753125976,11.48294,31,Sport,
24100,2025-08-04 10:23:09,43.5581575207955,-5.62161318905438,11.48294,,,97.686753125976,20.013124,35.4107602,552.75920404,576.40093708,31,5,16.493,112.45053312598,26.24672,42.8150316,552.75920404,31.988242,-15.211192,0.223694,318.4, 28.4, -18.3,,,0,0,1024,1024,1684,1004,0,0,100,-3,314.6,-6.7,0,98,4.124,4.125,4.121,4.123,0,0,15.224,88.52,97.686753125976,11.48294,31,Sport,
24300,2025-08-04 10:23:09,43.5581818814374,-5.6216299545531,11.48294,,,97.686753125976,20.013124,32.1224584,562.67718336,586.33203976,31,5,16.491,112.45053312598,26.24672,42.8150316,562.67718336,28.632832,-14.54011,0.223694,321.1, 23.1, -8.2,,,0,0,1024,1024,1684,899,0,0,100,-19,314.6,-6.7,0,98,4.203,4.202,4.198,4.204,0,0,12.958,88.7,97.686753125976,11.48294,31,Sport,
24500,2025-08-04 10:23:09,43.5582035907333,-5.62164587619192,11.154856,,,97.358669125976,20.013124,29.3262834,571.61747236,595.30185632,28,5,16.491,112.45053312598,26.24672,42.8150316,571.61747236,25.948504,-13.645334,0.223694,322.2, 19.8, -3,,,0,0,1024,1024,1684,812,0,0,100,-32,314.6,-6.7,0,98,4.203,4.202,4.198,4.204,0,0,12.958,88.7,97.358669125976,11.154856,31,Sport,
24700,2025-08-04 10:23:09,43.5582230736005,-5.6216610052299,11.154856,,,97.358669125976,20.013124,27.7156866,579.73098968,603.4613054,29,5,16.491,112.45053312598,26.24672,42.8150316,579.73098968,24.382646,-13.197946,0.223694,323.3, 1.2, -2.4,,,0,0,1024,1024,1681,832,0,0,100,-29,314.6,-6.7,0,98,4.203,4.202,4.198,4.204,0,0,12.958,88.7,97.358669125976,11.154856,31,Sport,
24900,2025-08-04 10:23:09,43.5582419478771,-5.62167614438904,11.154856,,,97.358669125976,20.013124,27.3577762,587.64109492,611.42390408,30,5,16.491,112.45053312598,26.24672,42.8150316,587.64109492,23.711564,-13.645334,0.223694,323.5, -13.3, -5.3,,,0,0,1024,1024,1676,843,0,0,99,-27,314.6,-6.7,0,98,4.203,4.202,4.198,4.204,0,0,12.958,88.7,97.358669125976,11.154856,31,Sport,
25100,2025-08-04 10:23:10,43.5582602474192,-5.6216923450177,10.826772,,,97.030585125976,20.013124,27.738056,595.47574084,619.3569752,30,5,16.491,112.45053312598,26.24672,42.8150316,595.47574084,23.48787,-14.763804,0.223694,323.4, -21.1, -5.8,,,0,0,1024,1024,1676,842,0,0,99,-28,314.6,-6.7,0,98,4.203,4.202,4.198,4.204,0,0,12.958,88.7,97.030585125976,10.826772,31,Sport,
25300,2025-08-04 10:23:10,43.5582789776357,-5.62170981479317,10.826772,,,97.030585125976,20.013124,28.6552014,603.592539,627.60500696,29,5,16.741,112.45053312598,26.24672,42.8150316,603.592539,23.711564,-16.105968,0,322.9, -24.2, -3.5,,,0,0,1024,1024,1678,844,0,0,99,-27,314.6,-6.7,0,98,4.176,4.172,4.167,4.168,0,0,10.369,89.06,97.030585125976,10.826772,31,Sport,
25500,2025-08-04 10:23:10,43.5582981515483,-5.62172907641014,10.826772,,,97.030585125976,20.013124,29.863149,612.05382536,636.25986288,29,5,16.741,112.45053312598,26.24672,42.8150316,612.05382536,24.382646,-17.224438,0,323, -25.9, -2.1,,,0,0,1024,1024,1681,851,0,0,100,-26,314.6,-6.7,0,98,4.176,4.172,4.167,4.168,0,0,10.369,89.06,97.030585125976,10.826772,31,Sport,
25700,2025-08-04 10:23:10,43.5583162260218,-5.62174768539085,10.826772,,,97.030585125976,20.013124,30.869772,620.08204084,644.48492876,27,5,16.741,112.45053312598,26.24672,42.8150316,620.08204084,24.830034,-18.342908,0,323.1, -26, -1.6,,,0,0,1024,1024,1682,856,0,0,100,-25,314.6,-6.7,0,98,4.176,4.172,4.167,4.168,0,0,10.369,89.06,97.030585125976,10.826772,31,Sport,
25900,2025-08-04 10:23:10,43.5583351408719,-5.62176822580032,11.154856,,,97.358669125976,20.013124,31.764548,628.60566316,653.26773744,27,5,16.741,112.45053312598,26.24672,42.8150316,628.60566316,25.277422,-19.237684,0,322.9, -26.5, -1,,,0,0,1024,1024,1684,844,0,0,100,-27,314.6,-6.7,0,98,4.176,4.172,4.167,4.168,0,0,10.369,89.06,97.358669125976,11.154856,31,Sport,
26100,2025-08-04 10:23:11,43.558357070862,-5.62179166692433,11.154856,,,97.358669125976,20.013124,32.8382792,638.45474484,663.38912884,29,5,16.741,112.45053312598,26.24672,42.8150316,638.45474484,25.948504,-20.13246,0,322.8, -26.7, -0.4,,,0,0,1024,1024,1684,839,0,0,100,-28,314.6,-6.7,0,98,4.176,4.172,4.167,4.168,0,0,10.369,89.06,97.358669125976,11.154856,31,Sport,
26300,2025-08-04 10:23:11,43.5583807871405,-5.62181730510478,11.154856,,,97.358669125976,20.013124,33.889641,649.15028324,674.37994284,28,5,16.738,112.45053312598,26.24672,42.8150316,649.15028324,26.395892,-21.25093,0,322.9, -25.6, -0.4,,,0,0,1024,1024,1684,836,0,0,100,-28,314.6,-6.7,0,98,4.148,4.149,4.146,4.149,0,0,6.196,89.24,97.358669125976,11.154856,31,Sport,
26500,2025-08-04 10:23:11,43.558403218387,-5.621842127702,11.154856,,,97.358669125976,20.013124,34.8291558,659.33729144,684.87206916,28,5,16.738,112.45053312598,26.24672,42.8150316,659.33729144,27.066974,-21.922012,0,323.2, -24.5, -1.8,,,0,0,1024,1024,1684,828,0,0,100,-30,314.6,-6.7,0,98,4.148,4.149,4.146,4.149,0,0,6.196,89.24,97.358669125976,11.154856,31,Sport,
26700,2025-08-04 10:23:11,43.5584260876898,-5.62186775731357,11.154856,,,97.358669125976,20.013124,35.6120848,669.77036264,695.620101,28,5,16.738,112.45053312598,26.24672,42.8150316,669.77036264,27.514362,-22.593094,0,323.6, -25.6, -3.9,,,0,0,1024,1024,1684,828,0,0,100,-30,314.6,-6.7,0,98,4.148,4.149,4.146,4.149,0,0,6.196,89.24,97.358669125976,11.154856,31,Sport,
26900,2025-08-04 10:23:11,43.5584485850133,-5.6218937344641,11.154856,,,97.358669125976,20.013124,36.1936892,680.13125536,706.32220108,29,5,16.738,112.45053312598,26.24672,42.8150316,680.13125536,27.738056,-23.264176,0,323.6, -26.1, -4,,,0,0,1024,1024,1684,827,0,0,100,-30,314.6,-6.7,0,98,4.148,4.149,4.146,4.149,0,0,6.196,89.24,97.358669125976,11.154856,31,Sport,
27100,2025-08-04 10:23:12,43.5584710677977,-5.62192034587606,11.154856,,,97.358669125976,20.013124,36.9542488,690.5676074,717.12928804,30,5,16.738,112.45053312598,26.24672,42.8150316,690.5676074,27.96175,-24.158952,0,323.4, -26.8, -3.3,,,0,0,1024,1024,1684,830,0,0,100,-29,314.6,-6.7,0,98,4.148,4.149,4.146,4.149,0,0,6.196,89.24,97.358669125976,11.154856,31,Sport,
27300,2025-08-04 10:23:12,43.558493902304,-5.62194804476314,11.154856,,,97.358669125976,20.013124,37.8713942,701.25986496,728.22180808,30,5,16.738,112.45053312598,26.24672,42.8150316,701.25986496,28.409138,-25.053728,0,323.2, -25.4, -3,,,0,0,1024,1024,1684,884,0,0,100,-21,314.6,-6.7,0,98,4.148,4.149,4.146,4.149,0,0,6.196,89.24,97.358669125976,11.154856,31,Sport,
27500,2025-08-04 10:23:12,43.558516724474,-5.62197637254869,11.154856,,,97.358669125976,20.013124,38.4977374,712.03086268,739.42259584,31,5,16.613,112.45053312598,26.24672,42.8150316,712.03086268,28.632832,-25.72481,0,323.3, -25.6, -2.4,,,0,0,1024,1024,1684,904,0,0,100,-18,314.6,-6.8,0,98,4.137,4.138,4.136,4.143,0,0,10.304,89.42,97.358669125976,11.154856,31,Sport,
27700,2025-08-04 10:23:12,43.5585397463551,-5.62200525253582,11.154856,,,97.358669125976,20.013124,39.2806664,722.94621736,750.77430224,31,5,16.613,112.45053312598,26.24672,42.8150316,722.94621736,29.08022,-26.395892,0,322.7, -24.6, 0.3,,,0,0,1024,1024,1684,906,0,0,100,-18,314.6,-8.9,0,98,4.137,4.138,4.136,4.143,0,0,10.304,89.42,97.358669125976,11.154856,31,Sport,
27900,2025-08-04 10:23:12,43.5585631710852,-5.62203478837417,11.154856,,,97.358669125976,20.013124,39.9070096,734.08466916,762.34910576,31,5,16.613,112.45053312598,26.24672,42.8150316,734.08466916,29.527608,-26.84328,0,322.2, -23.7, 1.4,,,0,0,1024,1024,1684,907,0,0,100,-18,314.6,-10.5,0,98,4.137,4.138,4.136,4.143,0,0,10.304,89.42,97.358669125976,11.154856,31,Sport,
28100,2025-08-04 10:23:13,43.5585871679457,-5.62206487291469,11.154856,,,97.358669125976,20.013124,40.0635954,745.48558816,774.1798148,30,5,16.613,112.45053312598,26.24672,42.8150316,745.48558816,29.527608,-27.066974,0,321.9, -25.1, 0.3,,,0,0,1024,1024,1684,909,0,0,100,-17,314.6,-10.7,0,98,4.137,4.138,4.136,4.143,0,0,10.304,89.42,97.358669125976,11.154856,31,Sport,
28300,2025-08-04 10:23:13,43.5586114301741,-5.62209529053475,11.154856,,,97.358669125976,20.013124,40.5333528,757.03086412,786.1384766,30,5,16.613,112.45053312598,26.24672,42.8150316,757.03086412,29.974996,-27.290668,0,322.5, -26, -0.4,,,0,0,1024,1024,1684,910,0,0,100,-17,314.6,-10.7,0,98,4.137,4.138,4.136,4.143,0,0,10.304,89.42,97.358669125976,11.154856,31,Sport,
28500,2025-08-04 10:23:13,43.5586357813607,-5.62212610970601,11.154856,,,97.358669125976,20.013124,41.159696,768.66144192,798.1955636,31,5,16.551,112.45053312598,26.24672,42.8150316,768.66144192,30.19869,-27.96175,0,321.6, -26.1, 0.9,,,0,0,1024,1024,1684,913,0,0,100,-17,314.6,-10.7,0,98,4.14,4.141,4.137,4.139,0,0,11.374,89.42,97.358669125976,11.154856,31,Sport,
28700,2025-08-04 10:23:13,43.5586602520834,-5.62215739647556,11.154856,,,97.358669125976,20.013124,41.6294534,780.40356828,810.36419916,30,5,16.551,112.45053312598,26.24672,42.8150316,780.40356828,30.422384,-28.409138,0,321.2, -26, 2.9,,,0,0,1024,1024,1684,915,0,0,100,-17,314.6,-10.7,0,98,4.14,4.141,4.137,4.139,0,0,11.374,89.42,97.358669125976,11.154856,31,Sport,
28900,2025-08-04 10:23:13,43.5586856251169,-5.62218982019781,11.154856,,,97.358669125976,20.013124,41.942625,792.59188888,822.9823098,31,5,16.551,112.45053312598,26.24672,42.8150316,792.59188888,30.646078,-28.632832,0,320.8, -25.4, 4.3,,,0,0,1024,1024,1684,914,0,0,100,-17,314.6,-10.7,0,98,4.14,4.141,4.137,4.139,0,0,11.374,89.42,97.358669125976,11.154856,31,Sport,
29100,2025-08-04 10:23:14,43.5587098532148,-5.62222082047138,11.154856,,,97.358669125976,20.013124,42.278166,804.24543256,835.03611596,31,5,16.551,112.45053312598,26.24672,42.8150316,804.24543256,31.093466,-28.632832,0,321.1, -26.1, 3.3,,,0,0,1024,1024,1684,915,0,0,100,-17,314.6,-10.7,0,98,4.14,4.141,4.137,4.139,0,0,11.374,89.42,97.358669125976,11.154856,31,Sport,
29300,2025-08-04 10:23:14,43.5587350508094,-5.62225281951269,11.154856,,,97.358669125976,20.013124,42.5913376,816.34517048,847.53283552,30,5,16.551,112.45053312598,26.24672,42.8150316,816.34517048,31.31716,-28.856526,0,320.8, -26.1, 3.4,,,0,0,1024,1024,1684,916,0,0,100,-16,314.6,-10.7,0,98,4.14,4.141,4.137,4.139,0,0,11.374,89.42,97.358669125976,11.154856,31,Sport,
29500,2025-08-04 10:23:14,43.5587603067958,-5.62228502784077,10.826772,,,97.030585125976,20.013124,43.061095,828.50396352,860.07876768,29,5,16.546,112.45053312598,26.24672,43.061095,828.50396352,31.540854,-29.303914,0,320.5, -24.9, 3.8,,,0,0,1024,1024,1684,920,0,0,100,-16,314.6,-10.7,0,98,4.137,4.138,4.135,4.137,0,0,11.509,89.42,97.030585125976,10.826772,31,Sport,
29700,2025-08-04 10:23:14,43.5587855649754,-5.62231695056278,10.826772,,,97.030585125976,20.013124,43.5308524,840.63979068,872.57548724,29,5,16.546,112.45053312598,26.24672,43.5308524,840.63979068,31.988242,-29.527608,0,320.6, -24.2, 3.2,,,0,0,1024,1024,1684,928,0,0,100,-15,314.6,-10.7,0,98,4.137,4.138,4.135,4.137,0,0,11.509,89.42,97.030585125976,10.826772,31,Sport,
29900,2025-08-04 10:23:14,43.5588109111537,-5.62234919851509,10.826772,,,97.030585125976,20.013124,43.5308524,852.854358,885.1542278,29,5,16.546,112.45053312598,26.24672,43.5308524,852.854358,31.988242,-29.527608,0,320.6, -25.3, 2.9,,,0,0,1024,1024,1684,940,0,0,100,-13,314.6,-10.7,0,98,4.137,4.138,4.135,4.137,0,0,11.509,89.42,97.030585125976,10.826772,31,Sport,
30100,2025-08-04 10:23:15,43.5588367215885,-5.62238182588715,10.826772,,,97.030585125976,20.013124,43.5308524,865.27889908,897.92325708,28,5,16.546,112.45053312598,26.24672,43.5308524,865.27889908,31.988242,-29.527608,0,320.3, -27.2, 1.9,,,0,0,1024,1024,1684,938,0,0,100,-13,314.6,-10.7,0,98,4.137,4.138,4.135,4.137,0,0,11.509,89.42,97.030585125976,10.826772,31,Sport,
30300,2025-08-04 10:23:15,43.5588625969945,-5.62241482350639,10.826772,,,97.030585125976,20.013124,43.844024,877.77889948,910.7775882,29,5,16.546,112.45053312598,26.24672,43.844024,877.77889948,32.211936,-29.751302,0,320.4, -27.8, 3.1,,,0,0,1024,1024,1684,943,0,0,100,-12,314.6,-10.7,0,98,4.137,4.138,4.135,4.137,0,0,11.509,89.42,97.030585125976,10.826772,31,Sport,
30500,2025-08-04 10:23:15,43.5588886800618,-5.62244779899577,10.826772,,,97.030585125976,20.013124,44.0229792,890.35107836,923.68441276,29,5,16.531,112.45053312598,26.24672,44.0229792,890.35107836,32.43563,-29.751302,0,320.4, -27.5, 2.7,,,0,0,364,1024,1684,953,-100,0,100,-11,314.6,-10.7,0,98,4.127,4.122,4.116,4.12,0,0,11.947,89.6,97.030585125976,10.826772,31,Sport,
30700,2025-08-04 10:23:15,43.558914729684,-5.62248108846157,10.826772,,,97.030585125976,20.013124,44.3361508,902.96590816,936.63716908,28,5,16.531,112.45053312598,26.24672,44.3361508,902.96590816,32.659324,-29.974996,0.223694,320.3, -29.4, 2.9,,,0,0,364,1024,1684,953,-100,0,100,-11,314.6,-10.7,0,98,4.127,4.122,4.116,4.12,0,0,11.947,89.6,97.030585125976,10.826772,31,Sport,
30900,2025-08-04 10:23:15,43.5589408614106,-5.62251420353741,10.498688,,,96.702501125976,20.013124,43.6874382,915.59058048,949.58336372,31,5,16.531,112.45053312598,26.24672,44.3361508,915.59058048,31.988242,-29.751302,2.013246,319.6, -34.2, 4.4,,,0,0,364,1024,1684,953,-100,0,100,-11,314.6,-10.7,0,98,4.127,4.122,4.116,4.12,0,0,11.947,89.6,96.702501125976,10.498688,31,Sport,
31100,2025-08-04 10:23:16,43.5589664629615,-5.62254721443941,9.514436,,,95.718249125976,20.013124,43.1953114,928.04464912,962.36551636,29,5,16.531,112.45053312598,26.24672,44.3361508,928.04464912,31.540854,-29.527608,4.47388,319.3, -35.5, 6.1,,,0,0,364,1024,1684,952,-100,0,100,-11,314.6,-10.7,0,98,4.127,4.122,4.116,4.12,0,0,11.947,89.6,95.718249125976,9.514436,31,Sport,
31300,2025-08-04 10:23:16,43.5589920145968,-5.62257999601324,7.874016,,,94.077829125976,20.013124,43.061095,940.46262852,975.09517556,30,5,16.531,112.45053312598,26.24672,44.3361508,940.46262852,31.540854,-29.303914,6.039738,319.4, -33.7, 6.4,,,0,0,364,1024,1684,953,-100,0,100,-11,314.6,-10.7,0,98,4.127,4.122,4.116,4.12,0,0,11.947,89.6,94.077829125976,7.874016,31,Sport,
31500,2025-08-04 10:23:16,43.5590175350036,-5.62261305609473,5.905512,,,92.109325125976,20.013124,43.8663934,952.91341632,987.86748568,27,5,16.591,112.45053312598,26.24672,44.3361508,952.91341632,32.43563,-29.527608,6.487126,319.6, -33.1, 7.4,,,0,0,364,1024,1684,953,-100,0,100,-11,314.6,-10.7,0,98,4.169,4.165,4.156,4.156,0,0,11.765,89.78,92.109325125976,5.905512,31,Sport,
31700,2025-08-04 10:23:16,43.5590436113313,-5.62264632409719,3.608924,,,89.812737125976,20.013124,44.4927366,965.57745872,1000.82352284,30,5,16.591,112.45053312598,26.24672,44.4927366,965.57745872,32.883018,-29.974996,6.71082,319, -32, 9.2,,,0,0,364,1024,1684,954,-100,0,100,-11,314.6,-10.7,0,98,4.169,4.165,4.156,4.156,0,0,11.765,89.78,89.812737125976,3.608924,31,Sport,
31900,2025-08-04 10:23:16,43.5590699771741,-5.62267996763888,1.64042,,,87.844233125976,20.013124,45.2756656,978.38913892,1013.9271978,27,5,16.591,112.45053312598,26.24672,45.2756656,978.38913892,33.106712,-30.869772,6.487126,318.1, -29.8, 8.5,,,0,0,364,1024,1684,954,-100,0,100,-11,314.6,-10.7,0,98,4.169,4.165,4.156,4.156,0,0,11.765,89.78,87.844233125976,1.64042,31,Sport,
32100,2025-08-04 10:23:17,43.5590969651911,-5.62271353462226,0,,,86.203813125976,20.013124,45.8125312,991.39438868,1027.1817914,29,5,16.591,112.45053312598,26.24672,45.8125312,991.39438868,34.448876,-30.19869,6.487126,320.8, -26.7, 8.1,,,0,0,364,1024,1684,954,-100,0,100,-11,314.6,-10.7,0,98,4.169,4.165,4.156,4.156,0,0,11.765,89.78,86.203813125976,0,31,Sport,
32300,2025-08-04 10:23:17,43.5591240294056,-5.62274728938139,-1.968504,,,84.235309125976,20.013124,45.7677924,1004.45541272,1040.49215928,26,5,16.591,112.45053312598,26.24672,45.8125312,1004.45541272,33.777794,-30.869772,6.71082,318.7, -26.5, 10.4,,,0,0,364,1024,1684,954,-100,0,100,-11,314.6,-10.7,0,98,4.169,4.165,4.156,4.156,0,0,11.765,89.78,84.235309125976,-1.968504,31,Sport,
32500,2025-08-04 10:23:17,43.5591514020289,-5.62278062442732,-3.937008,,,82.266805125976,20.013124,45.8349006,1017.55908768,1053.81236968,27,5,16.542,112.45053312598,26.24672,45.8349006,1017.55908768,34.67257,-29.974996,6.487126,320.6, -25.9, 9,,,0,0,364,1024,1684,955,-100,0,100,-10,314.6,-10.7,0,98,4.153,4.152,4.148,4.149,0,0,9.541,89.6,82.266805125976,-3.937008,31,Sport,
32700,2025-08-04 10:23:17,43.559178625245,-5.62281386017588,-5.905512,,,80.298301125976,20.013124,45.3651432,1030.6102692,1067.07352496,25,5,16.542,112.45053312598,26.24672,45.8349006,1030.6102692,34.448876,-29.527608,6.71082,320.3, -27.5, 11.3,,,0,0,364,1024,1684,959,-100,0,100,-10,314.6,-10.7,0,98,4.153,4.152,4.148,4.149,0,0,9.541,89.6,80.298301125976,-5.905512,31,Sport,
32900,2025-08-04 10:23:17,43.5592061428878,-5.62284682053306,-7.545932,,,78.657881125976,20.013124,45.3651432,1043.72050584,1080.36748864,27,5,16.542,112.45053312598,26.24672,45.8349006,1043.72050584,34.448876,-29.527608,6.71082,319.9, -28.6, 12.7,,,0,0,364,1024,1684,960,-100,0,100,-10,314.6,-10.7,0,98,4.153,4.152,4.148,4.149,0,0,9.541,89.6,78.657881125976,-7.545932,31,Sport,
