time(millisecond),datetime(utc),latitude,longitude,height_above_takeoff(feet),height_above_ground_at_drone_location(feet),ground_elevation_at_drone_location(feet),altitude_above_seaLevel(feet),height_sonar(feet),speed(mph),distance(feet),mileage(feet),satellites,gpslevel,voltage(v),max_altitude(feet),max_ascent(feet),max_speed(mph),max_distance(feet), xSpeed(mph), ySpeed(mph), zSpeed(mph), compass_heading(degrees), pitch(degrees), roll(degrees),isPhoto,isVideo,rc_elevator,rc_aileron,rc_throttle,rc_rudder,rc_elevator(percent),rc_aileron(percent),rc_throttle(percent),rc_rudder(percent),gimbal_heading(degrees),gimbal_pitch(degrees),gimbal_roll(degrees),battery_percent,voltageCell1,voltageCell2,voltageCell3,voltageCell4,voltageCell5,voltageCell6,current(A),battery_temperature(f),altitude(feet),ascent(feet),flycStateRaw,flycState,message
100,2025-07-30 09:59:56,43.5567622961494,-5.62078496508889,0,Available with any HD 360 subscription,Available with any HD 360 subscription,86.532905984276,0,0,0,0,31,5,0,86.532905984276,0,0,0,0,0,0,329.1, 0.5, 1.5,0,0,1024,1024,1024,1024,0,0,0,0,329.2,0,0,100,4.251,4.253,4.233,4.25,0,0,0,86.54,86.532905984276,0,41,Motors_Started,
300,2025-07-30 09:59:56,43.5567622810165,-5.62078499148374,0,,,86.532905984276,0,0,0.0088988191824,0.0088988191824,31,5,0,86.532905984276,0,0,0.0088988191824,0,0,0,329.1, 0.5, 1.5,0,0,1024,1024,1024,1024,0,0,0,0,329.2,0,0,100,4.251,4.253,4.233,4.25,0,0,0,86.54,86.532905984276,0,41,Motors_Started,
500,2025-07-30 09:59:57,43.5567622872875,-5.62078498895856,0,,,86.532905984276,0,0,0.0070912403844,0.0112822510172,31,5,0,86.532905984276,0,0,0.0088988191824,0,0,0,329.1, 0.5, 1.5,0,0,1024,1024,1024,1153,0,0,0,20,329.2,0,0,100,4.251,4.253,4.233,4.25,0,0,0,86.54,86.532905984276,0,41,Motors_Started,"Setting new Return-To-Home altitude to 25m (82 ft). Data Recorder File Index is 194. Setting new Maximum Flight Altitude to 45m (148 ft)"
700,2025-07-30 09:59:57,43.5567623024047,-5.62078498321294,0,,,86.532905984276,0,0,0.0053077757604,0.0170031501504,31,5,0,86.532905984276,0,0,0.0088988191824,0,0,0,329.1, 0.5, 1.5,0,0,1024,1024,1024,1024,0,0,0,0,329.2,0,0,100,4.251,4.253,4.233,4.25,0,0,0,86.54,86.532905984276,0,41,Motors_Started,
900,2025-07-30 09:59:57,43.5567623034441,-5.62078499186511,0,,,86.532905984276,0,0,0.0075634516856,0.019322015054,31,5,17.066,86.532905984276,0,0,0.0088988191824,0,0,0,329.1, 0.5, 1.5,0,0,1024,1024,1024,1024,0,0,0,0,329.2,0,0,100,4.251,4.253,4.233,4.25,0,0,2.111,86.54,86.532905984276,0,41,Motors_Started,
1100,2025-07-30 09:59:57,43.556762296631,-5.62078499814518,0,,,86.532905984276,0,0,0.008741962222,0.0223113852284,31,5,17.066,86.532905984276,0,0,0.0088988191824,0,0,0,329.1, 0.4, 1.6,0,0,1024,1024,1024,1024,0,0,0,0,329.2,0,0,100,4.251,4.253,4.233,4.25,0,0,2.111,86.54,86.532905984276,0,41,Motors_Started,
1300,2025-07-30 09:59:57,43.5567622972046,-5.62078501118355,0,,,86.532905984276,0,0,0.0121936683692,0.0257651254964,31,5,17.066,86.532905984276,0,0,0.0121936683692,0,0,0,329.1, 0.4, 1.6,0,0,1024,1024,1024,1024,0,0,0,0,329.2,0,0,100,4.251,4.253,4.233,4.25,0,0,2.111,86.54,86.532905984276,0,41,Motors_Started,
1500,2025-07-30 09:59:58,43.5567622984882,-5.62078501542921,0,,,86.532905984276,0,0,0.0133374676184,0.026981464118,31,5,17.066,86.532905984276,0,0,0.0133374676184,0,0,0,329.1, 0.4, 1.6,0,0,1024,1024,1024,1024,0,0,0,0,329.2,0,0,100,4.251,4.253,4.233,4.25,0,0,2.111,86.54,86.532905984276,0,41,Motors_Started,
1700,2025-07-30 09:59:58,43.5567622881178,-5.62078503104813,0,,,86.532905984276,0,0,0.0176843181512,0.0325823829324,31,5,17.066,86.532905984276,0,0,0.0176843181512,0,0,0,329, 0.4, 1.6,0,0,1024,1024,1024,1024,0,0,0,0,329.2,0,0,100,4.251,4.253,4.233,4.25,0,0,2.111,86.54,86.532905984276,0,10,Assisted_Takeoff,
1900,2025-07-30 09:59:58,43.5567623247421,-5.62078498873179,0,,,86.532905984276,0,0,0.0121616145624,0.050010500288,31,5,16.972,86.532905984276,0,0,0.0176843181512,0,0,0,329, 0.4, 1.6,0,0,1024,1024,1024,1024,0,0,0,0,329.2,0,0,100,4.272,4.274,4.254,4.273,0,0,4.686,86.54,86.532905984276,0,10,Assisted_Takeoff,
2100,2025-07-30 09:59:58,43.556762350255,-5.62078494817998,0,,,86.532905984276,0,0,0.02024032217,0.06420931964,31,5,16.972,86.532905984276,0,0,0.02024032217,0,0,0,329.1, 0.4, 1.6,0,0,1024,1024,1024,1024,0,0,0,0,329.2,0,0,100,4.272,4.274,4.254,4.273,0,0,4.686,86.54,86.532905984276,0,10,Assisted_Takeoff,
2300,2025-07-30 09:59:58,43.5567623561142,-5.62078491116543,0,,,86.532905984276,0,0,0.0261137803632,0.074226708412,31,5,16.972,86.532905984276,0,0,0.0261137803632,0,0,0,329.1, 0.4, 1.6,0,0,1024,1024,1024,1024,0,0,0,0,329.2,0,0,100,4.272,4.274,4.254,4.273,0,0,4.686,86.54,86.532905984276,0,10,Assisted_Takeoff,
2500,2025-07-30 09:59:59,43.5567623637082,-5.62078488954698,0,,,86.532905984276,0,0,0.0317254603328,0.080578742736,31,5,16.972,86.532905984276,0,0,0.0317254603328,0,0,0,329.1, 0.4, 1.6,0,0,1024,1024,1024,1024,0,0,0,0,329.2,0,0,100,4.272,4.274,4.254,4.273,0,0,4.686,86.54,86.532905984276,0,10,Assisted_Takeoff,
2700,2025-07-30 09:59:59,43.5567623487184,-5.62078489873669,0,,,86.532905984276,0,0,0.0259932094932,0.08656332298,31,5,16.972,86.532905984276,0,0,0.0317254603328,0,0,0,329.1, 0.4, 1.6,0,0,1024,1024,1024,1024,0,0,0,0,329.2,0,0,100,4.272,4.274,4.254,4.273,0,0,4.686,86.54,86.532905984276,0,10,Assisted_Takeoff,"Cambiado al modo-S (Sport)."
2900,2025-07-30 09:59:59,43.5567623491991,-5.62078489809709,0,,,86.532905984276,0,0,0.0262367462464,0.086807089392,31,5,17.079,86.532905984276,0,0,0.0317254603328,0,0,0,329.1, 0.4, 1.6,0,0,1024,1024,1024,1024,0,0,0,0,329.2,0,0,100,4.273,4.275,4.257,4.274,0,0,2.04,86.72,86.532905984276,0,10,Assisted_Takeoff,
3100,2025-07-30 09:59:59,43.5567623400541,-5.62078492327027,0,,,86.532905984276,0,0,0.0194641410428,0.094252299604,31,5,17.079,86.532905984276,0,0,0.0317254603328,0,0,0,329.1, 0.4, 1.6,0,0,1024,1024,1024,1024,0,0,0,0,329.2,0,0,100,4.273,4.275,4.257,4.274,0,0,2.04,86.72,86.532905984276,0,10,Assisted_Takeoff,
3300,2025-07-30 09:59:59,43.5567623373817,-5.62078492517449,0,,,86.532905984276,0,0,0.0183762144988,0.095349740584,31,5,17.079,86.532905984276,0,0,0.0317254603328,0,0,0,329, 0.4, 1.6,0,0,1024,1024,1024,1024,0,0,0,0,329.2,0,0,100,4.273,4.275,4.257,4.274,0,0,2.04,86.72,86.532905984276,0,10,Assisted_Takeoff,
3500,2025-07-30 10:00:00,43.5567623218557,-5.62078492821927,0,,,86.532905984276,0,0,0.0135276251048,0.10107119746,31,5,17.079,86.532905984276,0,0,0.0317254603328,0,0,0,329.1, 0.4, 1.6,0,0,1035,1024,1024,1024,2,0,0,0,329.2,0,0,100,4.273,4.275,4.257,4.274,0,0,2.04,86.72,86.532905984276,0,10,Assisted_Takeoff,
3700,2025-07-30 10:00:00,43.5567623242425,-5.62078493503256,0,,,86.532905984276,0,0,0.012969652646,0.103072181776,31,5,17.079,86.532905984276,0,0,0.0317254603328,0,0,0,329.1, 0.4, 1.6,0,0,1396,1024,1024,1024,56,0,0,0,329.2,0,0,100,4.273,4.275,4.257,4.274,0,0,2.04,86.72,86.532905984276,0,10,Assisted_Takeoff,
3900,2025-07-30 10:00:00,43.5567623146573,-5.62078495434282,0,,,86.532905984276,0,0,0.0073259844864,0.109260830268,31,5,17.079,86.532905984276,0,0,0.0317254603328,0,0,0,329.1, 0.4, 1.6,0,0,1427,1024,1024,1024,61,0,0,0,329.2,0,0,100,4.274,4.275,4.256,4.274,0,0,2.048,86.72,86.532905984276,0,10,Assisted_Takeoff,
4100,2025-07-30 10:00:00,43.5567623190721,-5.62078496259151,0,,,86.532905984276,0,0,0.0083893375388,0.111972116444,31,5,17.079,86.532905984276,0,0,0.0317254603328,0,0,0,329.1, 0.3, 1.6,0,0,1489,1024,1024,1024,70,0,0,0,329.2,0,0,100,4.274,4.275,4.256,4.274,0,0,2.048,86.72,86.532905984276,0,10,Assisted_Takeoff,
4300,2025-07-30 10:00:00,43.556762299425,-5.62078498906971,0,,,86.532905984276,0,0,0.006452263986,0.121991801804,31,5,17.079,86.532905984276,0,0,0.0317254603328,0,0,0,329.3, -0.5, 1.7,0,0,1520,1024,1024,1024,75,0,0,0,329.2,0,0,100,4.274,4.275,4.256,4.274,0,0,2.048,86.72,86.532905984276,0,10,Assisted_Takeoff,
4500,2025-07-30 10:00:01,43.5567624113613,-5.6207851281583,0,,,86.532905984276,0,0.223694,0.060215881192,0.176949480728,31,5,17.079,86.532905984276,0,0.223694,0.060215881192,0.223694,0,-0.223694,329.5, -6.3, 1.3,0,0,1532,1024,1024,1024,77,0,0,0,329.2,0,0,100,4.274,4.275,4.256,4.274,0,0,2.048,86.72,86.532905984276,0,10,Assisted_Takeoff,
4700,2025-07-30 10:00:01,43.5567628342032,-5.62078555887875,0,,,86.532905984276,0.328084,0.6263432,0.251368446364,0.36870408004,31,5,17.079,86.532905984276,0,0.6263432,0.251368446364,0.447388,-0.447388,-1.342164,328.8, 1.5, 0.9,0,0,1597,1024,1024,1024,87,0,0,0,329.2,0,0,100,4.274,4.275,4.256,4.274,0,0,2.048,86.72,86.532905984276,0,31,Sport,
4900,2025-07-30 10:00:01,43.5567632015129,-5.62078599834392,0.656168,,,87.189073984276,0.984252,0.3131716,0.4286581502,0.54607613296,31,5,16.999,87.189073984276,0.656168,0.6263432,0.4286581502,0.223694,-0.223694,-2.684328,329.6, 5.6, 0.4,0,0,1596,1024,1024,1024,87,0,0,0,329.2,0,0,100,4.208,4.206,4.183,4.197,0,0,3.106,86.72,87.189073984276,0.656168,31,Sport,
5100,2025-07-30 10:00:01,43.5567632424646,-5.62078627070164,1.968504,,,88.501409984276,2.296588,0,0.4882382046,0.61962272324,31,5,16.999,88.501409984276,1.968504,0.6263432,0.4882382046,0,0,-4.47388,329.4, 2.4, 1.9,0,0,1427,1024,1072,1024,61,0,7,0,329.2,0,0,100,4.208,4.206,4.183,4.197,0,0,3.106,86.72,88.501409984276,1.968504,31,Sport,
5300,2025-07-30 10:00:01,43.5567631294861,-5.62078619112958,3.608924,,,90.141829984276,3.937008,0.223694,0.44444227144,0.66590225228,31,5,16.999,90.141829984276,3.608924,0.6263432,0.4882382046,-0.223694,0,-6.263432,329.6, 0.1, 3.3,0,0,1024,1024,1684,1024,0,0,100,0,329.2,0,0,100,4.208,4.206,4.183,4.197,0,0,3.106,86.72,90.141829984276,3.608924,31,Sport,
5500,2025-07-30 10:00:02,43.5567630119854,-5.62078572606819,5.577428,,,92.110333984276,5.905512,0.3131716,0.32968833076,0.79612535356,31,5,16.999,92.110333984276,5.577428,0.6263432,0.4882382046,-0.223694,0.223694,-7.158208,328.9, -6.9, -0.8,0,0,1024,1024,1684,1024,0,0,100,0,329.2,0,0,100,4.208,4.206,4.183,4.197,0,0,3.106,86.72,92.110333984276,5.577428,31,Sport,
5700,2025-07-30 10:00:02,43.5567630103769,-5.62078587413826,7.874016,,,94.406921984276,7.874016,0.4921268,0.35450788536,0.83527889812,31,5,16.999,94.406921984276,7.874016,0.6263432,0.4882382046,0.223694,-0.447388,-6.263432,328.3, -31.8, 1.4,0,0,1024,1024,1684,1024,0,0,100,0,329.2,0,0,100,4.208,4.206,4.183,4.197,0,0,3.106,86.72,94.406921984276,7.874016,31,Sport,
5900,2025-07-30 10:00:02,43.5567638157047,-5.62078718345063,9.84252,,,96.375425984276,9.514436,2.2145706,0.80709320168,1.28934715412,31,5,16.61,96.375425984276,9.84252,2.2145706,0.80709320168,1.565858,-1.565858,-4.47388,327.7, -34.5, 4.7,0,0,1024,1024,1684,969,0,0,100,-8,329.2,0,0,100,4.186,4.195,4.177,4.2,0,0,11.959,86.54,96.375425984276,9.84252,31,Sport,
6100,2025-07-30 10:00:02,43.5567656241163,-5.62078951908046,10.826772,,,97.359677984276,10.170604,3.3330406,1.71000989724,2.1930610938,31,5,16.61,97.359677984276,10.826772,3.3330406,1.71000989724,2.460634,-2.23694,-2.460634,327.1, -33.4, 6.8,0,0,1024,1024,1684,979,0,0,100,-7,329.2,0,0,100,4.186,4.195,4.177,4.2,0,0,11.959,86.54,97.359677984276,10.826772,31,Sport,
6300,2025-07-30 10:00:02,43.5567684822938,-5.62079251740753,11.154856,,,97.687761984276,10.170604,4.47388,3.01355980772,3.5029856764,31,5,16.61,97.687761984276,11.154856,4.47388,3.01355980772,3.579104,-2.684328,-0.447388,330.1, -33.4, 7.6,0,0,1024,1024,1684,979,0,0,100,-7,329.2,0,0,100,4.186,4.195,4.177,4.2,0,0,11.959,86.54,97.687761984276,11.154856,31,Sport,
6500,2025-07-30 10:00:03,43.5567725487634,-5.62079623605021,11.154856,,,97.687761984276,10.170604,6.3305402,4.7826117016,5.2828741848,31,5,16.61,97.687761984276,11.154856,6.3305402,4.7826117016,5.368656,-3.35541,0,331.2, -33.4, 7,0,0,1024,1024,1684,992,0,0,100,-5,329.2,0,0,100,4.186,4.195,4.177,4.2,0,0,11.959,86.54,97.687761984276,11.154856,31,Sport,
6700,2025-07-30 10:00:03,43.5567785963983,-5.6208007522856,10.826772,,,97.359677984276,10.170604,8.5227414,7.2658138808,7.7917325328,31,5,16.61,97.687761984276,11.154856,8.5227414,7.2658138808,7.381902,-4.250186,0,331.4, -33, 7.1,0,0,1024,1024,1684,994,0,0,100,-5,329.2,0,0,100,4.186,4.195,4.177,4.2,0,0,11.959,86.54,97.359677984276,10.826772,31,Sport,
6900,2025-07-30 10:00:03,43.5567860221603,-5.62080607428871,10.498688,,,97.031593984276,10.170604,10.8044202,10.2997706708,10.844652578,31,5,16.61,97.687761984276,11.154856,10.8044202,10.2997706708,9.618842,-4.921268,0,333.2, -34.3, 6.6,0,0,1024,1024,1684,1007,0,0,100,-3,329.2,0,0,100,4.186,4.195,4.177,4.2,0,0,11.959,86.54,97.031593984276,10.498688,31,Sport,
7100,2025-07-30 10:00:03,43.5567957663387,-5.62081144167777,10.170604,,,96.703509984276,10.170604,13.0189908,14.0758534688,14.6726054564,31,5,16.798,97.687761984276,11.154856,13.0189908,14.0758534688,11.855782,-5.368656,0,334.1, -33.8, 5.7,0,0,1024,1024,1684,1024,0,0,100,0,329.2,0,0,100,4.181,4.185,4.163,4.178,0,0,7.559,86.72,96.703509984276,10.170604,31,Sport,
7300,2025-07-30 10:00:03,43.5568067680857,-5.62081812756807,10.170604,,,96.703509984276,10.498688,15.0098674,18.4432092516,19.0585964104,31,5,16.798,97.687761984276,11.154856,15.0098674,18.4432092516,13.645334,-6.263432,0,334.3, -34.4, 5,0,0,1024,1024,1684,1024,0,0,100,0,329.2,0,0,100,4.181,4.185,4.163,4.178,0,0,7.559,86.72,96.703509984276,10.170604,31,Sport,
7500,2025-07-30 10:00:04,43.5568189141334,-5.62082482705952,10.170604,,,96.703509984276,10.826772,17.0231134,23.190453498,23.8310046996,31,5,16.798,97.687761984276,11.154856,17.0231134,23.190453498,15.434886,-7.158208,0,334.3, -34.4, 4.4,0,0,1024,1024,1684,1024,0,0,100,0,329.2,0,0,100,4.181,4.185,4.163,4.178,0,0,7.559,86.72,96.703509984276,10.170604,31,Sport,
7700,2025-07-30 10:00:04,43.5568327385646,-5.62083321337659,10.498688,,,97.031593984276,10.170604,18.7231878,28.6927830704,29.340716162,31,5,16.798,97.687761984276,11.154856,18.7231878,28.6927830704,17.000744,-7.82929,0,334, -34.5, 5.1,0,0,1024,1024,1684,1024,0,0,100,0,329.2,0,0,100,4.181,4.185,4.163,4.178,0,0,7.559,86.72,97.031593984276,10.498688,31,Sport,
7900,2025-07-30 10:00:04,43.5568482454388,-5.62084236950512,10.498688,,,97.031593984276,10.498688,20.5127398,34.838583792,35.494423708,31,5,16.798,97.687761984276,11.154856,20.5127398,34.838583792,18.566602,-8.724066,0,333.8, -34.5, 5.7,0,0,1024,1024,1684,1024,0,0,100,0,329.2,0,0,100,4.181,4.185,4.163,4.178,0,0,7.559,86.72,97.031593984276,10.498688,31,Sport,
8100,2025-07-30 10:00:04,43.5568644976608,-5.62085260612473,10.498688,,,97.031593984276,10.498688,22.0114896,41.355316284,42.01279662,31,5,16.679,97.687761984276,11.154856,22.0114896,41.355316284,19.908766,-9.395148,0,333.7, -34.3, 6.1,0,0,1024,1024,1684,1024,0,0,100,0,329.2,0,0,99,4.174,4.182,4.163,4.181,0,0,11.195,86.54,97.031593984276,10.498688,31,Sport,
8300,2025-07-30 10:00:04,43.5568808744711,-5.62086290826449,10.498688,,,97.031593984276,14.76378,23.5102394,47.920933292,48.57939788,31,5,16.679,97.687761984276,11.154856,23.5102394,47.920933292,21.25093,-10.06623,0,333.6, -34, 7.1,0,0,909,1090,1684,1024,-17,10,100,0,329.2,0,0,99,4.174,4.182,4.163,4.181,0,0,11.195,86.54,97.031593984276,10.498688,31,Sport,
8500,2025-07-30 10:00:05,43.5568992129584,-5.62087462829794,10.498688,,,97.031593984276,20.669292,24.9195116,55.293965024,55.95308578,31,5,16.679,97.687761984276,11.154856,24.9195116,55.293965024,22.593094,-10.513618,0,333.5, -34, 6.7,0,0,907,1184,1684,1024,-18,24,100,0,329.4,0,0,99,4.174,4.182,4.163,4.181,0,0,11.195,86.54,97.031593984276,10.498688,31,Sport,
8700,2025-07-30 10:00:05,43.5569191150756,-5.62088737885361,10.498688,,,97.031593984276,20.669292,26.2169368,63.299542708,63.958663464,31,5,16.679,97.687761984276,11.154856,26.2169368,63.299542708,23.711564,-11.1847,0.447388,333.8, -33.9, 8.2,0,0,969,1303,1684,1024,-8,42,100,0,330.8,0,0,99,4.174,4.182,4.163,4.181,0,0,11.195,86.54,97.031593984276,10.498688,31,Sport,
8900,2025-07-30 10:00:05,43.5569391552271,-5.62090013854292,10.498688,,,97.031593984276,20.669292,27.5367314,71.35170832,72.01115716,31,5,16.679,97.687761984276,11.154856,27.5367314,71.35170832,25.053728,-11.408394,0.223694,333.7, -30.6, 15.8,0,0,995,1248,1684,1024,-4,34,100,0,333.8,-6,0,99,4.174,4.182,4.163,4.181,0,0,11.195,86.54,97.031593984276,10.498688,31,Sport,
9100,2025-07-30 10:00:05,43.5569595873184,-5.62091215245756,10.170604,,,96.703509984276,20.669292,28.297291,79.449477608,80.114175792,31,5,16.637,97.687761984276,11.154856,28.297291,79.449477608,26.172198,-10.737312,0.223694,336.7, -27, 21.3,0,0,1024,1024,1684,1024,0,0,100,0,336.1,-6.8,0,99,4.143,4.158,4.141,4.156,0,0,11.139,86.72,96.703509984276,10.170604,31,Sport,
9300,2025-07-30 10:00:05,43.5569815423891,-5.62092367131166,10.170604,,,96.703509984276,20.669292,29.08022,87.998362396,88.684057956,31,5,16.637,97.687761984276,11.154856,29.08022,87.998362396,27.290668,-10.06623,0,340, -32.4, 13.4,0,0,1024,1024,1684,1024,0,0,100,0,336.1,-6.8,0,99,4.143,4.158,4.141,4.156,0,0,11.139,86.72,96.703509984276,10.170604,31,Sport,"Se ha alcanzado el límite del eje de inclinación del estabilizador 1"
9500,2025-07-30 10:00:06,43.557002966509,-5.62093380856619,9.84252,,,96.375425984276,20.669292,30.2881676,96.224412528,96.947509664,31,5,16.637,97.687761984276,11.154856,30.2881676,96.224412528,28.632832,-9.842536,0,338.3, -30.7, 14.9,0,0,1024,1024,1684,1024,0,0,100,0,336.1,-6.8,0,99,4.143,4.158,4.141,4.156,0,0,11.139,86.72,96.375425984276,9.84252,31,Sport,
9700,2025-07-30 10:00:06,43.5570268507202,-5.62094461554801,9.84252,,,96.375425984276,20.669292,30.981619,105.34941282,106.118113632,31,5,16.637,97.687761984276,11.154856,30.981619,105.34941282,29.527608,-9.395148,0,339, -31.6, 14.5,0,0,1024,1024,1684,1024,0,0,100,0,336.1,-6.8,0,99,4.143,4.158,4.141,4.156,0,0,11.139,86.72,96.375425984276,9.84252,31,Sport,
9900,2025-07-30 10:00:06,43.5570521446791,-5.6209553673715,9.84252,,,96.375425984276,20.669292,32.0553502,114.948822576,115.774610004,31,5,16.637,97.687761984276,11.154856,32.0553502,114.948822576,30.646078,-9.395148,0,340, -33, 11.5,0,0,1024,1024,1684,1024,0,0,100,0,336.1,-6.8,0,99,4.143,4.158,4.141,4.156,0,0,11.139,86.72,96.375425984276,9.84252,31,Sport,
10100,2025-07-30 10:00:06,43.557077891168,-5.62096608457287,9.84252,,,96.375425984276,20.669292,33.1290814,124.706040736,125.586290108,31,5,16.536,97.687761984276,11.154856,33.1290814,124.706040736,31.764548,-9.395148,0,340.8, -33.9, 8.7,0,0,1024,1024,1684,1024,0,0,100,0,336.1,-6.8,0,99,4.129,4.133,4.111,4.124,0,0,13.589,86.72,96.375425984276,9.84252,31,Sport,
10300,2025-07-30 10:00:06,43.557102844847,-5.62097637181106,10.170604,,,96.703509984276,20.669292,34.113335,134.160437364,135.088258916,31,5,16.536,97.687761984276,11.154856,34.113335,134.160437364,32.659324,-9.842536,0,341.5, -34.6, 6.4,0,0,1024,1024,1684,1024,0,0,100,0,336.1,-6.8,0,99,4.129,4.133,4.111,4.124,0,0,13.589,86.72,96.703509984276,10.170604,31,Sport,
10500,2025-07-30 10:00:07,43.5571301510256,-5.62098780217954,10.170604,,,96.703509984276,20.669292,35.0975886,144.530188352,145.499020404,31,5,16.536,97.687761984276,11.154856,35.0975886,144.530188352,33.5541,-10.289924,0,341.5, -34.1, 6.9,0,0,1024,1024,1684,1024,0,0,100,0,336.1,-6.8,0,99,4.129,4.133,4.111,4.124,0,0,13.589,86.72,96.703509984276,10.170604,31,Sport,
10700,2025-07-30 10:00:07,43.5571593074788,-5.62100026192063,9.84252,,,96.375425984276,20.669292,36.014734,155.633535164,156.635175616,31,5,16.536,97.687761984276,11.154856,36.014734,155.633535164,34.448876,-10.513618,0,341.7, -33.6, 7.1,0,0,1024,1210,1684,1024,0,28,100,0,336.5,-6.8,0,99,4.129,4.133,4.111,4.124,0,0,13.589,86.72,96.375425984276,9.84252,31,Sport,
10900,2025-07-30 10:00:07,43.5571880278779,-5.62101260706483,9.84252,,,96.375425984276,20.669292,36.797663,166.581698244,167.610569668,31,5,16.536,97.687761984276,11.154856,36.797663,166.581698244,35.119958,-10.961006,0,340.8, -31.2, 13.8,0,0,1024,1024,1684,1024,0,0,100,0,337.9,-6.8,0,99,4.129,4.133,4.111,4.124,0,0,13.589,86.72,96.375425984276,9.84252,31,Sport,
11100,2025-07-30 10:00:07,43.5572166416706,-5.62102474228359,9.84252,,,96.375425984276,20.669292,37.5134838,177.477367884,178.532157944,31,5,16.499,97.687761984276,11.154856,37.5134838,177.477367884,36.014734,-10.513618,0,343.9, -33.6, 7.8,0,0,1024,1024,1684,1024,0,0,100,0,337.9,-6.8,0,99,4.104,4.114,4.095,4.11,0,0,14.877,86.9,96.375425984276,9.84252,31,Sport,
11300,2025-07-30 10:00:07,43.5572461226714,-5.62103680101843,9.84252,,,96.375425984276,20.669292,37.9385024,188.6647042,189.750990324,31,5,16.499,97.687761984276,11.154856,37.9385024,188.6647042,36.462122,-10.513618,0,342, -32.3, 11,0,0,1024,1024,1684,1024,0,0,100,0,337.9,-6.8,0,99,4.104,4.114,4.095,4.11,0,0,14.877,86.9,96.375425984276,9.84252,31,Sport,
11500,2025-07-30 10:00:08,43.5572730385248,-5.62104751916698,9.84252,,,96.375425984276,20.669292,38.587215,198.854665156,199.971791176,31,5,16.499,97.687761984276,11.154856,38.587215,198.854665156,37.133204,-10.513618,0,342.4, -32.8, 11.3,0,0,1024,1024,1684,1024,0,0,100,0,337.9,-6.8,0,99,4.104,4.114,4.095,4.11,0,0,14.877,86.9,96.375425984276,9.84252,31,Sport,
11700,2025-07-30 10:00:08,43.5573017279978,-5.62105851573912,9.84252,,,96.375425984276,20.669292,38.9674948,209.680780988,210.835308584,31,5,16.499,97.687761984276,11.154856,38.9674948,209.680780988,37.580592,-10.289924,0,343.1, -33.8, 9.2,0,0,1024,1024,1684,1024,0,0,100,0,337.9,-6.8,0,99,4.104,4.114,4.095,4.11,0,0,14.877,86.9,96.375425984276,9.84252,31,Sport,
11900,2025-07-30 10:00:08,43.5573330552985,-5.62107051936266,9.84252,,,96.375425984276,20.669292,39.6609462,221.5059126,222.697513688,31,5,16.499,97.687761984276,11.154856,39.6609462,221.5059126,38.251674,-10.513618,0,343.5, -34, 7.3,0,0,1024,1024,1684,1024,0,0,100,0,337.9,-6.8,0,99,4.104,4.114,4.095,4.11,0,0,14.877,86.9,96.375425984276,9.84252,31,Sport,
12100,2025-07-30 10:00:08,43.5573663736279,-5.62108317430822,9.84252,,,96.375425984276,20.669292,40.3096588,234.07645106,235.305781808,31,5,16.381,97.687761984276,11.154856,40.3096588,234.07645106,38.922756,-10.513618,0,343.8, -34.2, 6.6,0,0,1024,1024,1615,1024,0,0,90,0,337.9,-6.8,0,99,4.084,4.094,4.073,4.09,0,0,17.231,87.08,96.375425984276,9.84252,31,Sport,
12300,2025-07-30 10:00:08,43.5573982316639,-5.6210953217515,9.84252,,,96.375425984276,20.669292,40.8017856,246.104338584,247.364837312,31,5,16.381,97.687761984276,11.154856,40.8017856,246.104338584,39.370144,-10.737312,0,343.8, -34.4, 6.4,0,0,1024,1024,1649,1024,0,0,95,0,337.9,-6.8,0,99,4.084,4.094,4.073,4.09,0,0,17.231,87.08,96.375425984276,9.84252,31,Sport,
12500,2025-07-30 10:00:09,43.5574312991887,-5.62110794483076,9.84252,,,96.375425984276,20.669292,41.2939124,258.592856044,259.882554248,31,5,16.381,97.687761984276,11.154856,41.2939124,258.592856044,39.817532,-10.961006,0,343.7, -33.8, 6.7,0,0,1024,1024,1676,1024,0,0,99,0,337.9,-6.8,0,99,4.084,4.094,4.073,4.09,0,0,17.231,87.08,96.375425984276,9.84252,31,Sport,
12700,2025-07-30 10:00:09,43.5574658765072,-5.62112121796589,9.84252,,,96.375425984276,20.669292,41.5847146,271.660769848,272.97737094,31,5,16.381,97.687761984276,11.154856,41.5847146,271.660769848,40.041226,-11.1847,0,343.8, -32.9, 6.8,0,0,1024,1024,1652,1024,0,0,95,0,337.9,-6.8,0,99,4.084,4.094,4.073,4.09,0,0,17.231,87.08,96.375425984276,9.84252,31,Sport,
12900,2025-07-30 10:00:09,43.5574985651698,-5.62113382510917,9.84252,,,96.375425984276,20.669292,41.7860392,284.0223188,285.36090152,31,5,16.381,97.687761984276,11.154856,41.7860392,284.0223188,40.26492,-11.1847,0,343.7, -33.6, 7,0,0,1024,1024,1659,1024,0,0,96,0,337.9,-6.8,0,99,4.084,4.094,4.073,4.09,0,0,17.231,87.08,96.375425984276,9.84252,31,Sport,
13100,2025-07-30 10:00:09,43.557530419162,-5.62114620366047,9.84252,,,96.375425984276,20.669292,42.0097332,296.078093464,297.434720804,31,5,16.381,97.687761984276,11.154856,42.0097332,296.078093464,40.488614,-11.1847,0,343.7, -33.5, 7,0,0,1024,1024,1684,1024,0,0,100,0,337.9,-6.8,0,99,4.084,4.094,4.073,4.09,0,0,17.231,87.08,96.375425984276,9.84252,31,Sport,
13300,2025-07-30 10:00:09,43.5575634028171,-5.621158920044,9.514436,,,96.047341984276,20.669292,42.278166,308.554143732,309.92947186,31,5,16.339,97.687761984276,11.154856,42.278166,308.554143732,40.712308,-11.408394,0,343.8, -33.5, 6.7,0,0,1024,1024,1684,1024,0,0,100,0,337.9,-6.8,0,99,4.081,4.09,4.068,4.083,0,0,17.959,87.26,96.047341984276,9.514436,31,Sport,
13500,2025-07-30 10:00:10,43.5575930636373,-5.6211704051921,9.514436,,,96.047341984276,20.669292,42.50186,319.778881624,321.169301616,31,5,16.339,97.687761984276,11.154856,42.50186,319.778881624,40.936002,-11.408394,0,343.6, -34.1, 6.4,0,0,1024,1024,1684,1024,0,0,100,0,337.9,-6.8,0,99,4.081,4.09,4.068,4.083,0,0,17.959,87.26,96.047341984276,9.514436,31,Sport,
13700,2025-07-30 10:00:10,43.557626179273,-5.62118320289534,9.514436,,,96.047341984276,20.669292,42.7031846,332.30972192,333.71720228,31,5,16.339,97.687761984276,11.154856,42.7031846,332.30972192,41.159696,-11.408394,0,343.7, -34.4, 6.3,0,0,1024,1024,1684,1024,0,0,100,0,337.9,-6.8,0,99,4.081,4.09,4.068,4.083,0,0,17.959,87.26,96.047341984276,9.514436,31,Sport,
13900,2025-07-30 10:00:10,43.5576606153914,-5.62119653124956,9.514436,,,96.047341984276,20.669292,42.9268786,345.34449924,346.76510296,31,5,16.339,97.687761984276,11.154856,42.9268786,345.34449924,41.38339,-11.408394,0,343.8, -34.5, 5.9,0,0,1024,1024,1684,1024,0,0,100,0,337.9,-6.8,0,99,4.081,4.09,4.068,4.083,0,0,17.959,87.26,96.047341984276,9.514436,31,Sport,
14100,2025-07-30 10:00:10,43.5576942426593,-5.62120957915284,9.514436,,,96.047341984276,20.669292,43.1953114,358.07415844,359.51116636,31,5,16.339,97.687761984276,11.154856,43.1953114,358.07415844,41.607084,-11.632088,0,343.5, -34.1, 6,0,0,1024,1024,1684,1024,0,0,100,0,337.9,-6.8,0,99,4.081,4.09,4.068,4.083,0,0,17.959,87.26,96.047341984276,9.514436,31,Sport,
14300,2025-07-30 10:00:10,43.5577254229518,-5.62122184807272,9.514436,,,96.047341984276,20.669292,43.4861136,369.89502496,371.33859456,31,5,16.236,97.687761984276,11.154856,43.4861136,369.89502496,41.830778,-11.855782,0,343.3, -34.3, 7.1,0,0,1024,1024,1684,1024,0,0,100,0,337.9,-6.8,0,99,4.051,4.062,4.041,4.058,0,0,19.354,87.44,96.047341984276,9.514436,31,Sport,
14500,2025-07-30 10:00:11,43.5577597712767,-5.62123542869582,9.514436,,,96.047341984276,20.669292,43.4861136,382.9232406,384.37665272,31,5,16.236,97.687761984276,11.154856,43.4861136,382.9232406,41.830778,-11.855782,0,343.1, -34, 8.1,0,0,1024,1024,1684,1024,0,0,100,0,337.9,-6.8,0,99,4.051,4.062,4.041,4.058,0,0,19.354,87.44,96.047341984276,9.514436,31,Sport,
14700,2025-07-30 10:00:11,43.5577961685939,-5.62124987124123,9.514436,,,96.047341984276,20.669292,43.6874382,396.73229616,398.19226996,31,5,16.236,97.687761984276,11.154856,43.6874382,396.73229616,42.054472,-11.855782,0,343, -33.8, 8.6,0,0,1024,1024,1684,1024,0,0,100,0,337.9,-6.8,0,99,4.051,4.062,4.041,4.058,0,0,19.354,87.44,96.047341984276,9.514436,31,Sport,
14900,2025-07-30 10:00:11,43.5578302694574,-5.62126337253224,9.514436,,,96.047341984276,20.669292,43.6874382,409.66536744,411.1384646,31,5,16.236,97.687761984276,11.154856,43.6874382,409.66536744,42.054472,-11.855782,0,343.1, -33.8, 8.4,0,0,1024,1024,1671,1024,0,0,98,0,337.9,-6.8,0,99,4.051,4.062,4.041,4.058,0,0,19.354,87.44,96.047341984276,9.514436,31,Sport,
15100,2025-07-30 10:00:11,43.5578613321936,-5.62127573624604,9.514436,,,96.047341984276,20.669292,43.6874382,421.4567064,422.9330844,31,5,16.236,97.687761984276,11.154856,43.6874382,421.4567064,42.054472,-11.855782,0,343, -34.2, 8.5,0,0,1024,1024,1678,983,0,0,99,-6,337.9,-6.8,0,99,4.051,4.062,4.041,4.058,0,0,19.354,87.44,96.047341984276,9.514436,31,Sport,
15300,2025-07-30 10:00:11,43.5578957879814,-5.62128932854839,9.514436,,,96.047341984276,20.669292,43.9111322,434.52429212,436.0072318,31,5,16.169,97.687761984276,11.154856,43.9111322,434.52429212,42.278166,-11.855782,0,343.3, -33.9, 8.1,0,0,1024,1024,1684,956,0,0,100,-10,337.9,-6.8,0,99,4.034,4.051,4.023,4.039,0,0,21.075,87.62,96.047341984276,9.514436,31,Sport,
15500,2025-07-30 10:00:12,43.5579320823092,-5.62130368504785,9.514436,,,96.047341984276,20.669292,43.9111322,448.29069676,449.78347896,31,5,16.169,97.687761984276,11.154856,43.9111322,448.29069676,42.278166,-11.855782,0,343.5, -34.2, 7.4,0,0,1024,1024,1678,943,0,0,99,-12,337.9,-6.8,0,99,4.034,4.051,4.023,4.039,0,0,21.075,87.62,96.047341984276,9.514436,31,Sport,
15700,2025-07-30 10:00:12,43.5579669020679,-5.62131737044201,9.514436,,,96.047341984276,20.669292,43.9782404,461.49279692,462.9921408,31,5,16.169,97.687761984276,11.154856,43.9782404,461.49279692,42.278166,-12.079476,0,343.7, -34.2, 6.1,0,0,1024,924,1684,937,0,-15,100,-13,337.9,-6.8,0,99,4.034,4.051,4.023,4.039,0,0,21.075,87.62,96.047341984276,9.514436,31,Sport,
15900,2025-07-30 10:00:12,43.5580007759245,-5.62133098269977,9.514436,,,96.047341984276,20.669292,44.0229792,474.3602514,475.86287612,31,5,16.169,97.687761984276,11.154856,44.0229792,474.3602514,42.278166,-12.30317,0,346, -34.3, -0.3,0,0,1024,609,1684,926,0,-63,100,-15,336.6,-6.8,0,99,4.034,4.051,4.023,4.039,0,0,21.075,87.62,96.047341984276,9.514436,31,Sport,
16100,2025-07-30 10:00:12,43.5580350483808,-5.6213455406256,9.514436,,,96.047341984276,20.669292,44.2019344,487.44424132,488.94686604,31,5,16.169,97.687761984276,11.154856,44.2019344,487.44424132,42.054472,-13.645334,-0.447388,348.7, -24.1, -20.7,0,0,1024,910,1684,943,0,-17,100,-12,329.4,-6.8,0,99,4.034,4.051,4.023,4.039,0,0,21.075,87.62,96.047341984276,9.514436,31,Sport,
16300,2025-07-30 10:00:12,43.5580683803977,-5.62136273496497,9.84252,,,96.375425984276,20.669292,43.4413748,500.410121,501.92914992,31,5,16.081,97.687761984276,11.154856,44.2019344,500.410121,40.26492,-16.329662,-1.565858,338.6, -13.4, -31.8,0,0,1024,1024,1684,947,0,0,100,-12,326.4,-6.8,0,99,4.023,4.04,4.001,4.013,0,0,22.331,87.98,96.375425984276,9.84252,31,Sport,
16500,2025-07-30 10:00:13,43.558099671852,-5.62138239009327,10.170604,,,96.703509984276,20.669292,42.1215802,512.87075132,514.47508208,31,5,16.081,97.687761984276,11.154856,44.2019344,512.87075132,38.02798,-18.119214,-0.223694,339, -28.6, -18.6,0,0,1024,1024,1684,1024,0,0,100,0,326.5,-6.8,0,99,4.023,4.04,4.001,4.013,0,0,22.331,87.98,96.703509984276,10.170604,31,Sport,
16700,2025-07-30 10:00:13,43.5581292318378,-5.62140368404645,9.84252,,,96.375425984276,20.669292,41.4281288,524.8687832,526.6404368,31,5,16.081,97.687761984276,11.154856,44.2019344,524.8687832,36.685816,-19.237684,0.447388,336.6, -27.9, -13.6,0,0,1024,1024,1684,1024,0,0,100,0,326.5,-6.8,0,99,4.023,4.04,4.001,4.013,0,0,22.331,87.98,96.375425984276,9.84252,31,Sport,
16900,2025-07-30 10:00:13,43.5581577968164,-5.62142635554549,9.84252,,,96.375425984276,20.669292,41.4728676,536.6469988,538.66143456,31,5,16.081,97.687761984276,11.154856,44.2019344,536.6469988,36.014734,-20.579848,0.447388,333.2, -32.2, -1,0,0,1024,1024,1684,1024,0,0,100,0,326.5,-6.8,0,99,4.023,4.04,4.001,4.013,0,0,22.331,87.98,96.375425984276,9.84252,31,Sport,
17100,2025-07-30 10:00:13,43.5581860602894,-5.62145043561825,9.514436,,,96.047341984276,20.669292,41.5847146,548.44818028,550.78085752,31,5,16.081,97.687761984276,11.154856,44.2019344,548.44818028,36.014734,-20.803542,0.447388,331.2, -32.5, 7.3,0,0,1024,1221,1684,1024,0,30,100,0,326.5,-6.8,0,99,4.023,4.04,4.001,4.013,0,0,22.331,87.98,96.047341984276,9.514436,31,Sport,
17300,2025-07-30 10:00:13,43.5582153683261,-5.62147431190439,9.186352,,,95.719257984276,20.669292,42.166319,560.60697332,563.19883692,31,5,16.335,97.687761984276,11.154856,44.2019344,560.60697332,36.685816,-20.803542,0,329.3, -29.5, 16.6,0,0,1024,1024,1684,1024,0,0,100,0,327.7,-6.8,0,98,4.088,4.089,4.055,4.066,0,0,14.765,88.52,95.719257984276,9.186352,31,Sport,
17500,2025-07-30 10:00:14,43.5582454834475,-5.62149785981627,9.186352,,,95.719257984276,20.669292,42.3229048,573.02823356,575.82679008,31,5,16.335,97.687761984276,11.154856,44.2019344,573.02823356,37.356898,-19.908766,-0.223694,330.9, -31, 16,0,0,1024,1024,1684,1024,0,0,100,0,327.8,-6.8,0,98,4.088,4.089,4.055,4.066,0,0,14.765,88.52,95.719257984276,9.186352,31,Sport,
17700,2025-07-30 10:00:14,43.5582758259846,-5.62152012536876,9.186352,,,95.719257984276,20.669292,42.613707,585.42324708,588.36616056,31,5,16.335,97.687761984276,11.154856,44.2019344,585.42324708,37.804286,-19.685072,0,330.4, -31.9, 14,0,0,1024,1057,1684,1024,0,5,100,0,327.8,-6.8,0,98,4.088,4.089,4.055,4.066,0,0,14.765,88.52,95.719257984276,9.186352,31,Sport,
17900,2025-07-30 10:00:14,43.5583057293156,-5.6215407728503,9.514436,,,96.047341984276,20.669292,42.613707,597.52626584,600.56760452,31,5,16.335,97.687761984276,11.154856,44.2019344,597.52626584,38.02798,-19.237684,0,331.8, -32.7, 10.6,0,0,1024,1024,1684,1026,0,0,100,0,327.9,-6.8,0,98,4.088,4.089,4.055,4.066,0,0,14.765,88.52,96.047341984276,9.514436,31,Sport,
18100,2025-07-30 10:00:14,43.5583369249601,-5.62156228199714,9.514436,,,96.047341984276,20.669292,42.9268786,610.15749984,613.29070204,31,5,16.335,97.687761984276,11.154856,44.2019344,610.15749984,38.251674,-19.461378,0,332.7, -34, 7.5,0,0,1024,1024,1637,1024,0,0,93,0,327.9,-6.8,0,98,4.088,4.089,4.055,4.066,0,0,14.765,88.52,96.047341984276,9.514436,31,Sport,
18300,2025-07-30 10:00:14,43.5583660630454,-5.62158182108258,9.514436,,,96.047341984276,20.669292,43.0163562,621.90946872,625.10828772,31,5,16.124,97.687761984276,11.154856,44.2019344,621.90946872,38.475368,-19.237684,0,331.5, -32.5, 11.5,0,0,1024,1024,1632,1024,0,0,92,0,327.9,-6.8,0,98,4.028,4.04,4.019,4.028,0,0,20.771,88.7,96.047341984276,9.514436,31,Sport,
18500,2025-07-30 10:00:15,43.5583978804399,-5.6216033021883,9.514436,,,96.047341984276,20.669292,43.3295278,634.75723816,638.03151648,30,5,16.124,97.687761984276,11.154856,44.2019344,634.75723816,38.922756,-19.01399,0,331.8, -32.5, 10.9,0,0,1024,1024,1631,1024,0,0,92,0,327.9,-6.8,0,98,4.028,4.04,4.019,4.028,0,0,20.771,88.7,96.047341984276,9.514436,31,Sport,
18700,2025-07-30 10:00:15,43.5584319143947,-5.6216259656242,9.514436,,,96.047341984276,20.669292,43.5308524,648.4744302,651.820887,30,5,16.124,97.687761984276,11.154856,44.2019344,648.4744302,39.14645,-19.01399,-0.223694,332.7, -31.3, 8.3,0,0,994,1499,1633,1024,-5,72,92,0,328.4,-6.8,0,98,4.028,4.04,4.019,4.028,0,0,20.771,88.7,96.047341984276,9.514436,31,Sport,
18900,2025-07-30 10:00:15,43.5584637271459,-5.62164714914047,9.514436,,,96.047341984276,20.669292,43.4190054,661.29923376,664.70802652,30,5,16.124,97.687761984276,11.154856,44.2019344,661.29923376,39.14645,-18.790296,0,331, -23.3, 19.5,0,0,994,1372,1615,1024,-5,53,90,0,337.1,-6.8,0,98,4.028,4.04,4.019,4.028,0,0,20.771,88.7,96.047341984276,9.514436,31,Sport,
19100,2025-07-30 10:00:15,43.5584919290421,-5.62166462467205,9.84252,,,96.375425984276,20.669292,42.3005354,672.55251496,675.98755444,30,5,16.124,97.687761984276,11.154856,44.2019344,672.55251496,38.922756,-16.553356,-1.11847,342, -11.8, 30.6,0,0,1024,1024,1568,1024,0,0,82,0,339.9,-6.8,0,98,4.028,4.04,4.019,4.028,0,0,20.771,88.7,96.375425984276,9.84252,31,Sport,
19300,2025-07-30 10:00:15,43.5585215933213,-5.62168062714027,9.84252,,,96.375425984276,20.669292,40.8465244,684.1699694,687.60828972,30,5,16.079,97.687761984276,11.154856,44.2019344,684.1699694,38.251674,-14.316416,-0.223694,339.9, -20.2, 30.1,0,0,1024,1024,1523,1024,0,0,76,0,339.9,-6.8,0,98,4.024,4.014,3.999,4.023,0,0,21.858,88.88,96.375425984276,9.84252,31,Sport,
19500,2025-07-30 10:00:16,43.5585548429606,-5.62169711743094,9.84252,,,96.375425984276,20.669292,39.6833156,697.06038976,700.49871008,30,5,16.079,97.687761984276,11.154856,44.2019344,697.06038976,37.804286,-12.079476,0,342.7, -16.3, 28.9,0,0,1024,1024,1449,1024,0,0,64,0,339.9,-6.8,0,98,4.024,4.014,3.999,4.023,0,0,21.858,88.88,96.375425984276,9.84252,31,Sport,
19700,2025-07-30 10:00:16,43.5585872074179,-5.62171023570386,9.84252,,,96.375425984276,20.669292,38.9003866,709.34057388,712.80514092,30,5,16.079,97.687761984276,11.154856,44.2019344,709.34057388,37.580592,-10.06623,0,342, -22.7, 25.6,0,0,1024,1024,1444,1030,0,0,64,1,339.9,-6.8,0,98,4.024,4.014,3.999,4.023,0,0,21.858,88.88,96.375425984276,9.84252,31,Sport,
19900,2025-07-30 10:00:16,43.5586191769433,-5.62172121153179,9.84252,,,96.375425984276,20.669292,38.587215,721.28939316,724.82613868,30,5,16.079,97.687761984276,11.154856,44.2019344,721.28939316,37.580592,-8.724066,0.223694,344.2, -24.5, 16.6,0,0,1024,1024,1400,1063,0,0,57,6,339.9,-6.8,0,98,4.024,4.014,3.999,4.023,0,0,21.858,88.88,96.375425984276,9.84252,31,Sport,
20100,2025-07-30 10:00:16,43.5586498330796,-5.62173047402904,9.514436,,,96.047341984276,20.669292,38.4306292,732.63781872,736.27627028,30,5,16.079,97.687761984276,11.154856,44.2019344,732.63781872,37.580592,-8.052984,0,346, -21.9, 7.6,0,0,1024,1024,1394,1110,0,0,56,13,339.9,-6.8,0,98,4.024,4.014,3.999,4.023,0,0,21.858,88.88,96.047341984276,9.514436,31,Sport,
20300,2025-07-30 10:00:16,43.5586765436694,-5.6217380156271,9.514436,,,96.047341984276,20.669292,37.7819166,742.48033872,746.22377716,30,5,16.39,97.687761984276,11.154856,44.2019344,742.48033872,36.90951,-8.052984,-0.223694,346.4, -19.6, 4.1,0,0,1024,1024,1372,1024,0,0,53,0,339.9,-6.8,0,98,4.078,4.091,4.073,4.094,0,0,13.545,89.6,96.047341984276,9.514436,31,Sport,
20500,2025-07-30 10:00:17,43.5587044307149,-5.621746362109,9.84252,,,96.375425984276,20.669292,37.133204,752.80186136,756.63388248,30,5,16.39,97.687761984276,11.154856,44.2019344,752.80186136,36.238428,-8.052984,-0.447388,346.2, -16.3, 5.4,0,0,1024,1024,1334,1024,0,0,47,0,339.9,-6.8,0,98,4.078,4.091,4.073,4.094,0,0,13.545,89.6,96.375425984276,9.84252,31,Sport,
20700,2025-07-30 10:00:17,43.5587352925766,-5.62175613887359,9.84252,,,96.375425984276,20.669292,36.238428,764.27495884,768.18572012,30,5,16.39,97.687761984276,11.154856,44.2019344,764.27495884,35.343652,-8.052984,-0.223694,346.6, -13.5, 5.8,0,0,1024,1024,1264,1024,0,0,36,0,339.9,-6.8,0,98,4.078,4.091,4.073,4.094,0,0,13.545,89.6,96.375425984276,9.84252,31,Sport,
20900,2025-07-30 10:00:17,43.5587646804026,-5.62176564252863,10.170604,,,96.703509984276,20.669292,35.3212826,775.21656024,779.1995,30,5,16.39,97.687761984276,11.154856,44.2019344,775.21656024,34.448876,-7.82929,-0.223694,346.8, -9.7, 5.4,0,0,1024,1024,1449,1020,0,0,64,-1,339.9,-6.8,0,98,4.078,4.091,4.073,4.094,0,0,13.545,89.6,96.703509984276,10.170604,31,Sport,
21100,2025-07-30 10:00:17,43.5587895469715,-5.62177404594151,10.170604,,,96.703509984276,20.669292,33.9791186,784.51117996,788.54005148,30,5,16.39,97.687761984276,11.154856,44.2019344,784.51117996,33.106712,-7.605596,-0.223694,347, -5.6, 5.7,0,0,1024,1024,1556,1004,0,0,81,-3,339.9,-6.8,0,98,4.078,4.091,4.073,4.094,0,0,13.545,89.6,96.703509984276,10.170604,31,Sport,
21300,2025-07-30 10:00:17,43.5588148265469,-5.62178270281727,10.170604,,,96.703509984276,20.669292,32.8382792,793.96984168,798.04136412,30,5,16.39,97.687761984276,11.154856,44.2019344,793.96984168,31.988242,-7.381902,0,346.7, -11.6, 6.6,0,0,1024,1024,1684,972,0,0,100,-8,339.9,-6.8,0,98,4.078,4.091,4.073,4.094,0,0,13.545,89.6,96.703509984276,10.170604,31,Sport,
21500,2025-07-30 10:00:18,43.558842737566,-5.62179273596528,10.170604,,,96.703509984276,20.669292,32.1671972,804.45540632,808.56629884,30,5,16.517,97.687761984276,11.154856,44.2019344,804.45540632,31.31716,-7.381902,0.447388,346.4, -22.8, 5.9,0,0,1024,1024,1684,905,0,0,100,-18,339.9,-6.8,0,98,4.156,4.163,4.14,4.159,0,0,11.68,89.96,96.703509984276,10.170604,31,Sport,
21700,2025-07-30 10:00:18,43.5588698438616,-5.62180186483521,9.84252,,,96.375425984276,20.669292,32.6145852,814.58992108,818.74674536,30,5,16.517,97.687761984276,11.154856,44.2019344,814.58992108,31.764548,-7.381902,0.671082,346.1, -30.5, 5.7,0,0,1024,804,1684,902,0,-33,100,-18,339.9,-6.8,0,98,4.156,4.163,4.14,4.159,0,0,11.68,89.96,96.375425984276,9.84252,31,Sport,
21900,2025-07-30 10:00:18,43.558896945894,-5.62181134455291,9.84252,,,96.375425984276,20.669292,33.5764694,824.75068256,828.94687692,30,5,16.517,97.687761984276,11.154856,44.2019344,824.75068256,32.659324,-7.82929,0.223694,350.2, -29.3, -8.8,0,0,1024,1024,1684,903,0,0,100,-18,338,-6.8,0,98,4.156,4.163,4.14,4.159,0,0,11.68,89.96,96.375425984276,9.84252,31,Sport,
22100,2025-07-30 10:00:18,43.5589235281849,-5.62182171062365,9.84252,,,96.375425984276,20.669292,34.3817678,834.809738,839.0256174,30,5,16.517,97.687761984276,11.154856,44.2019344,834.809738,32.883018,-10.06623,-0.447388,346.9, -19.3, -18.8,0,0,1024,1024,1684,905,0,0,100,-18,336.7,-6.8,0,98,4.156,4.163,4.14,4.159,0,0,11.68,89.96,96.375425984276,9.84252,31,Sport,
22300,2025-07-30 10:00:18,43.5589472677785,-5.62183342764709,9.84252,,,96.375425984276,20.669292,34.0909656,844.00921336,848.22509276,30,5,16.517,97.687761984276,11.154856,44.2019344,844.00921336,32.211936,-11.1847,0,342.7, -30.1, 0.9,0,0,1024,1024,1684,984,0,0,100,-6,336.7,-6.8,0,98,4.156,4.163,4.14,4.159,0,0,11.68,89.96,96.375425984276,9.84252,31,Sport,
22500,2025-07-30 10:00:19,43.5589737069542,-5.62184642609049,9.84252,,,96.375425984276,20.669292,34.6054618,854.248715,858.4645944,30,5,16.372,97.687761984276,11.154856,44.2019344,854.248715,32.659324,-11.408394,0.223694,341.6, -31.8, 7.6,0,0,1024,1024,1684,985,0,0,100,-6,336.7,-6.8,0,98,4.096,4.113,4.095,4.121,0,0,9.9,89.96,96.375425984276,9.84252,31,Sport,
22700,2025-07-30 10:00:19,43.5590022119139,-5.62186062161612,9.84252,,,96.375425984276,20.669292,35.5226072,865.3051458,869.5210252,30,5,16.372,97.687761984276,11.154856,44.2019344,865.3051458,33.5541,-11.632088,0.223694,341.6, -32.5, 8.6,0,0,1024,1024,1684,994,0,0,100,-5,336.7,-6.8,0,98,4.096,4.113,4.095,4.121,0,0,9.9,89.96,96.375425984276,9.84252,31,Sport,
22900,2025-07-30 10:00:19,43.5590298490675,-5.62187396843965,9.84252,,,96.375425984276,20.669292,36.350275,875.98756084,880.20344024,30,5,16.372,97.687761984276,11.154856,44.2019344,875.98756084,34.448876,-11.632088,0,341.6, -32.9, 8.8,0,0,1024,1024,1684,993,0,0,100,-5,336.7,-6.8,0,98,4.096,4.113,4.095,4.121,0,0,9.9,89.96,96.375425984276,9.84252,31,Sport,
23100,2025-07-30 10:00:19,43.5590548609326,-5.62188578663258,9.84252,,,96.375425984276,20.669292,37.2003122,885.63323044,889.84910984,30,5,16.372,97.687761984276,11.154856,44.2019344,885.63323044,35.343652,-11.632088,0,341.9, -32.9, 7.8,0,0,1024,893,1684,993,0,-20,100,-5,336.7,-6.8,0,98,4.096,4.113,4.095,4.121,0,0,9.9,89.96,96.375425984276,9.84252,31,Sport,
23300,2025-07-30 10:00:19,43.5590825621286,-5.62189845002903,9.84252,,,96.375425984276,20.669292,37.8490248,896.27955624,900.49543564,30,5,16.372,97.687761984276,11.154856,44.2019344,896.27955624,36.014734,-11.632088,0,343.8, -31.9, 1.6,0,0,1024,1024,1684,992,0,0,100,-5,335.8,-6.8,0,98,4.096,4.113,4.095,4.121,0,0,9.9,89.96,96.375425984276,9.84252,31,Sport,
23500,2025-07-30 10:00:20,43.5591141258063,-5.62191323492678,9.84252,,,96.375425984276,20.669292,38.3411516,908.44163012,912.65750952,30,5,16.164,97.687761984276,11.154856,44.2019344,908.44163012,36.238428,-12.526864,-0.223694,342.4, -29.8, 1.4,0,0,1024,1024,1684,993,0,0,100,-5,335.8,-6.8,0,98,4.036,4.048,4.028,4.045,0,0,15.888,90.14,96.375425984276,9.84252,31,Sport,
23700,2025-07-30 10:00:20,43.5591452069811,-5.62192836063428,9.84252,,,96.375425984276,20.669292,38.6319538,920.46590872,924.68178812,30,5,16.164,97.687761984276,11.154856,44.2019344,920.46590872,36.462122,-12.750558,0,340.6, -32.9, 7.2,0,0,1024,1024,1684,997,0,0,100,-4,335.8,-6.8,0,98,4.036,4.048,4.028,4.045,0,0,15.888,90.14,96.375425984276,9.84252,31,Sport,
23900,2025-07-30 10:00:20,43.5591763876688,-5.62194345437522,9.84252,,,96.375425984276,20.669292,39.0569724,932.51971488,936.73887512,30,5,16.164,97.687761984276,11.154856,44.2019344,932.51971488,36.90951,-12.750558,0,340.6, -32.7, 8.7,0,0,1024,1024,1684,1024,0,0,100,0,335.8,-6.8,0,98,4.036,4.048,4.028,4.045,0,0,15.888,90.14,96.375425984276,9.84252,31,Sport,
24100,2025-07-30 10:00:20,43.5592071429238,-5.62195825139604,9.84252,,,96.375425984276,20.669292,39.6833156,944.40291736,948.6220776,30,5,16.164,97.687761984276,11.154856,44.2019344,944.40291736,37.580592,-12.750558,0,340.7, -32.7, 8.5,0,0,1024,1024,1684,1024,0,0,100,0,335.8,-6.8,0,98,4.036,4.048,4.028,4.045,0,0,15.888,90.14,96.375425984276,9.84252,31,Sport,
24300,2025-07-30 10:00:20,43.5592350726164,-5.62197169519718,9.84252,,,96.375425984276,20.669292,40.1754424,955.19688096,959.41276036,30,5,16.164,97.687761984276,11.154856,44.2019344,955.19688096,38.02798,-12.974252,0,340.9, -31.9, 8.6,0,0,1024,1024,1684,1024,0,0,100,0,335.8,-6.8,0,98,4.036,4.048,4.028,4.045,0,0,15.888,90.14,96.375425984276,9.84252,31,Sport,
24500,2025-07-30 10:00:21,43.5592661381817,-5.6219862157638,9.84252,,,96.375425984276,20.669292,40.5333528,967.16210444,971.38126468,30,5,16.091,97.687761984276,11.154856,44.2019344,967.16210444,38.475368,-12.750558,0,341, -32.3, 8,0,0,1024,1024,1684,1024,0,0,100,0,335.8,-6.8,0,98,4.016,4.031,4.009,4.025,0,0,19.493,90.32,96.375425984276,9.84252,31,Sport,
24700,2025-07-30 10:00:21,43.5592991114885,-5.62200151020754,9.84252,,,96.375425984276,20.669292,40.9583714,979.85239356,984.0715538,30,5,16.091,97.687761984276,11.154856,44.2019344,979.85239356,38.922756,-12.750558,0,341.2, -32.3, 7.4,0,0,1024,1024,1684,1024,0,0,100,0,335.8,-6.8,0,98,4.016,4.031,4.009,4.025,0,0,19.493,90.32,96.375425984276,9.84252,31,Sport,
24900,2025-07-30 10:00:21,43.5593307392977,-5.6220160684855,9.84252,,,96.375425984276,20.669292,41.2491736,992.01774828,996.23690852,30,5,16.091,97.687761984276,11.154856,44.2019344,992.01774828,39.14645,-12.974252,0,341, -32.7, 7.8,0,0,1024,1024,1684,1024,0,0,100,0,335.8,-6.8,0,98,4.016,4.031,4.009,4.025,0,0,19.493,90.32,96.375425984276,9.84252,31,Sport,
25100,2025-07-30 10:00:21,43.5593586854217,-5.62202890681876,9.84252,,,96.375425984276,20.669292,41.4504982,1002.76249928,1006.98165952,30,5,16.091,97.687761984276,11.154856,44.2019344,1002.76249928,39.370144,-12.974252,0,340.9, -32.7, 8.1,0,0,1024,1024,1684,1024,0,0,100,0,335.8,-6.8,0,98,4.016,4.031,4.009,4.025,0,0,19.493,90.32,96.375425984276,9.84252,31,Sport,
25300,2025-07-30 10:00:21,43.5593892112224,-5.62204280910249,9.84252,,,96.375425984276,20.669292,41.8755168,1014.48822144,1018.71066252,30,5,16.091,97.687761984276,11.154856,44.2019344,1014.48822144,39.817532,-12.974252,0,341.1, -33, 7.5,0,0,1024,1024,1684,1024,0,0,100,0,335.8,-6.8,0,98,4.016,4.031,4.009,4.025,0,0,19.493,90.32,96.375425984276,9.84252,31,Sport,
25500,2025-07-30 10:00:22,43.5594238200315,-5.62205872825994,9.84252,,,96.375425984276,20.669292,42.166319,1027.79858932,1032.0210304,30,5,16.086,97.687761984276,11.154856,44.2019344,1027.79858932,40.041226,-13.197946,0,341, -33.1, 7.6,0,0,1024,1024,1684,1024,0,0,100,0,335.8,-6.8,0,98,4.01,4.024,4.002,4.022,0,0,20.333,90.32,96.375425984276,9.84252,31,Sport,
25700,2025-07-30 10:00:22,43.5594581157902,-5.62207435663463,9.84252,,,96.375425984276,20.669292,42.3676436,1040.97444276,1045.19688384,30,5,16.086,97.687761984276,11.154856,44.2019344,1040.97444276,40.26492,-13.197946,0,341, -33.3, 7.8,0,0,1024,1024,1676,1024,0,0,99,0,335.8,-6.8,0,98,4.01,4.024,4.002,4.022,0,0,20.333,90.32,96.375425984276,9.84252,31,Sport,
25900,2025-07-30 10:00:22,43.5594922662544,-5.62209004392744,9.84252,,,96.375425984276,20.669292,42.5913376,1054.10436444,1058.33008636,30,5,16.086,97.687761984276,11.154856,44.2019344,1054.10436444,40.488614,-13.197946,0,340.9, -33.7, 8,0,0,1024,1024,1400,1024,0,0,57,0,335.8,-6.8,0,98,4.01,4.024,4.002,4.022,0,0,20.333,90.32,96.375425984276,9.84252,31,Sport,
26100,2025-07-30 10:00:22,43.5595252499963,-5.62210510991202,9.84252,,,96.375425984276,20.669292,42.8597704,1066.7815302,1071.00725212,30,5,16.086,97.687761984276,11.154856,44.2019344,1066.7815302,40.712308,-13.42164,0,341, -30.6, 8.4,0,0,1024,1024,1440,1024,0,0,63,0,335.8,-6.8,0,98,4.01,4.024,4.002,4.022,0,0,20.333,90.32,96.375425984276,9.84252,31,Sport,
26300,2025-07-30 10:00:22,43.559555136466,-5.62211882971806,9.84252,,,96.375425984276,20.669292,42.7926622,1078.27103188,1082.4967538,30,5,16.086,97.687761984276,11.154856,44.2019344,1078.27103188,40.712308,-13.197946,-0.671082,341.6, -20, 7.3,0,0,1024,1024,1445,1024,0,0,64,0,335.8,-6.8,0,98,4.01,4.024,4.002,4.022,0,0,20.333,90.32,96.375425984276,9.84252,31,Sport,
26500,2025-07-30 10:00:23,43.5595878726402,-5.62213368875434,9.84252,,,96.375425984276,20.669292,41.8755168,1090.84321076,1095.07221352,30,5,16.03,97.687761984276,11.154856,44.2019344,1090.84321076,39.817532,-12.974252,-0.671082,341.9, -17, 7.7,0,0,1024,1024,1467,1024,0,0,67,0,335.8,-6.8,0,97,4.003,4.021,4.007,4.033,0,0,20.891,90.68,96.375425984276,9.84252,31,Sport,
26700,2025-07-30 10:00:23,43.559621340203,-5.62214900681471,10.170604,,,96.703509984276,20.669292,40.6675692,1103.7073844,1107.93638716,30,5,16.03,97.687761984276,11.154856,44.2019344,1103.7073844,38.699062,-12.526864,-0.223694,341.9, -15.9, 8.1,0,0,1024,1024,1439,1024,0,0,63,0,335.8,-6.8,0,97,4.003,4.021,4.007,4.033,0,0,20.891,90.68,96.703509984276,10.170604,31,Sport,
26900,2025-07-30 10:00:23,43.5596520474828,-5.62216292649868,10.170604,,,96.703509984276,20.669292,39.5490992,1115.49872336,1119.72772612,30,5,16.03,97.687761984276,11.154856,44.2019344,1115.49872336,37.580592,-12.30317,0,342, -16.7, 7.9,0,0,1024,1024,1546,1035,0,0,79,2,335.8,-6.8,0,97,4.003,4.021,4.007,4.033,0,0,20.891,90.68,96.703509984276,10.170604,31,Sport,
27100,2025-07-30 10:00:23,43.5596787284489,-5.6221751397144,9.84252,,,96.375425984276,20.669292,38.7661702,1125.75134836,1129.98363196,30,5,16.03,97.687761984276,11.154856,44.2019344,1125.75134836,36.90951,-11.855782,0,341.9, -18.4, 7.7,0,0,1024,1024,1650,1024,0,0,95,0,335.8,-6.8,0,97,4.003,4.021,4.007,4.033,0,0,20.891,90.68,96.375425984276,9.84252,31,Sport,
27300,2025-07-30 10:00:23,43.5597082991268,-5.62218857980371,9.84252,,,96.375425984276,20.669292,38.0503494,1137.10961644,1141.34518088,30,5,16.03,97.687761984276,11.154856,44.2019344,1137.10961644,36.238428,-11.632088,0.223694,341.4, -23.8, 7.9,0,0,1024,1024,1684,1024,0,0,100,0,335.8,-6.8,0,97,4.003,4.021,4.007,4.033,0,0,20.891,90.68,96.375425984276,9.84252,31,Sport,
27500,2025-07-30 10:00:24,43.5597391327849,-5.62220274877773,9.514436,,,96.047341984276,20.669292,37.8490248,1148.9665722,1153.20213664,30,5,16.46,97.687761984276,11.154856,44.2019344,1148.9665722,36.014734,-11.632088,0.447388,341.1, -28.8, 8.2,0,0,1024,1024,1684,1024,0,0,100,0,335.8,-6.8,0,97,4.11,4.119,4.096,4.113,0,0,10.635,91.22,96.047341984276,9.514436,31,Sport,
27700,2025-07-30 10:00:24,43.5597688734145,-5.62221619234353,9.186352,,,95.719257984276,20.669292,38.2740434,1160.3838954,1164.61945984,30,5,16.46,97.687761984276,11.154856,44.2019344,1160.3838954,36.462122,-11.632088,0.447388,341.1, -32, 7.9,0,0,1024,1024,1684,1024,0,0,100,0,335.8,-6.8,0,97,4.11,4.119,4.096,4.113,0,0,10.635,91.22,95.719257984276,9.186352,31,Sport,
27900,2025-07-30 10:00:24,43.5597983338892,-5.62222947279775,9.186352,,,95.719257984276,20.669292,38.9898642,1171.68967004,1175.92523448,30,5,16.46,97.687761984276,11.154856,44.2019344,1171.68967004,37.133204,-11.855782,0,341.2, -32.3, 7.1,0,0,1024,1024,1684,1027,0,0,100,0,335.8,-6.8,0,97,4.11,4.119,4.096,4.113,0,0,10.635,91.22,95.719257984276,9.186352,31,Sport,
28100,2025-07-30 10:00:24,43.5598283687042,-5.62224278684939,9.186352,,,95.719257984276,20.669292,39.6833156,1183.19557592,1187.43770204,30,5,16.46,97.687761984276,11.154856,44.2019344,1183.19557592,37.804286,-12.079476,0,341.4, -32.3, 6.5,0,0,1024,1024,1684,1041,0,0,100,3,335.8,-6.8,0,97,4.11,4.119,4.096,4.113,0,0,10.635,91.22,95.719257984276,9.186352,31,Sport,
28300,2025-07-30 10:00:24,43.5598565020493,-5.62225520043873,9.186352,,,95.719257984276,20.669292,40.1083342,1193.96985448,1198.2119806,30,5,16.46,97.687761984276,11.154856,44.2019344,1193.96985448,38.251674,-12.079476,-0.223694,341.4, -32.3, 6.3,0,0,1024,1024,1684,1038,0,0,100,2,335.8,-6.8,0,97,4.11,4.119,4.096,4.113,0,0,10.635,91.22,95.719257984276,9.186352,31,Sport,
28500,2025-07-30 10:00:25,43.5598880816272,-5.62226910544176,9.186352,,,95.719257984276,20.669292,40.600461,1206.06303072,1210.30515684,30,5,16.121,97.687761984276,11.154856,44.2019344,1206.06303072,38.699062,-12.30317,-0.223694,341.5, -32.2, 6.1,0,0,1024,1024,1684,1031,0,0,100,1,335.8,-6.8,0,97,4.022,4.04,4.019,4.038,0,0,16.074,91.22,95.719257984276,9.186352,6,P-GPS,"Cambiado al modo Normal (N)"
28700,2025-07-30 10:00:25,43.5599218609056,-5.62228403531262,9.186352,,,95.719257984276,20.669292,40.600461,1218.99938284,1223.24807064,30,5,16.121,97.687761984276,11.154856,44.2019344,1218.99938284,38.699062,-12.30317,-0.894776,340.7, -9.3, 6.2,0,0,1024,1024,1684,1035,0,0,100,2,335.8,-6.8,0,97,4.022,4.04,4.019,4.038,0,0,16.074,91.22,95.719257984276,9.186352,6,P-GPS,
28900,2025-07-30 10:00:25,43.5599525909373,-5.62229754569117,9.84252,,,96.375425984276,20.669292,38.699062,1230.76447508,1235.01316288,30,5,16.121,97.687761984276,11.154856,44.2019344,1230.76447508,36.90951,-11.632088,-1.565858,341.6, 14.1, 5,0,0,1024,1024,1576,1024,0,0,84,0,335.8,-6.8,0,97,4.022,4.04,4.019,4.038,0,0,16.074,91.22,96.375425984276,9.84252,6,P-GPS,
29100,2025-07-30 10:00:25,43.559978421502,-5.62230908288455,10.170604,,,96.703509984276,20.669292,35.4331296,1240.66933104,1244.92129968,30,5,16.121,97.687761984276,11.154856,44.2019344,1240.66933104,33.777794,-10.737312,-1.342164,343.3, 19.3, 7,0,0,1024,1024,1459,1024,0,0,66,0,335.8,-6.8,0,97,4.022,4.04,4.019,4.038,0,0,16.074,91.22,96.703509984276,10.170604,6,P-GPS,
29300,2025-07-30 10:00:25,43.5600047630809,-5.62232086513686,10.498688,,,97.031593984276,20.669292,32.6816934,1250.76775656,1255.02300604,30,5,16.121,97.687761984276,11.154856,44.2019344,1250.76775656,31.093466,-10.06623,-0.671082,343.5, 15.8, 8.1,0,0,1024,1024,1432,1024,0,0,62,0,335.8,-6.8,0,97,4.022,4.04,4.019,4.038,0,0,16.074,91.22,97.031593984276,10.498688,6,P-GPS,
29500,2025-07-30 10:00:26,43.5600305761178,-5.62233240746219,10.826772,,,97.359677984276,20.669292,30.3552758,1260.66933168,1264.92458116,30,5,16.121,97.687761984276,11.154856,44.2019344,1260.66933168,28.856526,-9.395148,0,343.7, 15.9, 9.2,0,0,1024,1024,1123,1024,0,0,15,0,335.8,-6.8,0,97,4.022,4.04,4.019,4.038,0,0,16.074,91.22,97.359677984276,10.826772,6,P-GPS,
29700,2025-07-30 10:00:26,43.5600529489696,-5.62234245168321,10.498688,,,97.031593984276,20.669292,27.738056,1269.25200912,1273.5072586,30,5,16.56,97.687761984276,11.154856,44.2019344,1269.25200912,26.395892,-8.500372,0.223694,344, 17.9, 9.4,0,0,854,1024,1024,1024,-26,0,0,0,335.8,-6.8,0,97,4.156,4.156,4.143,4.166,0,0,12.451,91.94,97.031593984276,10.498688,6,P-GPS,
29900,2025-07-30 10:00:26,43.5600722160872,-5.62235109577646,10.498688,,,97.031593984276,20.669292,24.830034,1276.6404608,1280.89899112,30,5,16.56,97.687761984276,11.154856,44.2019344,1276.6404608,23.711564,-7.381902,0.223694,344.1, 21.4, 8.3,0,0,601,1024,1203,1024,-64,0,27,0,335.8,-6.8,0,97,4.156,4.156,4.143,4.166,0,0,12.451,91.94,97.031593984276,10.498688,6,P-GPS,
30100,2025-07-30 10:00:26,43.5600897851807,-5.62235878924014,10.170604,,,96.703509984276,20.669292,22.2799224,1283.3661828,1287.62471312,29,5,16.56,97.687761984276,11.154856,44.2019344,1283.3661828,21.25093,-6.71082,0.447388,344.3, 26.4, 7.7,0,0,586,1024,1411,1024,-66,0,59,0,335.8,-6.8,0,97,4.156,4.156,4.143,4.166,0,0,12.451,91.94,96.703509984276,10.170604,6,P-GPS,
30300,2025-07-30 10:00:26,43.560103467515,-5.62236494894796,9.84252,,,96.375425984276,20.669292,20.2219376,1288.6155268,1292.87405712,29,5,16.56,97.687761984276,11.154856,44.2019344,1288.6155268,19.237684,-6.263432,2.013246,344.8, 25.9, 9.5,0,0,562,1024,1641,1011,-70,0,93,-2,335.8,-6.8,0,97,4.156,4.156,4.143,4.166,0,0,12.451,91.94,96.375425984276,9.84252,6,P-GPS,
30500,2025-07-30 10:00:27,43.5601180446433,-5.62237145715103,8.530184,,,95.063089984276,20.669292,18.3205386,1294.20279732,1298.46460848,30,5,16.56,97.687761984276,11.154856,44.2019344,1294.20279732,17.448132,-5.59235,4.026492,344.6, 21.7, 10.3,0,0,518,1024,1684,1006,-77,0,100,-3,335.8,-6.8,0,97,4.156,4.156,4.143,4.166,0,0,12.451,91.94,95.063089984276,8.530184,6,P-GPS,
30700,2025-07-30 10:00:27,43.5601321074849,-5.62237784836976,7.217848,,,93.750753984276,20.669292,16.9112664,1299.6063408,1303.86815196,30,5,16.569,97.687761984276,11.154856,44.2019344,1299.6063408,16.105968,-5.144962,5.816044,344.2, 17.7, 10.7,0,0,516,1024,1684,1009,-77,0,100,-2,335.8,-6.8,0,97,4.175,4.178,4.154,4.175,0,0,5.197,92.12,93.750753984276,7.217848,6,P-GPS,
30900,2025-07-30 10:00:27,43.5601445298717,-5.62238338229902,5.577428,,,92.110333984276,20.669292,15.434886,1304.36683964,1308.6286508,30,5,16.569,97.687761984276,11.154856,44.2019344,1304.36683964,14.763804,-4.47388,6.487126,344.2, 17.1, 9.1,0,0,521,1024,1684,1024,-76,0,100,0,335.8,-6.8,0,97,4.175,4.178,4.154,4.175,0,0,5.197,92.12,92.110333984276,5.577428,6,P-GPS,
31100,2025-07-30 10:00:27,43.5601548649612,-5.62238785022958,3.28084,,,89.813745984276,20.669292,13.9585056,1308.316971,1312.582063,30,5,16.569,97.687761984276,11.154856,44.2019344,1308.316971,13.42164,-3.802798,6.71082,343.9, 15.8, 7.1,0,0,587,1024,1684,1024,-66,0,100,0,335.8,-6.8,0,97,4.175,4.178,4.154,4.175,0,0,5.197,92.12,89.813745984276,3.28084,6,P-GPS,
31300,2025-07-30 10:00:27,43.5601653436885,-5.62239207717623,1.312336,,,87.845241984276,20.669292,12.974252,1312.29662992,1316.56500276,30,5,16.569,97.687761984276,11.154856,44.2019344,1312.29662992,12.526864,-3.35541,6.71082,341.5, 0, 5.4,0,0,582,1024,1684,1024,-67,0,100,0,335.8,-6.8,0,97,4.175,4.178,4.154,4.175,0,0,5.197,92.12,87.845241984276,1.312336,6,P-GPS,
31500,2025-07-30 10:00:28,43.5601764329328,-5.62239644409917,-0.656168,,,85.876737984276,20.669292,12.974252,1316.49938596,1320.77103964,30,5,16.569,97.687761984276,11.154856,44.2019344,1316.49938596,12.526864,-3.35541,6.039738,342.2, -11.6, 4.7,0,0,572,1024,1684,1024,-68,0,100,0,335.8,-6.8,0,97,4.175,4.178,4.154,4.175,0,0,5.197,92.12,85.876737984276,-0.656168,6,P-GPS,
31700,2025-07-30 10:00:28,43.5601868028338,-5.62240059804877,-2.296588,,,84.236317984276,20.669292,13.5111176,1320.43311312,1324.71132848,30,5,16.621,97.687761984276,11.154856,44.2019344,1320.43311312,12.974252,-3.802798,6.039738,342.1, -20.1, 4.3,0,0,575,1024,1684,1024,-68,0,100,0,335.8,-6.8,0,97,4.134,4.147,4.133,4.155,0,0,4.217,92.12,84.236317984276,-2.296588,6,P-GPS,
31900,2025-07-30 10:00:28,43.5601977026545,-5.62240521465126,-3.937008,,,82.595897984276,20.669292,14.4953712,1324.5899374,1328.8714336,30,5,16.621,97.687761984276,11.154856,44.2019344,1324.5899374,13.869028,-4.250186,6.263432,341.7, -25, 5.3,0,0,602,1024,1684,1024,-64,0,100,0,335.8,-6.8,0,97,4.134,4.147,4.133,4.155,0,0,4.217,92.12,82.595897984276,-3.937008,6,P-GPS,
32100,2025-07-30 10:00:28,43.5602095940278,-5.62241031789817,-5.905512,,,80.627393984276,20.669292,15.9270128,1329.1339008,1333.415397,30,5,16.621,97.687761984276,11.154856,44.2019344,1329.1339008,15.211192,-4.697574,5.816044,341.6, -25.7, 5.8,0,0,601,1024,1684,1024,-64,0,100,0,335.8,-6.8,0,97,4.134,4.147,4.133,4.155,0,0,4.217,92.12,80.627393984276,-5.905512,6,P-GPS,
32300,2025-07-30 10:00:28,43.5602229860508,-5.62241615843198,-7.217848,,,79.315057984276,20.669292,17.2691768,1334.25529204,1338.54006908,30,5,16.621,97.687761984276,11.154856,44.2019344,1334.25529204,16.553356,-4.921268,5.368656,342, -24.8, 5.1,0,0,595,1024,1684,1024,-65,0,100,0,335.8,-6.8,0,97,4.134,4.147,4.133,4.155,0,0,4.217,92.12,79.315057984276,-7.217848,6,P-GPS,
32500,2025-07-30 10:00:29,43.5602370420492,-5.62242232695126,-8.858268,,,77.674637984276,20.669292,18.4771244,1339.63586964,1343.92064668,30,5,16.621,97.687761984276,11.154856,44.2019344,1339.63586964,17.671826,-5.368656,5.368656,342, -24.9, 4.8,0,0,595,1024,1684,1034,-65,0,100,2,335.8,-6.8,0,97,4.134,4.147,4.133,4.155,0,0,4.217,92.12,77.674637984276,-8.858268,6,P-GPS,
32700,2025-07-30 10:00:29,43.5602521463431,-5.62242899421492,-10.498688,,,76.034217984276,20.669292,19.237684,1345.41999056,1349.7047676,30,5,16.555,97.687761984276,11.154856,44.2019344,1345.41999056,18.342908,-5.816044,5.368656,341.7, -25.8, 5.6,0,0,595,1024,1684,1024,-65,0,100,0,335.8,-6.8,0,97,4.133,4.141,4.123,4.143,0,0,7.115,92.12,76.034217984276,-10.498688,6,P-GPS,
32900,2025-07-30 10:00:29,43.5602675171096,-5.62243583777148,-11.811024,,,74.721881984276,20.669292,20.1548294,1351.3123792,1355.59715624,30,5,16.555,97.687761984276,11.154856,44.2019344,1351.3123792,19.237684,-6.039738,5.368656,341.6, -26.2, 6.4,0,0,595,1024,1684,1024,-65,0,100,0,335.8,-6.8,0,97,4.133,4.141,4.123,4.143,0,0,7.115,92.12,74.721881984276,-11.811024,6,P-GPS,
