time(millisecond),datetime(utc),latitude,longitude,height_above_takeoff(feet),height_above_ground_at_drone_location(feet),ground_elevation_at_drone_location(feet),altitude_above_seaLevel(feet),height_sonar(feet),speed(mph),distance(feet),mileage(feet),satellites,gpslevel,voltage(v),max_altitude(feet),max_ascent(feet),max_speed(mph),max_distance(feet), xSpeed(mph), ySpeed(mph), zSpeed(mph), compass_heading(degrees), pitch(degrees), roll(degrees),isPhoto,isVideo,rc_elevator,rc_aileron,rc_throttle,rc_rudder,rc_elevator(percent),rc_aileron(percent),rc_throttle(percent),rc_rudder(percent),gimbal_heading(degrees),gimbal_pitch(degrees),gimbal_roll(degrees),battery_percent,voltageCell1,voltageCell2,voltageCell3,voltageCell4,voltageCell5,voltageCell6,current(A),battery_temperature(f),altitude(feet),ascent(feet),flycStateRaw,flycState,message
6500,2025-07-30 08:19:03,43.5567617898904,-5.62078659654014,0,Available with any HD 360 subscription,Available with any HD 360 subscription,86.531485380556,0,0,0,0,24,5,0,86.531485380556,0,0,0,0,0,0,300, 1.9, 2.5,0,0,1024,1024,1024,1024,0,0,0,0,299.9,0,0,95,4.178,4.182,4.182,4.186,0,0,0,83.66,86.531485380556,0,41,Motors_Started,
6700,2025-07-30 08:19:03,43.5567617657761,-5.62078660051541,0,,,86.531485380556,0,0,0.0088606302048,0.0088606302048,24,5,0,86.531485380556,0,0,0.0088606302048,0,0,0,300, 1.9, 2.5,0,0,1024,1024,1024,1024,0,0,0,0,300,0,0,95,4.178,4.182,4.182,4.186,0,0,0,83.66,86.531485380556,0,41,Motors_Started,"Setting new Return-To-Home altitude to 25m (82 ft). Data Recorder File Index is 189. Setting new Maximum Flight Altitude to 45m (148 ft)"
6900,2025-07-30 08:19:03,43.556761768931,-5.62078659484354,0,,,86.531485380556,0,0,0.0076601708488,0.0107510830212,24,5,0,86.531485380556,0,0,0.0088606302048,0,0,0,300, 1.9, 2.5,0,0,1024,1024,1024,1024,0,0,0,0,299.9,0,0,95,4.178,4.182,4.182,4.186,0,0,0,83.66,86.531485380556,0,41,Motors_Started,
7100,2025-07-30 08:19:03,43.5567618157407,-5.62078655429874,0,,,86.531485380556,0,0,0.014618274746,0.03091535532,24,5,16.76,86.531485380556,0,0,0.014618274746,0,0,0,300, 1.9, 2.5,0,0,1024,1024,1024,1024,0,0,0,0,300,0,0,95,4.178,4.182,4.182,4.186,0,0,2.44,83.66,86.531485380556,0,41,Motors_Started,
7300,2025-07-30 08:19:03,43.5567618367531,-5.62078654625695,0,,,86.531485380556,0,0,0.0216585964936,0.038871064236,24,5,16.76,86.531485380556,0,0,0.0216585964936,0,0,0,299.9, 1.8, 2.5,0,0,1024,1024,1024,1024,0,0,0,0,299.9,0,0,95,4.178,4.182,4.182,4.186,0,0,2.44,83.66,86.531485380556,0,41,Motors_Started,
7500,2025-07-30 08:19:04,43.5567618386525,-5.62078652311465,0,,,86.531485380556,0,0,0.0263328092416,0.045029200916,24,5,16.76,86.531485380556,0,0,0.0263328092416,0,0,0,300, 1.8, 2.5,0,0,1024,1024,1024,1024,0,0,0,0,300,0,0,95,4.178,4.182,4.182,4.186,0,0,2.44,83.66,86.531485380556,0,41,Motors_Started,
7700,2025-07-30 08:19:04,43.5567618448408,-5.62078650956491,0,,,86.531485380556,0,0,0.0305088264356,0.049263781104,24,5,16.76,86.531485380556,0,0,0.0305088264356,0,0,0,299.9, 1.8, 2.5,0,0,1024,1024,1024,1024,0,0,0,0,300,0,0,95,4.178,4.182,4.182,4.186,0,0,2.44,83.66,86.531485380556,0,41,Motors_Started,
7900,2025-07-30 08:19:04,43.556761852001,-5.6207864907927,0,,,86.531485380556,0,0,0.035990158632,0.054872705168,24,5,16.76,86.531485380556,0,0,0.035990158632,0,0,0,299.9, 1.8, 2.5,0,0,1024,1024,1024,1024,0,0,0,0,299.9,0,0,95,4.178,4.182,4.182,4.186,0,0,2.44,83.66,86.531485380556,0,41,Motors_Started,
8100,2025-07-30 08:19:04,43.5567618736236,-5.62078648272817,0,,,86.531485380556,0,0,0.042881891136,0.063044949524,24,5,16.751,86.531485380556,0,0,0.042881891136,0,0,0,299.9, 1.8, 2.5,0,0,991,947,951,1024,-5,-12,-11,0,299.9,0,0,95,4.195,4.201,4.204,4.208,0,0,4.513,83.66,86.531485380556,0,10,Assisted_Takeoff,
8300,2025-07-30 08:19:04,43.5567618529884,-5.62078651192787,0,,,86.531485380556,0,0,0.0321010180876,0.073828414436,24,5,16.751,86.531485380556,0,0,0.042881891136,0,0,0,300, 1.8, 2.5,0,0,1024,1024,1024,1024,0,0,0,0,300,0,0,95,4.195,4.201,4.204,4.208,0,0,4.513,83.66,86.531485380556,0,10,Assisted_Takeoff,
8500,2025-07-30 08:19:05,43.5567618577411,-5.62078651244305,0,,,86.531485380556,0,0,0.033275263532,0.075567915804,24,5,16.751,86.531485380556,0,0,0.042881891136,0,0,0,300, 1.8, 2.5,0,0,1024,1024,1024,1024,0,0,0,0,300,0,0,95,4.195,4.201,4.204,4.208,0,0,4.513,83.66,86.531485380556,0,10,Assisted_Takeoff,
8700,2025-07-30 08:19:05,43.5567618413829,-5.62078650928183,0,,,86.531485380556,0,0,0.0297529865164,0.0815944908,24,5,16.751,86.531485380556,0,0,0.042881891136,0,0,0,299.9, 1.8, 2.5,0,0,1024,1024,1024,1024,0,0,0,0,300,0,0,95,4.195,4.201,4.204,4.208,0,0,4.513,83.66,86.531485380556,0,10,Assisted_Takeoff,
8900,2025-07-30 08:19:05,43.5567618431969,-5.6207865020163,0,,,86.531485380556,0,0,0.0316682752916,0.083626315012,24,5,16.751,86.531485380556,0,0,0.042881891136,0,0,0,299.9, 1.8, 2.5,0,0,1024,1024,1024,1024,0,0,0,0,300,0,0,95,4.195,4.201,4.204,4.208,0,0,4.513,83.66,86.531485380556,0,10,Assisted_Takeoff,
9100,2025-07-30 08:19:05,43.5567618433814,-5.6207865042808,0,,,86.531485380556,0,0,0.0312399288212,0.08422900532,24,5,16.751,86.531485380556,0,0,0.042881891136,0,0,0,299.9, 1.8, 2.5,0,0,1024,1024,1024,1024,0,0,0,0,300,0,0,95,4.195,4.201,4.204,4.208,0,0,4.513,83.66,86.531485380556,0,10,Assisted_Takeoff,
9300,2025-07-30 08:19:05,43.5567618441245,-5.62078650565896,0,,,86.531485380556,0,0,0.0311278553268,0.084683073576,24,5,16.827,86.531485380556,0,0,0.042881891136,0,0,0,299.9, 1.8, 2.5,0,0,1024,1024,1024,1024,0,0,0,0,299.9,0,0,95,4.2,4.207,4.207,4.211,0,0,2.118,83.84,86.531485380556,0,10,Assisted_Takeoff,
9500,2025-07-30 08:19:06,43.5567618466842,-5.62078651888146,0,,,86.531485380556,0,0,0.02917158886,0.088301840096,24,5,16.827,86.531485380556,0,0,0.042881891136,0,0,0,299.9, 1.8, 2.5,0,0,1024,1024,1024,1024,0,0,0,0,300,0,0,95,4.2,4.207,4.207,4.211,0,0,2.118,83.84,86.531485380556,0,10,Assisted_Takeoff,
9700,2025-07-30 08:19:06,43.556761845072,-5.62078651901674,0,,,86.531485380556,0,0,0.0287312017068,0.08889107896,24,5,16.827,86.531485380556,0,0,0.042881891136,0,0,0,300, 1.8, 2.5,0,0,1024,1024,1024,1024,0,0,0,0,300,0,0,95,4.2,4.207,4.207,4.211,0,0,2.118,83.84,86.531485380556,0,10,Assisted_Takeoff,
9900,2025-07-30 08:19:06,43.5567618498904,-5.62078653169942,0,,,86.531485380556,0,0,0.0278053158504,0.09267716832,24,5,16.827,86.531485380556,0,0,0.042881891136,0,0,0,300, 1.8, 2.5,0,0,1024,1024,1024,1024,0,0,0,0,300,0,0,95,4.2,4.207,4.207,4.211,0,0,2.118,83.84,86.531485380556,0,10,Assisted_Takeoff,
10100,2025-07-30 08:19:06,43.5567618714975,-5.62078652770597,0,,,86.531485380556,0,0,0.034896326576,0.100630908732,24,5,16.827,86.531485380556,0,0,0.042881891136,0,0,0,300, 1.8, 2.5,0,0,1024,1024,1024,1024,0,0,0,0,300,0,0,95,4.2,4.207,4.207,4.211,0,0,2.118,83.84,86.531485380556,0,10,Assisted_Takeoff,
10300,2025-07-30 08:19:06,43.5567618571346,-5.62078653083717,0,,,86.531485380556,0,0,0.0300617463688,0.105936355096,24,5,16.826,86.531485380556,0,0,0.042881891136,0,0,0,300, 1.8, 2.5,0,0,1195,1024,1024,1024,26,0,0,0,300,0,0,95,4.2,4.207,4.207,4.211,0,0,2.103,83.84,86.531485380556,0,10,Assisted_Takeoff,
10500,2025-07-30 08:19:07,43.5567618541349,-5.62078652942659,0,,,86.531485380556,0,0,0.0293989838804,0.107092523112,24,5,16.826,86.531485380556,0,0,0.042881891136,0,0,0,300, 1.8, 2.5,0,0,1628,1024,1024,1024,92,0,0,0,300,0,0,95,4.2,4.207,4.207,4.211,0,0,2.103,83.84,86.531485380556,0,10,Assisted_Takeoff,
10700,2025-07-30 08:19:07,43.5567618243116,-5.62078653541167,0,,,86.531485380556,0,0,0.020468176508,0.118087930288,24,5,16.826,86.531485380556,0,0,0.042881891136,0,0,0,300, 1.7, 2.6,0,0,1684,1024,1024,1024,100,0,0,0,300,0,0,95,4.2,4.207,4.207,4.211,0,0,2.103,83.84,86.531485380556,0,10,Assisted_Takeoff,
10900,2025-07-30 08:19:07,43.5567618153841,-5.62078653698184,0,,,86.531485380556,0,0,0.0182892722388,0.12137139496,24,5,16.826,86.531485380556,0,0,0.042881891136,0,0,0,300, 1.4, 2.6,0,0,1684,1024,1024,1024,100,0,0,0,300,0,0,95,4.2,4.207,4.207,4.211,0,0,2.103,83.84,86.531485380556,0,10,Assisted_Takeoff,
11100,2025-07-30 08:19:07,43.5567619105583,-5.62078654107775,0,,,86.531485380556,0,0.223694,0.046403544792,0.156112537804,24,5,16.826,86.531485380556,0,0.223694,0.046403544792,0.223694,0,-0.223694,299.5, -3.7, 1.8,0,0,1684,1024,1024,1024,100,0,0,0,300,0,0,95,4.2,4.207,4.207,4.211,0,0,2.103,83.84,86.531485380556,0,10,Assisted_Takeoff,
11300,2025-07-30 08:19:08,43.5567622218092,-5.62078666426768,0,,,86.531485380556,0.328084,0.447388,0.158599414524,0.274251321112,24,5,16.786,86.531485380556,0,0.447388,0.158599414524,0.447388,0,-1.342164,299.7, 0.6, -1.5,0,0,1684,1024,1024,1024,100,0,0,0,300,0,0,95,4.175,4.178,4.174,4.175,0,0,2.538,83.84,86.531485380556,0,6,P-GPS,
11500,2025-07-30 08:19:08,43.5567624745948,-5.62078686700759,0.656168,,,87.187653380556,0.984252,0.223694,0.259848105428,0.38092520904,24,5,16.786,87.187653380556,0.656168,0.447388,0.259848105428,0.223694,0,-2.684328,299.5, 3.3, -2.2,0,0,1683,1024,1024,1024,100,0,0,0,300,0,0,95,4.175,4.178,4.174,4.175,0,0,2.538,83.84,87.187653380556,0.656168,6,P-GPS,
11700,2025-07-30 08:19:08,43.5567625120094,-5.6207868671491,1.968504,,,88.499989380556,2.296588,0,0.273007554668,0.39457678428,24,5,16.786,88.499989380556,1.968504,0.447388,0.273007554668,0,0,-4.47388,299.4, 1.1, -1.2,0,0,1682,1024,1024,1024,100,0,0,0,300,0,0,95,4.175,4.178,4.174,4.175,0,0,2.538,83.84,88.499989380556,1.968504,6,P-GPS,
11900,2025-07-30 08:19:08,43.556762478087,-5.62078667568332,3.28084,,,89.812325380556,3.937008,0,0.25195866948,0.44669292768,24,5,16.786,89.812325380556,3.28084,0.447388,0.273007554668,0,0,-6.263432,299.6, -1.2, -0.8,0,0,1682,1024,1024,1024,100,0,0,0,300,0,0,95,4.175,4.178,4.174,4.175,0,0,2.538,83.84,89.812325380556,3.28084,6,P-GPS,
12100,2025-07-30 08:19:08,43.5567624098382,-5.62078662857524,5.577428,,,92.108913380556,6.233596,0,0.226346135852,0.47453413592,24,5,16.786,92.108913380556,5.577428,0.447388,0.273007554668,0,0,-8.500372,299.8, 0.3, -0.7,0,0,1672,1024,1024,1024,98,0,0,0,300,0,0,95,4.175,4.178,4.174,4.175,0,0,2.538,83.84,92.108913380556,5.577428,6,P-GPS,
12300,2025-07-30 08:19:08,43.5567621380998,-5.62078664375618,8.858268,,,95.389753380556,8.858268,0,0.12765584398,0.57375986088,24,5,16.338,95.389753380556,8.858268,0.447388,0.273007554668,0,0,-10.737312,299.8, 0, 1.3,0,0,1559,1024,1024,1024,81,0,0,0,300,0,0,94,4.065,4.064,4.06,4.063,0,0,10.718,83.84,95.389753380556,8.858268,6,P-GPS,
12500,2025-07-30 08:19:09,43.5567619736086,-5.62078665692807,12.139108,,,98.670593380556,12.139108,0,0.068904857848,0.6338746922,24,5,16.338,98.670593380556,12.139108,0.447388,0.273007554668,0,0,-12.30317,299.9, 0.9, 1.3,0,0,1509,1024,1024,1024,73,0,0,0,300,0,0,94,4.065,4.064,4.06,4.063,0,0,10.718,83.84,98.670593380556,12.139108,6,P-GPS,
12700,2025-07-30 08:19:09,43.5567617700545,-5.62078666483897,16.4042,,,102.93568538056,15.748032,0,0.0194546594152,0.708169314,24,5,16.338,102.93568538056,16.4042,0.447388,0.273007554668,0,0,-11.632088,300, -0.3, 1.1,0,0,1684,1024,1024,1024,100,0,0,0,300,0,0,94,4.065,4.064,4.06,4.063,0,0,10.718,83.84,102.93568538056,16.4042,6,P-GPS,
12900,2025-07-30 08:19:09,43.5567616666143,-5.62078660291848,19.68504,,,106.21652538056,18.700788,0,0.045008859708,0.74930776676,24,5,16.338,106.21652538056,19.68504,0.447388,0.273007554668,0,0,-10.961006,299.9, -0.6, 1.3,0,0,1684,1024,1024,1024,100,0,0,0,300,0,0,94,4.065,4.064,4.06,4.063,0,0,10.718,83.84,106.21652538056,19.68504,6,P-GPS,
13100,2025-07-30 08:19:09,43.5567616447336,-5.62078654624401,22.96588,,,109.49736538056,21.981628,0,0.054604332456,0.7662893946,24,5,16.338,109.49736538056,22.96588,0.447388,0.273007554668,0,0,-12.079476,299.9, -1.1, 1.6,0,0,1684,1024,1024,1024,100,0,0,0,300,0,0,94,4.065,4.064,4.06,4.063,0,0,10.718,83.84,109.49736538056,22.96588,6,P-GPS,
13300,2025-07-30 08:19:09,43.5567617344968,-5.62078642887187,26.574804,,,113.10628938056,25.590552,0,0.048721458252,0.81140750628,24,5,16.383,113.10628938056,26.574804,0.447388,0.273007554668,0,0,-12.974252,299.8, -0.5, 0.8,0,0,1684,1024,1024,1024,100,0,0,0,300,0,0,94,4.125,4.09,4.069,4.067,0,0,14.773,83.84,113.10628938056,26.574804,6,P-GPS,
13500,2025-07-30 08:19:10,43.5567618146367,-5.62078627295675,30.183728,,,116.71521338056,29.52756,0,0.086031498816,0.86194556564,24,5,16.383,116.71521338056,30.183728,0.447388,0.273007554668,0,0,-13.42164,299.8, -0.8, 0,0,0,1642,1024,1024,1024,94,0,0,0,300,0,0,94,4.125,4.09,4.069,4.067,0,0,14.773,83.84,116.71521338056,30.183728,6,P-GPS,
13700,2025-07-30 08:19:10,43.5567619758159,-5.62078610139888,34.44882,,,120.98030538056,33.464568,0,0.147447839364,0.93621394072,24,5,16.383,120.98030538056,34.44882,0.447388,0.273007554668,0,0,-13.42164,299.9, -0.6, -0.4,0,0,1024,1024,1024,1024,0,0,0,0,300,0,0,94,4.125,4.09,4.069,4.067,0,0,14.773,83.84,120.98030538056,34.44882,6,P-GPS,
13900,2025-07-30 08:19:10,43.5567620752394,-5.62078588508082,38.057744,,,124.58922938056,37.401576,0,0.21500000688,1.00394360168,24,5,16.383,124.58922938056,38.057744,0.447388,0.273007554668,0,0,-12.30317,299.9, -0.8, -0.6,0,0,1024,1024,1024,1024,0,0,0,0,300,0,0,94,4.125,4.09,4.069,4.067,0,0,14.773,83.84,124.58922938056,38.057744,6,P-GPS,
14100,2025-07-30 08:19:10,43.5567621770184,-5.62078570120142,41.338584,,,127.87006938056,40.682416,0,0.275664706984,1.06512142516,24,5,16.383,127.87006938056,41.338584,0.447388,0.275664706984,0,0,-10.06623,299.9, -0.5, -0.7,0,0,1024,1024,1024,1024,0,0,0,0,300,0,0,94,4.125,4.09,4.069,4.067,0,0,14.773,83.84,127.87006938056,41.338584,6,P-GPS,
14300,2025-07-30 08:19:10,43.556762228648,-5.62078540975069,43.963256,,,130.49474138056,43.307088,0,0.3522637908,1.14444885552,24,5,16.296,130.49474138056,43.963256,0.447388,0.3522637908,0,0,-7.605596,299.9, -0.8, -0.9,0,0,1024,1024,1024,1024,0,0,0,0,300,0,0,94,4.142,4.148,4.149,4.155,0,0,13.62,84.02,130.49474138056,43.963256,6,P-GPS,
14500,2025-07-30 08:19:11,43.556762335432,-5.62078515519646,45.93176,,,132.46324538056,43.307088,0,0.42994423948,1.22221788688,24,5,16.296,132.46324538056,45.93176,0.447388,0.42994423948,0,0,-5.144962,299.9, -1.1, -0.9,0,0,1024,1024,1024,1024,0,0,0,0,300,0,0,94,4.142,4.148,4.149,4.155,0,0,13.62,84.02,132.46324538056,45.93176,6,P-GPS,
14700,2025-07-30 08:19:11,43.5567624021495,-5.62078486450066,46.916012,,,133.44749738056,43.307088,0,0.50953413704,1.30284124904,24,5,16.296,133.44749738056,46.916012,0.447388,0.50953413704,0,0,-2.460634,299.9, -1.2, -0.8,0,0,1024,1024,1295,1024,0,0,41,0,300,0,0,94,4.142,4.148,4.149,4.155,0,0,13.62,84.02,133.44749738056,46.916012,6,P-GPS,
14900,2025-07-30 08:19:11,43.556762455702,-5.62078465612741,46.916012,,,133.44749738056,43.307088,0,0.56765421764,1.36129925616,24,5,16.296,133.44749738056,46.916012,0.447388,0.56765421764,0,0,-0.447388,299.9, -1.9, -1.4,0,0,1024,1024,1684,1024,0,0,100,0,300,0,0,94,4.142,4.148,4.149,4.155,0,0,13.62,84.02,133.44749738056,46.916012,6,P-GPS,
15100,2025-07-30 08:19:11,43.5567625067864,-5.62078456507306,46.587928,,,133.11941338056,43.307088,0,0.59742784064,1.39174545136,24,5,16.296,133.44749738056,46.916012,0.447388,0.59742784064,0,0,0,299.9, -8.7, -1,0,0,1024,1024,1684,1034,0,0,100,2,300,0,0,94,4.142,4.148,4.149,4.155,0,0,13.62,84.02,133.11941338056,46.587928,6,P-GPS,
15300,2025-07-30 08:19:11,43.5567627948672,-5.62078507491324,46.259844,,,132.79132938056,43.307088,1.006623,0.5443405686,1.5626804962,24,5,16.671,133.44749738056,46.916012,1.006623,0.59742784064,0.447388,-0.894776,0,300.2, -23.5, -1,0,0,1024,1024,1684,1042,0,0,100,3,300,0,0,94,4.129,4.132,4.13,4.131,0,0,4.54,84.38,132.79132938056,46.259844,6,P-GPS,
15500,2025-07-30 08:19:12,43.5567638198739,-5.6207872743502,46.259844,,,132.79132938056,43.307088,3.1093466,0.76201117924,2.25408799864,24,5,16.671,133.44749738056,46.916012,3.1093466,0.76201117924,1.565858,-2.684328,0,300.1, -28.8, -1,0,0,1024,1024,1684,1024,0,0,100,0,300,0,0,94,4.129,4.132,4.13,4.131,0,0,4.54,84.38,132.79132938056,46.259844,6,P-GPS,
15700,2025-07-30 08:19:12,43.5567656406765,-5.62079149027721,46.259844,,,132.79132938056,43.307088,5.4133948,1.91000990364,3.5517389588,24,5,16.671,133.44749738056,46.916012,5.4133948,1.91000990364,2.684328,-4.697574,0,300.1, -28.8, -0.9,0,0,1024,1024,1137,1024,0,0,17,0,300,0,0,94,4.129,4.132,4.13,4.131,0,0,4.54,84.38,132.79132938056,46.259844,6,P-GPS,
15900,2025-07-30 08:19:12,43.5567688612351,-5.62079757902538,46.259844,,,132.79132938056,43.307088,7.5161184,3.8843833264,5.5448164504,24,5,16.671,133.44749738056,46.916012,7.5161184,3.8843833264,3.802798,-6.487126,0,302.2, -27, -0.8,0,0,1024,1024,1024,1024,0,0,0,0,300,0,0,94,4.129,4.132,4.13,4.131,0,0,4.54,84.38,132.79132938056,46.259844,6,P-GPS,
16100,2025-07-30 08:19:12,43.5567729272831,-5.6208053693945,46.587928,,,133.11941338056,43.307088,8.9924988,6.4147639848,8.0832351668,24,5,16.671,133.44749738056,46.916012,8.9924988,6.4147639848,5.144962,-7.381902,-0.223694,304.8, -10.3, -1.6,0,0,1024,1024,1024,1551,0,0,0,80,300,0,0,94,4.129,4.132,4.13,4.131,0,0,4.54,84.38,133.11941338056,46.587928,6,P-GPS,
16300,2025-07-30 08:19:12,43.5567783135764,-5.62081373594759,46.916012,,,133.44749738056,43.307088,8.4556332,9.3720803524,11.0422247628,24,5,16.402,133.44749738056,46.916012,8.9924988,9.3720803524,5.144962,-6.71082,-0.223694,305.7, 21.3, -1.7,0,0,1024,1024,1024,1684,0,0,0,100,300,0,0,94,4.106,4.113,4.116,4.11,0,0,9.048,84.38,133.44749738056,46.916012,6,P-GPS,
16500,2025-07-30 08:19:13,43.5567823391079,-5.62082052056657,47.244096,,,133.77558138056,43.307088,6.3529096,11.6903875132,13.3606303488,24,5,16.402,133.77558138056,47.244096,8.9924988,11.6903875132,4.026492,-4.921268,0,308.6, 19.4, 12.9,0,0,1024,1024,1024,1057,0,0,0,5,300,0,0,94,4.106,4.113,4.116,4.11,0,0,9.048,84.38,133.77558138056,47.244096,6,P-GPS,
16700,2025-07-30 08:19:13,43.5567865063645,-5.62082449058901,47.244096,,,133.77558138056,43.307088,5.5252418,13.4798888828,15.2082025864,24,5,16.402,133.77558138056,47.244096,8.9924988,13.4798888828,4.697574,-2.908022,0,304.9, 6.2, 21.5,0,0,1024,1024,1024,1024,0,0,0,0,300,0,0,94,4.106,4.113,4.116,4.11,0,0,9.048,84.38,133.77558138056,47.244096,6,P-GPS,
16900,2025-07-30 08:19:13,43.5567908775495,-5.62082671076032,47.57218,,,134.10366538056,43.307088,5.59235,15.0040687216,16.907644898,24,5,16.402,134.10366538056,47.57218,8.9924988,15.0040687216,5.368656,-1.565858,0,305.3, 3.9, 4.1,0,0,1024,1024,1024,1024,0,0,0,0,300,0,0,94,4.106,4.113,4.116,4.11,0,0,9.048,84.38,134.10366538056,47.57218,6,P-GPS,
17100,2025-07-30 08:19:13,43.5567949266483,-5.62082731685211,47.57218,,,134.10366538056,43.307088,4.5633576,16.1890753212,18.3936357592,24,5,16.402,134.10366538056,47.57218,8.9924988,16.1890753212,4.47388,-0.894776,0,305.4, 20.7, -16.5,0,0,1024,1024,1024,1024,0,0,0,0,300,0,0,94,4.106,4.113,4.116,4.11,0,0,9.048,84.38,134.10366538056,47.57218,6,P-GPS,
17300,2025-07-30 08:19:13,43.556797348163,-5.62082784989942,47.57218,,,134.10366538056,43.307088,2.0579848,16.9494427996,19.2882880188,24,5,16.402,134.10366538056,47.57218,8.9924988,16.9494427996,2.013246,-0.447388,0,307.7, 17.6, -15.4,0,0,1024,1432,1024,1024,0,62,0,0,300,0,0,94,4.106,4.113,4.116,4.11,0,0,9.048,84.38,134.10366538056,47.57218,6,P-GPS,
17500,2025-07-30 08:19:14,43.5567979507839,-5.62082740587814,47.57218,,,134.10366538056,43.307088,0.447388,17.0437669496,19.5375334336,24,5,16.445,134.10366538056,47.57218,8.9924988,17.0437669496,0.447388,0,0,310.6, 6.8, -6.6,0,0,1024,1024,1024,1024,0,0,0,0,300.3,0,0,94,4.106,4.112,4.113,4.117,0,0,8.716,84.56,134.10366538056,47.57218,6,P-GPS,
17700,2025-07-30 08:19:14,43.5567979403661,-5.62082724740319,47.900264,,,134.43174938056,43.307088,0,17.0143050064,19.5795938024,24,5,16.445,134.43174938056,47.900264,8.9924988,17.0437669496,0,0,0,313, 1.3, -2.4,0,0,1024,1165,1024,1024,0,21,0,0,307.1,0,0,94,4.106,4.112,4.113,4.117,0,0,8.716,84.56,134.43174938056,47.900264,6,P-GPS,
17900,2025-07-30 08:19:14,43.5567968951424,-5.62082730604327,47.900264,,,134.43174938056,43.307088,0.223694,16.7303811128,19.9612539196,24,5,16.445,134.43174938056,47.900264,8.9924988,17.0437669496,-0.223694,0,0,317.2, -1, 0.5,0,0,993,1119,1024,1024,-5,14,0,0,308.3,0,0,94,4.106,4.112,4.113,4.117,0,0,8.716,84.56,134.43174938056,47.900264,6,P-GPS,
18100,2025-07-30 08:19:14,43.5567963499247,-5.62082737793221,47.900264,,,134.43174938056,43.307088,0,16.5909454128,20.161089884,24,5,16.445,134.43174938056,47.900264,8.9924988,17.0437669496,0,0,0,319.6, -1.6, 1.2,0,0,1024,1580,1024,1024,0,84,0,0,314,0,0,94,4.106,4.112,4.113,4.117,0,0,8.716,84.56,134.43174938056,47.900264,6,P-GPS,
18300,2025-07-30 08:19:15,43.5567958596423,-5.62082771549534,47.900264,,,134.43174938056,43.307088,0,16.5140425232,20.3609914652,24,5,16.445,134.43174938056,47.900264,8.9924988,17.0437669496,0,0,0,324.2, -1.4, 1.4,0,0,1024,1119,1024,1024,0,14,0,0,316.1,0,0,94,4.106,4.112,4.113,4.117,0,0,8.716,84.56,134.43174938056,47.900264,6,P-GPS,
18500,2025-07-30 08:19:15,43.5567957609754,-5.62082774669496,47.900264,,,134.43174938056,43.307088,0,16.4923889792,20.3979337236,24,5,16.445,134.43174938056,47.900264,8.9924988,17.0437669496,0,0,0,328.1, -0.7, 0,0,0,1024,1129,1024,1024,0,16,0,0,320.6,0,0,94,4.106,4.112,4.113,4.117,0,0,8.716,84.56,134.43174938056,47.900264,6,P-GPS,
18700,2025-07-30 08:19:15,43.5567959114827,-5.62082789511853,47.900264,,,134.43174938056,43.307088,0,16.559547774,20.4654206024,24,5,16.466,134.43174938056,47.900264,8.9924988,17.0437669496,0,0,0,331.3, -0.6, -0.9,0,0,1024,1502,1024,1024,0,72,0,0,325.1,0,0,94,4.113,4.117,4.116,4.119,0,0,8.371,84.56,134.43174938056,47.900264,6,P-GPS,
18900,2025-07-30 08:19:15,43.5567960555883,-5.62082783375961,47.900264,,,134.43174938056,43.307088,0,16.5884519744,20.5204402892,24,5,16.466,134.43174938056,47.900264,8.9924988,17.0437669496,0,0,0,335.4, -0.4, -0.8,0,0,1024,1216,1024,1024,0,29,0,0,328.6,0,0,94,4.113,4.117,4.116,4.119,0,0,8.371,84.56,134.43174938056,47.900264,6,P-GPS,
19100,2025-07-30 08:19:15,43.5567963575259,-5.6208278060679,48.228348,,,134.75983338056,43.307088,0,16.666831242,20.6308405552,24,5,16.466,134.75983338056,48.228348,8.9924988,17.0437669496,0,0,0,339.3, -0.3, -1.1,0,0,1024,1024,1024,1024,0,0,0,0,330.8,0,0,94,4.113,4.117,4.116,4.119,0,0,8.371,84.56,134.75983338056,48.228348,6,P-GPS,
19300,2025-07-30 08:19:15,43.5567964703495,-5.62082771320785,48.228348,,,134.75983338056,43.307088,0,16.6819887228,20.6787736276,24,5,16.466,134.75983338056,48.228348,8.9924988,17.0437669496,0,0,0,340, -0.4, -1.6,0,0,1024,1024,1024,1024,0,0,0,0,331.2,0,0,94,4.113,4.117,4.116,4.119,0,0,8.371,84.56,134.75983338056,48.228348,6,P-GPS,
19500,2025-07-30 08:19:16,43.556796568451,-5.62082768854543,48.228348,,,134.75983338056,43.307088,0,16.7049217944,20.7151581432,24,5,16.466,134.75983338056,48.228348,8.9924988,17.0437669496,0,0,0,340.1, -0.1, -1.7,0,0,1024,1378,1024,1024,0,54,0,0,331.3,0,0,94,4.113,4.117,4.116,4.119,0,0,8.371,84.56,134.75983338056,48.228348,6,P-GPS,
19700,2025-07-30 08:19:16,43.5567965718456,-5.62082767209303,48.228348,,,134.75983338056,43.307088,0,16.7030189072,20.7196857024,24,5,16.464,134.75983338056,48.228348,8.9924988,17.0437669496,0,0,0,340.1, -0.6, -1.3,0,0,1024,1024,1024,1024,0,0,0,0,331.4,0,0,94,4.114,4.116,4.117,4.12,0,0,8.072,84.74,134.75983338056,48.228348,6,P-GPS,
19900,2025-07-30 08:19:16,43.5567965580594,-5.62082771442257,47.900264,,,134.43174938056,43.307088,0,16.7064965976,20.731956044,24,5,16.464,134.75983338056,48.228348,8.9924988,17.0437669496,0,0,0,342.4, -0.5, -1.1,0,0,1024,1024,1024,1024,0,0,0,0,334.6,0,0,94,4.114,4.116,4.117,4.12,0,0,8.072,84.74,134.43174938056,47.900264,6,P-GPS,
20100,2025-07-30 08:19:16,43.5567965435578,-5.6208277252805,47.900264,,,134.43174938056,43.307088,0,16.7043312432,20.7379927896,24,5,16.464,134.75983338056,48.228348,8.9924988,17.0437669496,0,0,0,343.9, -0.8, -0.9,0,0,1024,1024,1024,1024,0,0,0,0,334.9,0,0,94,4.114,4.116,4.117,4.12,0,0,8.072,84.74,134.43174938056,47.900264,6,P-GPS,
20300,2025-07-30 08:19:16,43.5567964714482,-5.62082774692255,47.900264,,,134.43174938056,43.307088,0,16.6881238936,20.7648956776,24,5,16.464,134.75983338056,48.228348,8.9924988,17.0437669496,0,0,0,343.9, -0.4, -1.3,0,0,1024,1024,1024,1024,0,0,0,0,334.9,0,0,94,4.114,4.116,4.117,4.12,0,0,8.072,84.74,134.43174938056,47.900264,6,P-GPS,
20500,2025-07-30 08:19:17,43.5567964539846,-5.62082773533756,47.900264,,,134.43174938056,43.307088,0,16.6812997464,20.771982292,24,5,16.464,134.75983338056,48.228348,8.9924988,17.0437669496,0,0,0,343.9, -0.5, -1.2,0,0,1024,1024,1024,1024,0,0,0,0,334.9,0,0,94,4.114,4.116,4.117,4.12,0,0,8.072,84.74,134.43174938056,47.900264,6,P-GPS,
20700,2025-07-30 08:19:17,43.5567963997756,-5.62082773804465,47.900264,,,134.43174938056,43.307088,0,16.6667656252,20.7917657572,24,5,16.456,134.75983338056,48.228348,8.9924988,17.0437669496,0,0,0,343.8, -0.6, -1.3,0,0,1024,1024,1024,1024,0,0,0,0,334.9,0,0,94,4.11,4.114,4.114,4.117,0,0,7.975,84.74,134.43174938056,47.900264,6,P-GPS,
20900,2025-07-30 08:19:17,43.5567963946397,-5.62082771866938,47.900264,,,134.43174938056,43.307088,0,16.6620084072,20.7972119516,24,5,16.456,134.75983338056,48.228348,8.9924988,17.0437669496,0,0,0,343.8, -0.8, -1.6,0,0,1024,1024,1024,1024,0,0,0,0,334.9,0,0,94,4.11,4.114,4.114,4.117,0,0,7.975,84.74,134.43174938056,47.900264,6,P-GPS,
21100,2025-07-30 08:19:17,43.5567964334199,-5.62082765932002,47.900264,,,134.43174938056,43.307088,0,16.6625005332,20.8183405612,24,5,16.456,134.75983338056,48.228348,8.9924988,17.0437669496,0,0,0,343.8, -0.3, -1.5,0,0,1024,1024,1024,1024,0,0,0,0,334.9,0,0,94,4.11,4.114,4.114,4.117,0,0,7.975,84.74,134.43174938056,47.900264,6,P-GPS,
21300,2025-07-30 08:19:17,43.5567964565804,-5.62082761221761,47.900264,,,134.43174938056,43.307088,0,16.6607944964,20.8333996168,24,5,16.456,134.75983338056,48.228348,8.9924988,17.0437669496,0,0,0,343.8, -0.5, -1.9,0,0,1024,1483,1024,1024,0,70,0,0,334.9,0,0,94,4.11,4.114,4.114,4.117,0,0,7.975,84.74,134.43174938056,47.900264,6,P-GPS,
21500,2025-07-30 08:19:18,43.5567964161405,-5.62082758183664,47.900264,,,134.43174938056,43.307088,0,16.644357488,20.8501975176,24,5,16.456,134.75983338056,48.228348,8.9924988,17.0437669496,0,0,0,343.8, -0.7, -1.7,0,0,1024,1024,1024,1024,0,0,0,0,335.3,0,0,94,4.11,4.114,4.114,4.117,0,0,7.975,84.74,134.43174938056,47.900264,6,P-GPS,
21700,2025-07-30 08:19:18,43.5567964253734,-5.6208275868312,47.900264,,,134.43174938056,43.307088,0,16.6477695616,20.8538064416,24,5,16.449,134.75983338056,48.228348,8.9924988,17.0437669496,0,0,0,346, -0.6, -1.4,0,0,1024,1024,1024,1024,0,0,0,0,337.4,0,0,94,4.109,4.111,4.111,4.115,0,0,8.058,84.92,134.43174938056,47.900264,6,P-GPS,
21900,2025-07-30 08:19:18,43.5567964213256,-5.62082757953146,47.57218,,,134.10366538056,43.307088,0,16.6454073568,20.8562342632,24,5,16.449,134.75983338056,48.228348,8.9924988,17.0437669496,0,0,0,346.5, -0.3, -1.4,0,0,1024,1024,1024,1024,0,0,0,0,337.5,0,0,94,4.109,4.111,4.111,4.115,0,0,8.058,84.92,134.10366538056,47.57218,6,P-GPS,
22100,2025-07-30 08:19:18,43.5567964438458,-5.62082757054717,47.57218,,,134.10366538056,43.307088,0,16.650098958,20.8647972556,24,5,16.449,134.75983338056,48.228348,8.9924988,17.0437669496,0,0,0,346.5, -0.4, -1.3,0,0,1024,1024,1203,1024,0,0,27,0,337.5,0,0,94,4.109,4.111,4.111,4.115,0,0,8.058,84.92,134.10366538056,47.57218,6,P-GPS,
22300,2025-07-30 08:19:18,43.5567964491251,-5.62082758513478,47.57218,,,134.10366538056,43.307088,0,16.6540687744,20.869095156,24,5,16.449,134.75983338056,48.228348,8.9924988,17.0437669496,0,0,0,346.5, -0.6, -1.6,0,0,1024,1024,1228,1024,0,0,31,0,337.5,0,0,94,4.109,4.111,4.111,4.115,0,0,8.058,84.92,134.10366538056,47.57218,6,P-GPS,
22500,2025-07-30 08:19:19,43.5567965046878,-5.62082761606558,47.57218,,,134.10366538056,43.307088,0,16.6748036832,20.8909783588,24,5,16.449,134.75983338056,48.228348,8.9924988,17.0437669496,0,0,0,346.4, -2.9, -1.6,0,0,1024,1024,1024,1024,0,0,0,0,337.5,0,0,94,4.109,4.111,4.111,4.115,0,0,8.058,84.92,134.10366538056,47.57218,6,P-GPS,
22700,2025-07-30 08:19:19,43.5567966870063,-5.62082775089181,47.57218,,,134.10366538056,43.307088,0.223694,16.748524158,20.9664376788,24,5,16.449,134.75983338056,48.228348,8.9924988,17.0437669496,0.223694,0,0,346.5, -3.5, -1.6,0,0,1024,1024,1446,1024,0,0,64,0,337.5,0,0,94,4.106,4.108,4.106,4.112,0,0,8.058,84.92,134.10366538056,47.57218,6,P-GPS,
22900,2025-07-30 08:19:19,43.5567970244536,-5.62082791614029,47.57218,,,134.10366538056,43.307088,0.223694,16.8705385976,21.0970807276,24,5,16.449,134.75983338056,48.228348,8.9924988,17.0437669496,0.223694,0,0,346.4, 0.3, -1.5,0,0,1024,1024,1684,1024,0,0,100,0,337.5,0,0,94,4.106,4.108,4.106,4.112,0,0,8.058,84.92,134.10366538056,47.57218,6,P-GPS,
23100,2025-07-30 08:19:19,43.5567973615818,-5.62082812069797,47.57218,,,134.10366538056,43.307088,0.447388,16.999344376,21.2314311256,24,5,16.449,134.75983338056,48.228348,8.9924988,17.0437669496,0.447388,0,0,346.6, -10.4, -1.4,0,0,1024,1024,1684,1024,0,0,100,0,337.5,0,0,94,4.106,4.108,4.106,4.112,0,0,8.058,84.92,134.10366538056,47.57218,6,P-GPS,
23300,2025-07-30 08:19:19,43.5567982365976,-5.62082847286984,47.57218,,,134.10366538056,43.307088,1.5882274,17.3037407112,21.5640098764,24,5,16.449,134.75983338056,48.228348,8.9924988,17.3037407112,1.565858,-0.223694,0,346.9, -25.5, -1.5,0,0,1024,1024,1684,1024,0,0,100,0,337.5,0,0,94,4.106,4.108,4.106,4.112,0,0,8.058,84.92,134.10366538056,47.57218,6,P-GPS,
23500,2025-07-30 08:19:20,43.5568005480871,-5.62082931799765,47.57218,,,134.10366538056,43.307088,3.690951,18.0985570096,22.4364508492,24,5,16.449,134.75983338056,48.228348,8.9924988,18.0985570096,3.579104,-0.894776,0,347, -28.9, -1.9,0,0,1024,1024,1684,1024,0,0,100,0,337.5,0,0,94,4.106,4.108,4.106,4.112,0,0,8.058,84.92,134.10366538056,47.57218,6,P-GPS,
23700,2025-07-30 08:19:20,43.5568045858352,-5.62083075220991,47.57218,,,134.10366538056,43.307088,5.9726298,19.496227658,23.9576451236,24,5,16.442,134.75983338056,48.228348,8.9924988,19.496227658,5.816044,-1.342164,0,346.9, -28.7, -2,0,0,1024,1024,1684,1024,0,0,100,0,337.5,0,0,94,4.093,4.096,4.093,4.097,0,0,8.063,84.92,134.10366538056,47.57218,6,P-GPS,
23900,2025-07-30 08:19:20,43.5568105213058,-5.62083295382952,47.57218,,,134.10366538056,43.307088,8.0753534,21.595145048,26.2000664552,24,5,16.442,134.75983338056,48.228348,8.9924988,21.595145048,7.82929,-2.013246,0,346.8, -27.9, -1.8,0,0,1024,1024,1684,1024,0,0,100,0,337.5,0,0,94,4.093,4.096,4.093,4.097,0,0,8.063,84.92,134.10366538056,47.57218,6,P-GPS,
24100,2025-07-30 08:19:20,43.5568179879772,-5.62083560512797,47.57218,,,134.10366538056,43.307088,9.9320136,24.2552829284,29.0130258628,24,5,16.442,134.75983338056,48.228348,9.9320136,24.2552829284,9.618842,-2.460634,0,346.8, -26.2, -1.4,0,0,1024,1024,1684,1024,0,0,100,0,337.5,0,0,94,4.093,4.096,4.093,4.097,0,0,8.063,84.92,134.10366538056,47.57218,6,P-GPS,
24300,2025-07-30 08:19:20,43.5568272767476,-5.62083882458396,47.57218,,,134.10366538056,43.307088,11.4978716,27.596457576,32.5072845048,24,5,16.442,134.75983338056,48.228348,11.4978716,27.596457576,11.1847,-2.684328,0,346.7, -25.5, -1.5,0,0,1024,1024,1684,1024,0,0,100,0,337.5,0,0,94,4.093,4.096,4.093,4.097,0,0,8.063,84.92,134.10366538056,47.57218,6,P-GPS,
24500,2025-07-30 08:19:21,43.5568374536888,-5.62084238872711,47.57218,,,134.10366538056,43.307088,13.1308378,31.3000994268,36.337927672,24,5,16.442,134.75983338056,48.228348,13.1308378,31.3000994268,12.750558,-3.131716,0,346.5, -25, -1.1,0,0,1024,1024,1684,1024,0,0,100,0,337.5,0,0,94,4.093,4.096,4.093,4.097,0,0,8.063,84.92,134.10366538056,47.57218,6,P-GPS,
24700,2025-07-30 08:19:21,43.5568487919663,-5.62084640631786,47.57218,,,134.10366538056,43.307088,14.763804,35.463583812,40.608925184,24,5,16.435,134.75983338056,48.228348,14.763804,35.463583812,14.316416,-3.579104,0,346.6, -25.2, -1,0,0,1024,1024,1684,1024,0,0,100,0,337.5,0,0,94,4.089,4.091,4.092,4.096,0,0,8.137,84.92,134.10366538056,47.57218,6,P-GPS,
24900,2025-07-30 08:19:21,43.5568611270531,-5.6208506750974,47.57218,,,134.10366538056,43.307088,16.105968,40.007547212,45.249017196,24,5,16.435,134.75983338056,48.228348,16.105968,40.007547212,15.65858,-3.802798,0,346.6, -24.5, -1.2,0,0,1024,1024,1684,1024,0,0,100,0,337.5,0,0,94,4.089,4.091,4.092,4.096,0,0,8.137,84.92,134.10366538056,47.57218,6,P-GPS,
25100,2025-07-30 08:19:21,43.5568747184272,-5.62085531928561,47.57218,,,134.10366538056,43.307088,17.2468074,45.030841336,50.357285076,24,5,16.435,134.75983338056,48.228348,17.2468074,45.030841336,16.77705,-4.026492,0,346.7, -24, -1.2,0,0,1024,1024,1614,1024,0,0,89,0,337.5,0,0,94,4.089,4.091,4.092,4.096,0,0,8.137,84.92,134.10366538056,47.57218,6,P-GPS,
25300,2025-07-30 08:19:22,43.5568891006785,-5.62086021536441,47.57218,,,134.10366538056,43.307088,18.6560796,50.362862504,55.762140892,24,5,16.435,134.75983338056,48.228348,18.6560796,50.362862504,18.119214,-4.47388,0,346.6, -23.7, -1.2,0,0,1024,1024,1383,1024,0,0,54,0,337.5,0,0,94,4.089,4.091,4.092,4.096,0,0,8.137,84.92,134.10366538056,47.57218,6,P-GPS,
25500,2025-07-30 08:19:22,43.5569043334496,-5.62086547243946,47.244096,,,133.77558138056,43.307088,19.5955944,56.032482108,61.490815616,23,5,16.435,134.75983338056,48.228348,19.5955944,56.032482108,19.01399,-4.697574,0,346.5, -19.8, -0.9,0,0,1024,1024,1262,1024,0,0,36,0,337.5,0,0,94,4.089,4.091,4.092,4.096,0,0,8.137,84.92,133.77558138056,47.244096,6,P-GPS,
25700,2025-07-30 08:19:22,43.5569200654979,-5.62087085058908,47.57218,,,134.10366538056,43.307088,20.020613,61.89468702,67.404201632,24,5,16.354,134.75983338056,48.228348,20.020613,61.89468702,19.461378,-4.697574,-0.223694,346.4, -7.6, -1.1,0,0,1024,1024,1603,1024,0,0,88,0,337.5,0,0,94,4.085,4.088,4.088,4.093,0,0,9.56,84.92,134.10366538056,47.57218,6,P-GPS,
25900,2025-07-30 08:19:22,43.5569342846592,-5.62087571796201,47.57218,,,134.10366538056,43.307088,19.5955944,67.20144572,72.74934616,24,5,16.354,134.75983338056,48.228348,20.020613,67.20144572,19.01399,-4.697574,-0.223694,346.3, 1.9, -1.1,0,0,1024,1024,1646,1024,0,0,94,0,337.5,0,0,94,4.085,4.088,4.088,4.093,0,0,9.56,84.92,134.10366538056,47.57218,6,P-GPS,
26100,2025-07-30 08:19:22,43.5569483304972,-5.62088048502431,47.57218,,,134.10366538056,43.307088,18.8797736,72.445212292,78.026905384,24,5,16.354,134.75983338056,48.228348,20.020613,72.445212292,18.342908,-4.47388,0,346.5, -7.1, -0.9,0,0,1024,1024,1678,1024,0,0,99,0,337.5,0,0,94,4.085,4.088,4.088,4.093,0,0,9.56,84.92,134.10366538056,47.57218,6,P-GPS,
26300,2025-07-30 08:19:23,43.5569646337432,-5.62088598688191,47.57218,,,134.10366538056,43.307088,18.8797736,78.534779416,84.15026516,24,5,16.354,134.75983338056,48.228348,20.020613,78.534779416,18.342908,-4.47388,0.223694,346.6, -17.9, -1.2,0,0,1024,1024,1661,1024,0,0,97,0,337.5,0,0,94,4.085,4.088,4.088,4.093,0,0,9.56,84.92,134.10366538056,47.57218,6,P-GPS,
26500,2025-07-30 08:19:23,43.5569802596728,-5.62089128159919,47.57218,,,134.10366538056,43.307088,19.796919,84.377627372,90.020672172,24,5,16.354,134.75983338056,48.228348,20.020613,84.377627372,19.237684,-4.697574,0,346.7, -22.2, -1.1,0,0,1024,1024,1649,1024,0,0,95,0,337.5,0,0,94,4.085,4.088,4.088,4.093,0,0,9.56,84.92,134.10366538056,47.57218,6,P-GPS,
26700,2025-07-30 08:19:23,43.5569962140493,-5.62089682542612,47.57218,,,134.10366538056,43.307088,20.7140644,90.358926776,96.023297036,24,5,16.369,134.75983338056,48.228348,20.7140644,90.358926776,20.13246,-4.921268,0,346.6, -22, -0.9,0,0,1024,1024,1652,1024,0,0,95,0,337.5,0,0,94,4.097,4.099,4.097,4.099,0,0,9.33,85.1,134.10366538056,47.57218,6,P-GPS,
26900,2025-07-30 08:19:23,43.5570127892246,-5.62090256332857,47.57218,,,134.10366538056,43.307088,21.6535792,96.573821988,102.258205372,24,5,16.369,134.75983338056,48.228348,21.6535792,96.573821988,21.027236,-5.144962,0,346.5, -20.5, -0.5,0,0,1024,1024,1650,1024,0,0,95,0,337.5,0,0,94,4.097,4.099,4.097,4.099,0,0,9.33,85.1,134.10366538056,47.57218,6,P-GPS,
27100,2025-07-30 08:19:23,43.557030232225,-5.62090871705371,47.57218,,,134.10366538056,43.307088,22.3022918,103.126315636,108.82710322,24,5,16.369,134.75983338056,48.228348,22.3022918,103.126315636,21.698318,-5.144962,0,346.5, -20, -0.5,0,0,1024,1024,1652,1024,0,0,95,0,337.5,0,0,94,4.097,4.099,4.097,4.099,0,0,9.33,85.1,134.10366538056,47.57218,6,P-GPS,
27300,2025-07-30 08:19:23,43.5570480896823,-5.62091483048319,47.57218,,,134.10366538056,43.307088,22.7944186,109.82119774,115.53970186,24,5,16.369,134.75983338056,48.228348,22.7944186,109.82119774,22.145706,-5.368656,0,346.5, -19.6, -0.6,0,0,1024,1024,1651,1024,0,0,95,0,337.5,0,0,94,4.097,4.099,4.097,4.099,0,0,9.33,85.1,134.10366538056,47.57218,6,P-GPS,
27500,2025-07-30 08:19:24,43.5570661535328,-5.62092105790651,47.57218,,,134.10366538056,43.307088,23.48787,116.599085096,122.333009164,24,5,16.369,134.75983338056,48.228348,23.48787,116.599085096,22.816788,-5.59235,0,346.4, -19.5, -0.6,0,0,1024,1024,1592,1024,0,0,86,0,337.5,0,0,94,4.097,4.099,4.097,4.099,0,0,9.33,85.1,134.10366538056,47.57218,6,P-GPS,
27700,2025-07-30 08:19:24,43.5570846064568,-5.62092731717672,47.57218,,,134.10366538056,43.307088,23.935258,123.516736236,129.266080252,24,5,16.476,134.75983338056,48.228348,23.935258,123.516736236,23.264176,-5.59235,0,346.5, -19.2, -0.7,0,0,1024,1024,1499,1024,0,0,72,0,337.5,0,0,94,4.089,4.09,4.087,4.091,0,0,8.054,85.1,134.10366538056,47.57218,6,P-GPS,
27900,2025-07-30 08:19:24,43.5571035337022,-5.62093368711472,47.57218,,,134.10366538056,43.307088,24.4050154,130.609584232,136.374020112,24,5,16.476,134.75983338056,48.228348,24.4050154,130.609584232,23.711564,-5.816044,0,346.4, -16.1, -0.5,0,0,1024,1024,1470,1024,0,0,68,0,337.5,0,0,94,4.089,4.09,4.087,4.091,0,0,8.054,85.1,134.10366538056,47.57218,6,P-GPS,
28100,2025-07-30 08:19:24,43.5571229033945,-5.62094017571241,47.57218,,,134.10366538056,43.307088,24.6287094,137.867786564,143.646330056,24,5,16.476,134.75983338056,48.228348,24.6287094,137.867786564,23.935258,-5.816044,0,346.4, -10.9, -1.1,0,0,1024,1024,1579,1024,0,0,84,0,337.5,0,0,94,4.089,4.09,4.087,4.091,0,0,8.054,85.1,134.10366538056,47.57218,6,P-GPS,
28300,2025-07-30 08:19:24,43.5571426068767,-5.62094682135325,47.57218,,,134.10366538056,43.307088,24.3602766,145.25591016,151.04659276,24,5,16.476,134.75983338056,48.228348,24.6287094,145.25591016,23.711564,-5.59235,0,346.4, -7.8, -1.1,0,0,1024,1024,1394,1024,0,0,56,0,337.5,0,0,94,4.089,4.09,4.087,4.091,0,0,8.054,85.1,134.10366538056,47.57218,6,P-GPS,
28500,2025-07-30 08:19:25,43.5571616717152,-5.62095327449427,47.900264,,,134.43174938056,43.307088,23.935258,152.407485192,158.20866648,25,5,16.476,134.75983338056,48.228348,24.6287094,152.407485192,23.264176,-5.59235,0,346.5, -10.7, -0.7,0,0,1024,1024,1164,1024,0,0,21,0,337.5,0,0,94,4.089,4.09,4.087,4.091,0,0,8.054,85.1,134.43174938056,47.900264,6,P-GPS,
28700,2025-07-30 08:19:25,43.5571801049782,-5.62095952893345,47.900264,,,134.43174938056,43.307088,23.711564,159.32415208,165.13451972,25,5,16.365,134.75983338056,48.228348,24.6287094,159.32415208,23.040482,-5.59235,0,346.4, -4.9, -0.7,0,0,1024,1024,1024,1024,0,0,0,0,337.5,0,0,94,4.111,4.114,4.112,4.114,0,0,8.892,85.1,134.43174938056,47.900264,6,P-GPS,
28900,2025-07-30 08:19:25,43.5571982166901,-5.62096563961569,47.900264,,,134.43174938056,43.307088,22.7944186,166.118115552,171.937013376,25,5,16.365,134.75983338056,48.228348,24.6287094,166.118115552,22.145706,-5.368656,0,346.3, 5.2, -0.4,0,0,1024,1024,1024,1024,0,0,0,0,337.5,0,0,94,4.111,4.114,4.112,4.114,0,0,8.892,85.1,134.43174938056,47.900264,6,P-GPS,
29100,2025-07-30 08:19:25,43.5572155706273,-5.62097159627298,47.900264,,,134.43174938056,43.307088,21.4298852,172.63616038,178.461619884,25,5,16.365,134.75983338056,48.228348,24.6287094,172.63616038,20.803542,-5.144962,0,346.4, 12.3, -0.2,0,0,1024,1024,1024,1024,0,0,0,0,337.5,0,0,94,4.111,4.114,4.112,4.114,0,0,8.892,85.1,134.43174938056,47.900264,6,P-GPS,
29300,2025-07-30 08:19:25,43.5572314932344,-5.62097701760496,47.900264,,,134.43174938056,43.307088,19.1034676,178.61385086,184.445215876,25,5,16.365,134.75983338056,48.228348,24.6287094,178.61385086,18.566602,-4.47388,0,346.3, 27.8, 0.2,0,0,1024,1024,1024,1024,0,0,0,0,337.5,0,0,94,4.111,4.114,4.112,4.114,0,0,8.892,85.1,134.43174938056,47.900264,6,P-GPS,
29500,2025-07-30 08:19:26,43.5572451428698,-5.62098161320804,47.900264,,,134.43174938056,43.307088,16.553356,183.734585932,189.571200292,25,5,16.365,134.75983338056,48.228348,24.6287094,183.734585932,16.105968,-3.802798,0,346.4, 30.2, 0.1,0,0,1024,1024,1024,1024,0,0,0,0,337.5,-0.1,0,94,4.111,4.114,4.112,4.114,0,0,8.892,85.1,134.43174938056,47.900264,6,P-GPS,
29700,2025-07-30 08:19:26,43.557256676944,-5.62098539563437,47.900264,,,134.43174938056,43.307088,13.7795504,188.05446796,193.896659748,25,5,16.371,134.75983338056,48.228348,24.6287094,188.05446796,13.42164,-3.131716,0.223694,346.2, 31.5, -0.3,0,0,1024,1024,1024,1024,0,0,0,0,337.5,-4,0,93,4.118,4.114,4.123,4.124,0,0,8.989,85.28,134.43174938056,47.900264,6,P-GPS,
29900,2025-07-30 08:19:26,43.5572651859733,-5.6209881248983,47.900264,,,134.43174938056,43.307088,11.0057448,191.237210844,197.083995808,25,5,16.371,134.75983338056,48.228348,24.6287094,191.237210844,10.737312,-2.460634,0.223694,346.1, 30.4, 0,0,0,1024,1024,1024,1024,0,0,0,0,337.5,-6.8,0,93,4.118,4.114,4.123,4.124,0,0,8.989,85.28,134.43174938056,47.900264,6,P-GPS,
30100,2025-07-30 08:19:26,43.5572721786703,-5.6209903129452,47.57218,,,134.10366538056,43.307088,8.0306146,193.8484314,199.700137624,25,5,16.371,134.75983338056,48.228348,24.6287094,193.8484314,7.82929,-1.789552,0.223694,345.9, 30.6, -1.6,0,0,1024,1024,1024,1024,0,0,0,0,337.5,-7.3,0,93,4.118,4.114,4.123,4.124,0,0,8.989,85.28,134.10366538056,47.57218,6,P-GPS,
30300,2025-07-30 08:19:26,43.5572768569045,-5.62099183613268,47.57218,,,134.10366538056,43.307088,5.256809,195.600071876,201.453746604,25,5,16.371,134.75983338056,48.228348,24.6287094,195.600071876,5.144962,-1.11847,0.223694,345.9, 28.6, -1.5,0,0,1024,1024,1435,1024,0,0,62,0,337.5,-7.3,0,93,4.118,4.114,4.123,4.124,0,0,8.989,85.28,134.10366538056,47.57218,6,P-GPS,
30500,2025-07-30 08:19:27,43.557279653065,-5.62099272893235,47.57218,,,134.10366538056,43.307088,2.7738056,196.645675584,202.500990732,25,5,16.371,134.75983338056,48.228348,24.6287094,196.645675584,2.684328,-0.671082,0,346.2, 18.9, -1.4,0,0,1024,1024,1684,811,0,0,100,-32,337.5,-7.3,0,93,4.118,4.114,4.123,4.124,0,0,8.989,85.28,134.10366538056,47.57218,6,P-GPS,
30700,2025-07-30 08:19:27,43.5572807309479,-5.62099316592162,47.57218,,,134.10366538056,43.307088,1.8119214,197.055780584,202.910767648,25,5,16.479,134.75983338056,48.228348,24.6287094,197.055780584,1.789552,-0.223694,0,346.7, -0.4, -1.8,0,0,1024,1024,1684,809,0,0,100,-33,337.5,-7.3,0,93,4.072,4.079,4.082,4.086,0,0,6.661,85.28,134.10366538056,47.57218,6,P-GPS,
30900,2025-07-30 08:19:27,43.5572819132122,-5.62099372417623,47.57218,,,134.10366538056,43.307088,2.3264176,197.511161176,203.366804408,25,5,16.479,134.75983338056,48.228348,24.6287094,197.511161176,2.23694,-0.671082,0,347.2, -21, -3.3,0,0,1024,1024,1684,809,0,0,100,-33,337.5,-7.3,0,93,4.072,4.079,4.082,4.086,0,0,6.661,85.28,134.10366538056,47.57218,6,P-GPS,
31100,2025-07-30 08:19:27,43.5572842163338,-5.62099498717652,47.57218,,,134.10366538056,43.307088,4.250186,198.411095588,204.271003912,25,5,16.479,134.75983338056,48.228348,24.6287094,198.411095588,4.026492,-1.342164,0,347.3, -26.5, -3.6,0,0,1024,1024,1684,811,0,0,100,-32,337.5,-7.3,0,93,4.072,4.079,4.082,4.086,0,0,6.661,85.28,134.10366538056,47.57218,6,P-GPS,
31300,2025-07-30 08:19:27,43.5572882529124,-5.62099697239395,47.57218,,,134.10366538056,43.307088,6.375279,199.971463092,205.834324172,25,5,16.479,134.75983338056,48.228348,24.6287094,199.971463092,6.039738,-2.013246,0,347.2, -26.1, -3.5,0,0,1024,1024,1684,813,0,0,100,-32,337.5,-7.3,0,93,4.072,4.079,4.082,4.086,0,0,6.661,85.28,134.10366538056,47.57218,6,P-GPS,
31500,2025-07-30 08:19:28,43.5572943320719,-5.62099998734825,47.57218,,,134.10366538056,43.307088,8.276678,202.323825372,208.191279628,25,5,16.479,134.75983338056,48.228348,24.6287094,202.323825372,7.82929,-2.684328,0,347.1, -25.9, -3.5,0,0,1024,1024,1684,813,0,0,100,-32,337.5,-7.3,0,93,4.072,4.079,4.082,4.086,0,0,6.661,85.28,134.10366538056,47.57218,6,P-GPS,
31700,2025-07-30 08:19:28,43.5573016092302,-5.62100343326806,47.57218,,,134.10366538056,43.307088,9.9096442,205.127631236,210.998366332,25,5,16.397,134.75983338056,48.228348,24.6287094,205.127631236,9.395148,-3.131716,0,347.2, -24.9, -3.6,0,0,1024,1024,1684,817,0,0,100,-31,337.5,-7.3,0,93,4.081,4.084,4.083,4.088,0,0,7.323,85.46,134.10366538056,47.57218,6,P-GPS,
31900,2025-07-30 08:19:28,43.557310876026,-5.62100764757716,47.57218,,,134.10366538056,43.307088,11.520241,208.685374132,214.558077732,25,5,16.397,134.75983338056,48.228348,24.6287094,208.685374132,10.961006,-3.579104,0,347.2, -24.4, -3.7,0,0,1024,1024,1666,596,0,0,97,-65,337.5,-7.3,0,93,4.081,4.084,4.083,4.088,0,0,7.323,85.46,134.10366538056,47.57218,6,P-GPS,
32100,2025-07-30 08:19:28,43.5573208318782,-5.62101224369754,47.57218,,,134.10366538056,43.307088,13.0189908,212.512802076,218.388458432,25,5,16.397,134.75983338056,48.228348,24.6287094,212.512802076,12.30317,-4.250186,0,347.2, -24, -3.8,0,0,1024,1024,1665,395,0,0,97,-95,337.5,-7.3,0,93,4.081,4.084,4.083,4.088,0,0,7.323,85.46,134.10366538056,47.57218,6,P-GPS,
32300,2025-07-30 08:19:29,43.5573323218429,-5.62101743934558,47.57218,,,134.10366538056,43.307088,14.428263,216.921922952,222.799875896,25,5,16.397,134.75983338056,48.228348,24.6287094,216.921922952,13.645334,-4.697574,0,348.1, -22.9, -9.1,0,0,1024,1024,1654,418,0,0,95,-92,337.5,-7.3,0,93,4.081,4.084,4.083,4.088,0,0,7.323,85.46,134.10366538056,47.57218,6,P-GPS,
32500,2025-07-30 08:19:29,43.5573441713188,-5.62102348697176,47.57218,,,134.10366538056,43.307088,15.65858,221.52067638,227.409456096,25,5,16.397,134.75983338056,48.228348,24.6287094,221.52067638,14.54011,-5.816044,0,348.8, -18.5, -18,0,0,1024,1024,1679,417,0,0,99,-92,337.5,-7.3,0,93,4.081,4.084,4.083,4.088,0,0,7.323,85.46,134.10366538056,47.57218,6,P-GPS,
32700,2025-07-30 08:19:29,43.557356338134,-5.62103090759823,47.57218,,,134.10366538056,43.307088,16.7099418,226.334324828,232.262802708,25,5,16.365,134.75983338056,48.228348,24.6287094,226.334324828,14.987498,-7.381902,0,348.6, -15.5, -21.1,0,0,1024,1024,1684,418,0,0,100,-92,337.5,-7.3,0,93,4.083,4.085,4.085,4.089,0,0,9.279,85.46,134.10366538056,47.57218,6,P-GPS,
32900,2025-07-30 08:19:29,43.557368663545,-5.62104006753685,47.57218,,,134.10366538056,43.307088,17.5376096,231.337605828,237.37041442,25,5,16.365,134.75983338056,48.228348,24.6287094,231.337605828,15.211192,-8.724066,0,349, -16.4, -20.8,0,0,1024,1024,1684,418,0,0,100,-92,337.5,-7.3,0,93,4.083,4.085,4.085,4.089,0,0,9.279,85.46,134.10366538056,47.57218,6,P-GPS,
33100,2025-07-30 08:19:29,43.5573812632334,-5.62105107286803,47.57218,,,134.10366538056,43.307088,18.5442326,236.584981324,242.811031392,25,5,16.365,134.75983338056,48.228348,24.6287094,236.584981324,15.434886,-10.289924,0,348.8, -16.8, -19.5,0,0,1024,1024,1681,432,0,0,100,-90,337.5,-7.3,0,93,4.083,4.085,4.085,4.089,0,0,9.279,85.46,134.10366538056,47.57218,6,P-GPS,
33300,2025-07-30 08:19:29,43.5573940847697,-5.62106348910769,47.57218,,,134.10366538056,43.307088,19.5508556,242.030519556,248.525926588,25,5,16.365,134.75983338056,48.228348,24.6287094,242.030519556,15.882274,-11.408394,0,348.5, -16.4, -18.5,0,0,1024,1024,1684,433,0,0,100,-90,337.5,-7.3,0,93,4.083,4.085,4.085,4.089,0,0,9.279,85.46,134.10366538056,47.57218,6,P-GPS,
33500,2025-07-30 08:19:30,43.5574069022005,-5.62107743821636,47.57218,,,134.10366538056,43.307088,20.5351092,247.612540732,254.48163544,25,5,16.365,134.75983338056,48.228348,24.6287094,247.612540732,16.105968,-12.750558,0,348.5, -16.4, -17.4,0,0,1024,1024,1668,565,0,0,98,-70,337.5,-7.3,0,93,4.083,4.085,4.085,4.089,0,0,9.279,85.46,134.10366538056,47.57218,6,P-GPS,
33700,2025-07-30 08:19:30,43.5574200820314,-5.62109228473689,47.57218,,,134.10366538056,43.307088,21.4522546,253.412409684,260.68898472,25,5,16.344,134.75983338056,48.228348,24.6287094,253.412409684,16.553356,-13.645334,0,348.5, -16.9, -17.1,0,0,1024,1024,1684,559,0,0,100,-70,337.5,-7.3,0,93,4.079,4.082,4.081,4.086,0,0,9.34,85.46,134.10366538056,47.57218,6,P-GPS,
33900,2025-07-30 08:19:30,43.5574331043755,-5.62110789303967,47.57218,,,134.10366538056,43.307088,22.0562284,259.242790448,266.982292008,25,5,16.344,134.75983338056,48.228348,24.6287094,259.242790448,16.77705,-14.316416,0,348.4, -18.6, -14.9,0,0,1024,1024,1684,561,0,0,100,-70,337.5,-7.3,0,93,4.079,4.082,4.081,4.086,0,0,9.34,85.46,134.10366538056,47.57218,6,P-GPS,
34100,2025-07-30 08:19:30,43.5574469329729,-5.62112449385711,47.57218,,,134.10366538056,43.307088,22.9957432,265.459654164,273.66962818,25,5,16.344,134.75983338056,48.228348,24.6287094,265.459654164,17.448132,-14.987498,0,348.3, -19.9, -13.4,0,0,1024,1024,1684,561,0,0,100,-70,337.5,-7.3,0,93,4.079,4.082,4.081,4.086,0,0,9.34,85.46,134.10366538056,47.57218,6,P-GPS,
34300,2025-07-30 08:19:30,43.5574614789199,-5.62114195114641,47.57218,,,134.10366538056,43.307088,23.6220864,272.0226465,280.703092972,25,5,16.344,134.75983338056,48.228348,24.6287094,272.0226465,17.89552,-15.434886,0,348.2, -20.5, -12.2,0,0,1024,1024,1684,754,0,0,100,-41,337.5,-7.3,0,93,4.079,4.082,4.081,4.086,0,0,9.34,85.46,134.10366538056,47.57218,6,P-GPS,
34500,2025-07-30 08:19:31,43.5574764110544,-5.62115976687,47.57218,,,134.10366538056,43.307088,24.5839706,278.773959052,287.90519294,25,5,16.344,134.75983338056,48.228348,24.6287094,278.773959052,18.566602,-16.105968,0,348.1, -20.7, -11.7,0,0,1024,1024,1684,904,0,0,100,-18,337.5,-7.3,0,93,4.079,4.082,4.081,4.086,0,0,9.34,85.46,134.10366538056,47.57218,6,P-GPS,
34700,2025-07-30 08:19:31,43.5574916724463,-5.6211776171403,47.57218,,,134.10366538056,43.307088,25.2326832,285.662410716,295.204405772,25,5,16.349,134.75983338056,48.228348,25.2326832,285.662410716,19.237684,-16.329662,0,347.5, -21.2, -8,0,0,1024,1024,1684,1024,0,0,100,0,337.5,-7.3,0,93,4.074,4.076,4.075,4.079,0,0,9.003,85.64,134.10366538056,47.57218,6,P-GPS,
34900,2025-07-30 08:19:31,43.5575074102095,-5.62119559859756,47.57218,,,134.10366538056,43.307088,25.2550526,292.745088108,302.65913042,25,5,16.349,134.75983338056,48.228348,25.2550526,292.745088108,19.461378,-16.105968,-0.223694,345, 0.5, 5.3,0,0,1024,1024,1684,1024,0,0,100,0,337.5,-7.3,0,93,4.074,4.076,4.075,4.079,0,0,9.003,85.64,134.10366538056,47.57218,6,P-GPS,
35100,2025-07-30 08:19:31,43.5575230795814,-5.6212123152945,47.57218,,,134.10366538056,43.307088,23.4431312,299.697188068,309.885508604,25,5,16.349,134.75983338056,48.228348,25.2550526,299.697188068,18.566602,-14.316416,-0.223694,347.1, 17.9, 19.5,0,0,1024,1024,1684,1024,0,0,100,0,337.5,-7.3,0,93,4.074,4.076,4.075,4.079,0,0,9.003,85.64,134.10366538056,47.57218,6,P-GPS,
35300,2025-07-30 08:19:31,43.5575375314897,-5.6212265403103,47.900264,,,134.43174938056,43.307088,20.915389,306.000337876,316.362214848,25,5,16.349,134.75983338056,48.228348,25.2550526,306.000337876,17.224438,-11.855782,0,348.2, 19.1, 23.5,0,0,1024,1024,1684,1024,0,0,100,0,337.5,-7.3,0,93,4.074,4.076,4.075,4.079,0,0,9.003,85.64,134.43174938056,47.900264,6,P-GPS,
35500,2025-07-30 08:19:32,43.5575507501235,-5.62123731467847,47.900264,,,134.43174938056,43.307088,18.1415834,311.544957476,321.96359298,25,5,16.349,134.75983338056,48.228348,25.2550526,311.544957476,15.65858,-9.171454,0,349.4, 22.9, 20.1,0,0,1024,1024,1684,1024,0,0,100,0,337.5,-7.3,0,93,4.074,4.076,4.075,4.079,0,0,9.003,85.64,134.43174938056,47.900264,6,P-GPS,
35700,2025-07-30 08:19:32,43.5575625057326,-5.6212457176153,47.900264,,,134.43174938056,43.307088,15.6138412,316.357949756,326.793645628,25,5,16.32,134.75983338056,48.228348,25.2550526,316.357949756,13.869028,-7.158208,0,347.5, 15.1, 9.1,0,0,1024,1024,1684,1024,0,0,100,0,337.5,-7.3,0,93,4.108,4.113,4.11,4.114,0,0,9.466,85.64,134.43174938056,47.900264,6,P-GPS,
35900,2025-07-30 08:19:32,43.5575726783254,-5.62125174554484,47.57218,,,134.10366538056,43.307088,14.6072182,320.396663796,330.83334392,25,5,16.32,134.75983338056,48.228348,25.2550526,320.396663796,13.197946,-6.263432,0.223694,344.6, -4.8, 2.8,0,0,1024,1024,1684,1024,0,0,100,0,337.5,-7.3,0,93,4.108,4.113,4.11,4.114,0,0,9.466,85.64,134.10366538056,47.57218,6,P-GPS,
36100,2025-07-30 08:19:32,43.5575832810344,-5.62125806053448,47.57218,,,134.10366538056,43.307088,14.7190652,324.609918524,335.04594248,25,5,16.32,134.75983338056,48.228348,25.2550526,324.609918524,13.42164,-6.039738,0.223694,346.1, -18.5, 0.9,0,0,1024,1024,1684,1024,0,0,100,0,337.5,-7.3,0,93,4.108,4.113,4.11,4.114,0,0,9.466,85.64,134.10366538056,47.57218,6,P-GPS,
36300,2025-07-30 08:19:32,43.5575941800322,-5.62126409967187,47.57218,,,134.10366538056,43.307088,15.7480576,328.89436748,339.33071952,25,5,16.32,134.75983338056,48.228348,25.2550526,328.89436748,14.54011,-6.039738,0,346.5, -22.4, 0.1,0,0,1024,1024,1684,1024,0,0,100,0,337.5,-7.3,0,93,4.108,4.113,4.11,4.114,0,0,9.466,85.64,134.10366538056,47.57218,6,P-GPS,
36500,2025-07-30 08:19:33,43.5576063383497,-5.62127058749136,47.244096,,,133.77558138056,43.307088,17.000744,333.64830464,344.08793752,25,5,16.32,134.75983338056,48.228348,25.2550526,333.64830464,15.882274,-6.039738,0,346.5, -23.1, -0.7,0,0,1024,1024,1684,1024,0,0,100,0,337.5,-7.3,0,93,4.108,4.113,4.11,4.114,0,0,9.466,85.64,133.77558138056,47.244096,6,P-GPS,
36700,2025-07-30 08:19:33,43.5576195416338,-5.62127746594916,47.244096,,,133.77558138056,43.307088,18.0521058,338.7959426,349.23557548,25,5,16.407,134.75983338056,48.228348,25.2550526,338.7959426,17.000744,-6.039738,0,346.7, -23.1, -1.6,0,0,1024,1024,1684,1024,0,0,100,0,337.5,-7.3,0,93,4.078,4.081,4.08,4.085,0,0,8.697,85.64,133.77558138056,47.244096,6,P-GPS,
36900,2025-07-30 08:19:33,43.5576338135025,-5.62128441693134,47.244096,,,133.77558138056,43.307088,19.1705758,344.31103464,354.7572292,25,5,16.407,134.75983338056,48.228348,25.2550526,344.31103464,18.119214,-6.263432,0,346.7, -22.7, -1.7,0,0,1024,1024,1684,1024,0,0,100,0,337.5,-7.3,0,93,4.078,4.081,4.08,4.085,0,0,8.697,85.64,133.77558138056,47.244096,6,P-GPS,
37100,2025-07-30 08:19:33,43.5576496343993,-5.62129194536534,47.244096,,,133.77558138056,43.307088,20.3114152,350.40355452,360.86287244,25,5,16.407,134.75983338056,48.228348,25.2550526,350.40355452,19.237684,-6.487126,0,346.7, -22.1, -1.4,0,0,1024,1024,1684,1024,0,0,100,0,337.5,-7.3,0,93,4.078,4.081,4.08,4.085,0,0,8.697,85.64,133.77558138056,47.244096,6,P-GPS,
37300,2025-07-30 08:19:33,43.557665761123,-5.62129926954425,47.244096,,,133.77558138056,43.307088,21.1614524,356.58137624,367.05709836,25,5,16.407,134.75983338056,48.228348,25.2550526,356.58137624,20.13246,-6.487126,0,346.6, -22.1, -1.2,0,0,1024,1024,1684,1024,0,0,100,0,337.5,-7.3,0,93,4.078,4.081,4.08,4.085,0,0,8.697,85.64,133.77558138056,47.244096,6,P-GPS,
37500,2025-07-30 08:19:34,43.5576828472447,-5.62130681135982,47.244096,,,133.77558138056,43.307088,21.7877956,363.106967,373.60237416,25,5,16.407,134.75983338056,48.228348,25.2550526,363.106967,20.803542,-6.487126,0,346.6, -22.1, -1.3,0,0,1024,1024,1684,1024,0,0,100,0,337.5,-7.3,0,93,4.078,4.081,4.08,4.085,0,0,8.697,85.64,133.77558138056,47.244096,6,P-GPS,
37700,2025-07-30 08:19:34,43.5577002504089,-5.62131422810471,47.244096,,,133.77558138056,43.307088,22.704941,369.72770212,380.249356,25,5,16.392,134.75983338056,48.228348,25.2550526,369.72770212,21.698318,-6.71082,0,346.6, -22.3, -1,0,0,1024,1024,1684,1024,0,0,100,0,337.5,-7.3,0,93,4.076,4.079,4.077,4.081,0,0,6.808,85.82,133.77558138056,47.244096,6,P-GPS,
37900,2025-07-30 08:19:34,43.5577182200328,-5.62132156263315,47.244096,,,133.77558138056,43.307088,23.5773476,376.52888344,387.08662656,25,5,16.392,134.75983338056,48.228348,25.2550526,376.52888344,22.593094,-6.71082,0,346.5, -22.3, -0.9,0,0,1024,1024,1684,1024,0,0,100,0,337.5,-7.3,0,93,4.076,4.079,4.077,4.081,0,0,6.808,85.82,133.77558138056,47.244096,6,P-GPS,
38100,2025-07-30 08:19:34,43.5577374971003,-5.6213293062771,47.244096,,,133.77558138056,43.307088,24.2036908,383.81890992,394.41274228,25,5,16.392,134.75983338056,48.228348,25.2550526,383.81890992,23.264176,-6.71082,0,346.6, -21.9, -1.4,0,0,1024,1024,1684,1024,0,0,100,0,337.5,-7.3,0,93,4.076,4.079,4.077,4.081,0,0,6.808,85.82,133.77558138056,47.244096,6,P-GPS,
38300,2025-07-30 08:19:35,43.5577563784275,-5.62133666088836,47.244096,,,133.77558138056,43.307088,24.8524034,390.93505188,401.56825432,25,5,16.392,134.75983338056,48.228348,25.2550526,390.93505188,23.935258,-6.71082,0,346.6, -22, -1.3,0,0,1024,1024,1684,1024,0,0,100,0,337.5,-7.3,0,93,4.076,4.079,4.077,4.081,0,0,6.808,85.82,133.77558138056,47.244096,6,P-GPS,
38500,2025-07-30 08:19:35,43.5577761505827,-5.62134432707156,47.244096,,,133.77558138056,43.307088,25.5682242,398.38583952,409.06169288,25,5,16.392,134.75983338056,48.228348,25.5682242,398.38583952,24.60634,-6.934514,0,346.7, -21.9, -1.6,0,0,1024,1024,1684,1024,0,0,100,0,337.5,-7.3,0,93,4.076,4.079,4.077,4.081,0,0,6.808,85.82,133.77558138056,47.244096,6,P-GPS,
38700,2025-07-30 08:19:35,43.5577960463166,-5.62135190881005,47.244096,,,133.77558138056,43.307088,26.2169368,405.8727164,416.59450152,25,5,16.313,134.75983338056,48.228348,26.2169368,405.8727164,25.277422,-6.934514,0,346.6, -21.7, -1.3,0,0,1024,1024,1684,1024,0,0,100,0,337.5,-7.3,0,93,4.075,4.078,4.078,4.082,0,0,9.393,85.82,133.77558138056,47.244096,6,P-GPS,
38900,2025-07-30 08:19:35,43.5578165922222,-5.62135971097938,47.244096,,,133.77558138056,43.307088,26.6419554,413.60237544,424.36681148,25,5,16.313,134.75983338056,48.228348,26.6419554,413.60237544,25.72481,-6.934514,0,346.7, -21.3, -1.4,0,0,1024,1024,1684,1024,0,0,100,0,337.5,-7.3,0,93,4.075,4.078,4.078,4.082,0,0,9.393,85.82,133.77558138056,47.244096,6,P-GPS,
39100,2025-07-30 08:19:35,43.5578379465773,-5.6213677347366,47.244096,,,133.77558138056,43.307088,27.3577762,421.63059092,432.44423956,25,5,16.313,134.75983338056,48.228348,27.3577762,421.63059092,26.395892,-7.158208,0,346.4, -21.1, -1.1,0,0,1024,1024,1684,1024,0,0,100,0,337.5,-7.3,0,93,4.075,4.078,4.078,4.082,0,0,9.393,85.82,133.77558138056,47.244096,6,P-GPS,
39300,2025-07-30 08:19:36,43.5578595163488,-5.62137579959272,47.244096,,,133.77558138056,43.307088,27.7827948,429.73754656,440.59712696,25,5,16.313,134.75983338056,48.228348,27.7827948,429.73754656,26.84328,-7.158208,0,346.5, -20.8, -1,0,0,1024,1024,1684,909,0,0,100,-17,337.5,-7.3,0,93,4.075,4.078,4.078,4.082,0,0,9.393,85.82,133.77558138056,47.244096,6,P-GPS,
39500,2025-07-30 08:19:36,43.5578814644806,-5.62138388632662,47.244096,,,133.77558138056,43.307088,28.2078134,437.9757358,448.8845288,25,5,16.313,134.75983338056,48.228348,28.2078134,437.9757358,27.290668,-7.158208,0,346.4, -20.8, -0.7,0,0,1024,1024,1673,777,0,0,98,-37,337.5,-7.3,0,93,4.075,4.078,4.078,4.082,0,0,9.393,85.82,133.77558138056,47.244096,6,P-GPS,
39700,2025-07-30 08:19:36,43.5579035681866,-5.62139197064861,47.244096,,,133.77558138056,43.307088,28.4762462,446.26969932,457.22770492,25,5,16.306,134.75983338056,48.228348,28.4762462,446.26969932,27.514362,-7.381902,0,346.6, -20.8, -1.4,0,0,1024,1024,1489,879,0,0,70,-22,337.5,-7.3,0,93,4.069,4.071,4.07,4.076,0,0,9.338,85.82,133.77558138056,47.244096,6,P-GPS,
39900,2025-07-30 08:19:36,43.5579258173462,-5.62140000628265,47.244096,,,133.77558138056,43.307088,28.9236342,454.6095946,465.62009364,25,5,16.306,134.75983338056,48.228348,28.9236342,454.6095946,27.96175,-7.381902,0,346.9, -18.3, -3.7,0,0,1024,1024,1498,885,0,0,72,-21,337.5,-7.3,0,93,4.069,4.071,4.07,4.076,0,0,9.338,85.82,133.77558138056,47.244096,6,P-GPS,
40100,2025-07-30 08:19:36,43.5579485831801,-5.62140845811683,47.244096,,,133.77558138056,43.307088,28.968373,463.16602532,474.21917528,25,5,16.306,134.75983338056,48.228348,28.968373,463.16602532,27.96175,-7.605596,-0.223694,346.6, -11.4, -3.5,0,0,1024,1024,1521,882,0,0,75,-22,337.5,-7.3,0,93,4.069,4.071,4.07,4.076,0,0,9.338,85.82,133.77558138056,47.244096,6,P-GPS,
40300,2025-07-30 08:19:36,43.5579711124306,-5.62141694678613,47.57218,,,134.10366538056,43.307088,28.5433544,471.65027756,482.73951676,25,5,16.306,134.75983338056,48.228348,28.968373,471.65027756,27.514362,-7.605596,-0.223694,346.5, -7.3, -2.8,0,0,1024,1024,1562,854,0,0,82,-26,337.5,-7.3,0,93,4.069,4.071,4.07,4.076,0,0,9.338,85.82,134.10366538056,47.57218,6,P-GPS,
