time(millisecond),datetime(utc),latitude,longitude,height_above_takeoff(feet),height_above_ground_at_drone_location(feet),ground_elevation_at_drone_location(feet),altitude_above_seaLevel(feet),height_sonar(feet),speed(mph),distance(feet),mileage(feet),satellites,gpslevel,voltage(v),max_altitude(feet),max_ascent(feet),max_speed(mph),max_distance(feet), xSpeed(mph), ySpeed(mph), zSpeed(mph), compass_heading(degrees), pitch(degrees), roll(degrees),isPhoto,isVideo,rc_elevator,rc_aileron,rc_throttle,rc_rudder,rc_elevator(percent),rc_aileron(percent),rc_throttle(percent),rc_rudder(percent),gimbal_heading(degrees),gimbal_pitch(degrees),gimbal_roll(degrees),battery_percent,voltageCell1,voltageCell2,voltageCell3,voltageCell4,voltageCell5,voltageCell6,current(A),battery_temperature(f),altitude(feet),ascent(feet),flycStateRaw,flycState,message
0,2025-07-30 09:36:16,43.5567621661508,-5.62078534300401,0,Available with any HD 360 subscription,Available with any HD 360 subscription,86.531485380556,0,0,0,0,26,5,0,86.531485380556,0,0,0,0,0,0,336, 0, 1.3,0,0,364,364,364,1684,-100,-100,-100,100,336.2,0,0,99,4.237,4.236,4.238,4.248,0,0,0,82.94,86.531485380556,0,41,Motors_Started,"Setting new Return-To-Home altitude to 25m (82 ft). Data Recorder File Index is 193. Setting new Maximum Flight Altitude to 45m (148 ft)"
200,2025-07-30 09:36:16,43.5567621840234,-5.6207853342896,0,,,86.531485380556,0,0,0.0069159122948,0.0069159122948,26,5,0,86.531485380556,0,0,0.0069159122948,0,0,0,336, 0, 1.3,0,0,364,364,364,1684,-100,-100,-100,100,336.2,0,0,99,4.237,4.236,4.238,4.248,0,0,0,82.94,86.531485380556,0,41,Motors_Started,
400,2025-07-30 09:36:16,43.5567621970531,-5.62078534415852,0,,,86.531485380556,0,0,0.0112788061352,0.0123388455392,26,5,0,86.531485380556,0,0,0.0112788061352,0,0,0,336, 0, 1.3,0,0,364,364,364,1684,-100,-100,-100,100,336.2,0,0,99,4.237,4.236,4.238,4.248,0,0,0,82.94,86.531485380556,0,41,Motors_Started,
600,2025-07-30 09:36:17,43.5567622065631,-5.62078532420332,0,,,86.531485380556,0,0,0.0155598102092,0.018653707946,26,5,0,86.531485380556,0,0,0.0155598102092,0,0,0,336, 0, 1.3,0,0,364,364,364,1684,-100,-100,-100,100,336.2,0,0,99,4.237,4.236,4.238,4.248,0,0,0,82.94,86.531485380556,0,41,Motors_Started,
800,2025-07-30 09:36:17,43.5567622087197,-5.62078532464994,0,,,86.531485380556,0,0,0.0162717196808,0.0194493444544,26,5,0,86.531485380556,0,0,0.0162717196808,0,0,0,336, 0, 1.3,0,0,364,364,364,1684,-100,-100,-100,100,336.2,0,0,99,4.237,4.236,4.238,4.248,0,0,0,82.94,86.531485380556,0,41,Motors_Started,
1000,2025-07-30 09:36:17,43.5567621906827,-5.6207853242739,0,,,86.531485380556,0,0,0.010229166994,0.026030840728,26,5,0,86.531485380556,0,0,0.0162717196808,0,0,0,336, 0, 1.3,0,0,364,364,364,1684,-100,-100,-100,100,336.2,0,0,99,4.237,4.236,4.238,4.248,0,0,0,82.94,86.531485380556,0,41,Motors_Started,
1200,2025-07-30 09:36:17,43.556762187404,-5.62078534463867,0,,,86.531485380556,0,0,0.0077662732144,0.0315466545528,26,5,0,86.531485380556,0,0,0.0162717196808,0,0,0,336, 0, 1.3,0,0,1024,1024,1024,1024,0,0,0,0,336.2,0,0,99,4.237,4.236,4.238,4.248,0,0,0,82.94,86.531485380556,0,41,Motors_Started,
1400,2025-07-30 09:36:18,43.5567621886178,-5.62078534884386,0,,,86.531485380556,0,0,0.0083412404244,0.0327434721764,26,5,16.95,86.531485380556,0,0,0.0162717196808,0,0,0,336, 0, 1.3,0,0,1024,1024,1024,1024,0,0,0,0,336.2,0,0,99,4.237,4.236,4.238,4.248,0,0,4.717,82.94,86.531485380556,0,41,Motors_Started,
1600,2025-07-30 09:36:18,43.5567621975547,-5.62078536686435,0,,,86.531485380556,0,0,0.013079724828,0.0385170616,26,5,16.95,86.531485380556,0,0,0.0162717196808,0,0,0,336, 0, 1.3,0,0,1024,1024,1024,1024,0,0,0,0,336.2,0,0,99,4.237,4.236,4.238,4.248,0,0,4.717,82.94,86.531485380556,0,10,Assisted_Takeoff,
1800,2025-07-30 09:36:18,43.5567621868821,-5.62078534334099,0,,,86.531485380556,0,0,0.0075643375124,0.045854988344,26,5,16.95,86.531485380556,0,0,0.0162717196808,0,0,0,336, 0, 1.3,0,0,1684,1024,1024,1024,100,0,0,0,336.2,0,0,99,4.237,4.236,4.238,4.248,0,0,4.717,82.94,86.531485380556,0,10,Assisted_Takeoff,
2000,2025-07-30 09:36:18,43.5567621874074,-5.62078533804805,0,,,86.531485380556,0,0,0.0078653545824,0.047267389964,26,5,16.95,86.531485380556,0,0,0.0162717196808,0,0,0,336, 0, 1.3,0,0,1684,1024,1024,1024,100,0,0,0,336.2,0,0,99,4.237,4.236,4.238,4.248,0,0,4.717,82.94,86.531485380556,0,10,Assisted_Takeoff,
2200,2025-07-30 09:36:18,43.5567621899599,-5.62078531153432,0,,,86.531485380556,0,0,0.0120288389676,0.054339568668,27,5,16.95,86.531485380556,0,0,0.0162717196808,0,0,0,336, -0.2, 1.3,0,0,1683,1037,1024,1024,100,2,0,0,336.2,0,0,99,4.237,4.236,4.238,4.248,0,0,4.717,82.94,86.531485380556,0,10,Assisted_Takeoff,
2400,2025-07-30 09:36:19,43.5567622338987,-5.62078534423697,0,,,86.531485380556,0,0,0.0247199482976,0.072553808096,26,5,17.06,86.531485380556,0,0,0.0247199482976,0,0,0,335.6, -3.2, 1.3,0,0,1682,1040,1024,1024,100,2,0,0,336.2,0,0,99,4.254,4.249,4.243,4.245,0,0,2.507,82.94,86.531485380556,0,10,Assisted_Takeoff,
2600,2025-07-30 09:36:19,43.5567624991053,-5.62078547454902,0,,,86.531485380556,0.328084,0.447388,0.126359256012,0.17526575364,26,5,17.06,86.531485380556,0,0.447388,0.126359256012,0.447388,0,-0.894776,335.6, -2.5, 0.9,0,0,1682,1045,1024,1024,100,3,0,0,336.2,0,0,99,4.254,4.249,4.243,4.245,0,0,2.507,82.94,86.531485380556,0,6,P-GPS,
2800,2025-07-30 09:36:19,43.5567629842841,-5.62078567748796,0.656168,,,87.187653380556,0.656168,0.447388,0.311321204188,0.360236232,26,5,17.06,87.187653380556,0.656168,0.447388,0.311321204188,0.447388,0,-2.23694,336, 5.2, -0.9,0,0,1682,1046,1024,1024,100,3,0,0,336.2,0,0,99,4.254,4.249,4.243,4.245,0,0,2.507,82.94,87.187653380556,0.656168,6,P-GPS,
3000,2025-07-30 09:36:19,43.5567631759654,-5.62078581246431,1.64042,,,88.171905380556,1.64042,0,0.38877954,0.43875001404,24,5,17.06,88.171905380556,1.64042,0.447388,0.38877954,0,0,-4.026492,336, 3.6, -0.1,0,0,1682,1046,1024,1024,100,3,0,0,336.2,0,0,99,4.254,4.249,4.243,4.245,0,0,2.507,82.94,88.171905380556,1.64042,6,P-GPS,
3200,2025-07-30 09:36:19,43.556763103084,-5.62078583803995,2.952756,,,89.484241380556,3.28084,0,0.36604003796,0.46618767896,24,5,17.06,89.484241380556,2.952756,0.447388,0.38877954,0,0,-6.039738,336.2, 0.5, 0.2,0,0,1682,1058,1024,1024,100,5,0,0,336.2,0,0,99,4.254,4.249,4.243,4.245,0,0,2.507,82.94,89.484241380556,2.952756,6,P-GPS,
3400,2025-07-30 09:36:20,43.5567629899426,-5.62078570077209,5.249344,,,91.780829380556,5.577428,0,0.315094498272,0.52115487232,24,5,16.641,91.780829380556,5.249344,0.447388,0.38877954,0,0,-8.052984,336, 0.1, 0.8,0,0,1682,1063,1024,1024,100,6,0,0,336.2,0,0,99,4.144,4.14,4.133,4.137,0,0,9.413,82.76,91.780829380556,5.249344,6,P-GPS,
3600,2025-07-30 09:36:20,43.5567628917038,-5.62078558437014,8.2021,,,94.733585380556,8.2021,0,0.2723015179,0.56839568748,24,4,16.641,94.733585380556,8.2021,0.447388,0.38877954,0,0,-10.289924,336.2, 0.8, 0.8,0,0,1682,1068,1024,1024,100,7,0,0,336.2,0,0,99,4.144,4.14,4.133,4.137,0,0,9.413,82.76,94.733585380556,8.2021,6,P-GPS,
3800,2025-07-30 09:36:20,43.5567627403225,-5.6207853382697,11.48294,,,98.014425380556,11.48294,0,0.2094898361,0.65374674008,24,4,16.641,98.014425380556,11.48294,0.447388,0.38877954,0,0,-12.30317,336.3, -0.3, -0.4,0,0,1682,1069,1024,1024,100,7,0,0,336.3,0,0,99,4.144,4.14,4.133,4.137,0,0,9.413,82.76,98.014425380556,11.48294,6,P-GPS,
4000,2025-07-30 09:36:20,43.5567626162727,-5.62078519069136,15.419948,,,101.95143338056,15.419948,0,0.169092525096,0.71350395984,24,4,16.641,101.95143338056,15.419948,0.447388,0.38877954,0,0,-13.42164,336.4, -0.5, -0.5,0,0,1682,1069,1024,1024,100,7,0,0,336.3,0,0,99,4.144,4.14,4.133,4.137,0,0,9.413,82.76,101.95143338056,15.419948,6,P-GPS,
4200,2025-07-30 09:36:20,43.5567623944905,-5.6207852026595,20.013124,,,106.54460938056,19.028872,0.223694,0.091200134152,0.79448493356,24,4,16.641,106.54460938056,20.013124,0.447388,0.38877954,-0.223694,0,-13.645334,336.5, -1.6, 1.3,0,0,1615,1024,1024,1024,90,0,0,0,336.4,0,0,99,4.144,4.14,4.133,4.137,0,0,9.413,82.76,106.54460938056,20.013124,6,P-GPS,
4400,2025-07-30 09:36:21,43.5567621614042,-5.6207852676999,23.950132,,,110.48161738056,22.96588,0,0.0199858274112,0.88124674736,24,4,16.437,110.48161738056,23.950132,0.447388,0.38877954,0,0,-13.42164,336.5, -2.7, 2.7,0,0,1547,1024,1024,1024,79,0,0,0,336.4,0,0,99,4.133,4.135,4.135,4.142,0,0,16.481,82.76,110.48161738056,23.950132,6,P-GPS,
4600,2025-07-30 09:36:21,43.5567619501685,-5.62078535089867,27.88714,,,114.41862538056,26.574804,0,0.07882874268,0.96139438772,24,5,16.437,114.41862538056,27.88714,0.447388,0.38877954,0,0,-12.526864,336.5, -2.9, 3.2,0,0,1179,1024,1024,1024,23,0,0,0,336.4,0,0,99,4.133,4.135,4.135,4.142,0,0,16.481,82.76,114.41862538056,27.88714,6,P-GPS,
4800,2025-07-30 09:36:21,43.5567618842825,-5.62078544119663,31.496064,,,118.02754938056,29.855644,0,0.106065948276,0.9952756224,24,5,16.437,118.02754938056,31.496064,0.447388,0.38877954,0,0,-10.737312,336.5, -2.5, 3.3,0,0,1024,1024,1024,1024,0,0,0,0,336.4,0,0,99,4.133,4.135,4.135,4.142,0,0,16.481,82.76,118.02754938056,31.496064,6,P-GPS,
5000,2025-07-30 09:36:21,43.5567618950943,-5.62078552423265,33.792652,,,120.32413738056,32.8084,0,0.109892063884,1.01758205356,24,5,16.437,120.32413738056,33.792652,0.447388,0.38877954,0,0,-8.500372,336.5, -2.1, 3.3,0,0,1048,1024,1024,1024,4,0,0,0,336.4,0,0,99,4.133,4.135,4.135,4.142,0,0,16.481,82.76,120.32413738056,33.792652,6,P-GPS,
5200,2025-07-30 09:36:21,43.5567619422573,-5.62078552740598,35.761156,,,122.29264138056,34.776904,0,0.095131564724,1.0348097444,24,5,16.437,122.29264138056,35.761156,0.447388,0.38877954,0,0,-6.039738,336.6, -1.9, 3.5,0,0,1682,1259,1024,1024,100,36,0,0,336.5,0,0,99,4.133,4.135,4.135,4.142,0,0,16.481,82.76,122.29264138056,35.761156,6,P-GPS,
5400,2025-07-30 09:36:22,43.5567620004858,-5.62078540968523,37.073492,,,123.60497738056,36.08924,0,0.062961616188,1.07249347264,24,5,16.834,123.60497738056,37.073492,0.447388,0.38877954,0,0,-4.47388,336.8, -1.6, 3.1,0,0,1684,1131,1024,1024,100,16,0,0,337.9,0,0,99,4.222,4.221,4.219,4.224,0,0,8.921,83.12,123.60497738056,37.073492,6,P-GPS,
5600,2025-07-30 09:36:22,43.5567620791354,-5.62078524704304,38.385828,,,124.91731338056,37.72966,0,0.040640749332,1.12419294936,24,5,16.834,124.91731338056,38.385828,0.447388,0.38877954,0,0,-6.039738,338.1, -1.2, 2.3,0,0,1683,1136,1024,1024,100,17,0,0,338.1,0,0,99,4.222,4.221,4.219,4.224,0,0,8.921,83.12,124.91731338056,38.385828,6,P-GPS,
5800,2025-07-30 09:36:22,43.5567621666951,-5.62078494944319,40.026248,,,126.55773338056,38.713912,0,0.104059058448,1.20911421192,24,5,16.834,126.55773338056,40.026248,0.447388,0.38877954,0,0,-8.052984,338.2, -0.9, 1.8,0,0,1682,1126,1024,1024,100,15,0,0,338.3,0,0,99,4.222,4.221,4.219,4.224,0,0,8.921,83.12,126.55773338056,40.026248,6,P-GPS,
6000,2025-07-30 09:36:22,43.5567622838695,-5.62078467909045,42.65092,,,129.18240538056,38.713912,0,0.180718837804,1.292404897,24,5,16.834,129.18240538056,42.65092,0.447388,0.38877954,0,0,-10.513618,338.4, -0.7, 1.2,0,0,1176,1024,1024,1024,23,0,0,0,338.4,0,0,99,4.222,4.221,4.219,4.224,0,0,8.921,83.12,129.18240538056,42.65092,6,P-GPS,
6200,2025-07-30 09:36:22,43.5567624029266,-5.6207843121252,45.93176,,,132.46324538056,38.713912,0,0.28593012726,1.39871395552,24,5,16.834,132.46324538056,45.93176,0.447388,0.38877954,0,0,-11.1847,338.6, -1.2, 1.2,0,0,1024,1024,1024,1024,0,0,0,0,338.5,0,0,99,4.222,4.221,4.219,4.224,0,0,8.921,83.12,132.46324538056,45.93176,6,P-GPS,
6400,2025-07-30 09:36:22,43.5567624490941,-5.62078407601205,49.2126,,,135.74408538056,38.713912,0,0.3505413498,1.46337275024,24,5,16.402,135.74408538056,49.2126,0.447388,0.38877954,0,0,-9.395148,338.6, -1.5, 0.8,0,0,1175,1024,1024,1024,23,0,0,0,338.5,0,0,99,4.083,4.082,4.106,4.166,0,0,12.651,82.94,135.74408538056,49.2126,6,P-GPS,
6600,2025-07-30 09:36:23,43.5567624043072,-5.62078378613096,51.837272,,,138.36875738056,38.713912,0,0.42071195572,1.54174217532,24,5,16.402,138.36875738056,51.837272,0.447388,0.42071195572,0,0,-7.158208,338.6, -1.8, 0.4,0,0,1647,1024,1024,1024,94,0,0,0,338.5,0,0,99,4.083,4.082,4.106,4.166,0,0,12.651,82.94,138.36875738056,51.837272,6,P-GPS,
6800,2025-07-30 09:36:23,43.5567623527081,-5.62078370224665,53.805776,,,140.33726138056,38.713912,0,0.43913059148,1.5708333836,24,5,16.402,140.33726138056,53.805776,0.447388,0.43913059148,0,0,-5.368656,338.5, -1.7, 0,0,0,1659,1024,1024,1024,96,0,0,0,338.5,0,0,99,4.083,4.082,4.106,4.166,0,0,12.651,82.94,140.33726138056,53.805776,6,P-GPS,
7000,2025-07-30 09:36:23,43.5567622629555,-5.62078382695067,55.446196,,,141.97768138056,38.713912,0,0.40240158768,1.61730320136,24,5,16.402,141.97768138056,55.446196,0.447388,0.43913059148,0,0,-6.934514,338.5, -1.4, 0.7,0,0,1092,1024,1024,1024,10,0,0,0,338.5,0,0,99,4.083,4.082,4.106,4.166,0,0,12.651,82.94,141.97768138056,55.446196,6,P-GPS,
7200,2025-07-30 09:36:23,43.5567622007583,-5.62078408940046,57.742784,,,144.27426938056,38.713912,0.223694,0.33169620484,1.69031173388,24,5,16.402,144.27426938056,57.742784,0.447388,0.43913059148,0,-0.223694,-7.158208,338.6, -1.1, 2.6,0,0,1024,1024,1024,1024,0,0,0,0,338.5,0,0,99,4.083,4.082,4.106,4.166,0,0,12.651,82.94,144.27426938056,57.742784,6,P-GPS,
7400,2025-07-30 09:36:23,43.5567621114846,-5.62078438319463,59.383204,,,145.91468938056,38.713912,0,0.254559391348,1.77454730088,24,5,16.517,145.91468938056,59.383204,0.447388,0.43913059148,0,0,-5.144962,338.6, -1.3, 3.5,0,0,1024,1024,1024,1024,0,0,0,0,338.5,0,0,99,4.108,4.104,4.172,4.2,0,0,9.182,83.12,145.91468938056,59.383204,6,P-GPS,
7600,2025-07-30 09:36:24,43.5567620457998,-5.62078461241171,60.367456,,,146.89894138056,38.713912,0,0.19809875962,1.83971790664,24,5,16.517,146.89894138056,60.367456,0.447388,0.43913059148,0,0,-2.684328,338.6, -1.7, 4,0,0,1024,1024,1024,1024,0,0,0,0,338.5,0,0,99,4.108,4.104,4.172,4.2,0,0,9.182,83.12,146.89894138056,60.367456,6,P-GPS,
7800,2025-07-30 09:36:24,43.5567619873427,-5.62078479438754,61.023624,,,147.55510938056,38.713912,0,0.159051186192,1.89234914192,24,5,16.517,147.55510938056,61.023624,0.447388,0.43913059148,0,0,-0.671082,338.6, -1.8, 4.1,0,0,1024,1024,1024,1024,0,0,0,0,338.4,0,0,99,4.108,4.104,4.172,4.2,0,0,9.182,83.12,147.55510938056,61.023624,6,P-GPS,
8000,2025-07-30 09:36:24,43.5567619244351,-5.62078489487635,61.023624,,,147.55510938056,38.713912,0,0.147704072968,1.92745741076,24,5,16.517,147.55510938056,61.023624,0.447388,0.43913059148,0,0,0,338.5, -1.8, 3.7,0,0,1024,1024,1024,1024,0,0,0,0,338.4,0,0,99,4.108,4.104,4.172,4.2,0,0,9.182,83.12,147.55510938056,61.023624,6,P-GPS,
8200,2025-07-30 09:36:24,43.5567618309811,-5.62078491201856,60.69554,,,147.22702538056,38.713912,0,0.167151252068,1.96185373732,24,5,16.517,147.55510938056,61.023624,0.447388,0.43913059148,0,0,0,338.5, -1.7, 3.5,0,0,1024,1024,1024,1024,0,0,0,0,338.4,0,0,99,4.108,4.104,4.172,4.2,0,0,9.182,83.12,147.22702538056,60.69554,6,P-GPS,
8400,2025-07-30 09:36:25,43.556761818325,-5.620784894485,60.69554,,,147.22702538056,38.713912,0,0.173689966188,1.96839901312,24,5,16.882,147.55510938056,61.023624,0.447388,0.43913059148,0,0,0,338.4, -1.7, 3.2,0,0,1024,1024,1024,1024,0,0,0,0,338.2,0,0,99,4.191,4.189,4.184,4.188,0,0,5.838,83.48,147.22702538056,60.69554,6,P-GPS,
8600,2025-07-30 09:36:25,43.5567618629273,-5.62078479971905,60.367456,,,146.89894138056,38.713912,0,0.181310373256,1.99827434216,24,5,16.882,147.55510938056,61.023624,0.447388,0.43913059148,0,0,0,338.3, -1.7, 2.9,0,0,1024,1024,1024,1024,0,0,0,0,338.2,0,0,99,4.191,4.189,4.184,4.188,0,0,5.838,83.48,146.89894138056,60.367456,6,P-GPS,
8800,2025-07-30 09:36:25,43.5567619169233,-5.62078469347867,60.367456,,,146.89894138056,38.713912,0,0.1943241532,2.03258536688,24,5,16.882,147.55510938056,61.023624,0.447388,0.43913059148,0,0,0,338.3, -1.8, 2.7,0,0,1024,1024,1024,1024,0,0,0,0,338.2,0,0,99,4.191,4.189,4.184,4.188,0,0,5.838,83.48,146.89894138056,60.367456,6,P-GPS,
9000,2025-07-30 09:36:25,43.5567619730072,-5.62078454763376,60.69554,,,147.22702538056,38.713912,0,0.221791017596,2.07624022392,24,5,16.882,147.55510938056,61.023624,0.447388,0.43913059148,0,0,0,338.2, -2, 2.4,0,0,1024,1024,1024,1024,0,0,0,0,338.2,0,0,99,4.191,4.189,4.184,4.188,0,0,5.838,83.48,147.22702538056,60.69554,6,P-GPS,
9200,2025-07-30 09:36:25,43.5567620450084,-5.62078448271777,61.023624,,,147.55510938056,38.713912,0,0.231717199016,2.10761817768,24,5,16.882,147.55510938056,61.023624,0.447388,0.43913059148,0,0,0,338.2, -3.7, 2.6,0,0,1024,1024,1024,1024,0,0,0,0,338.2,0,0,99,4.191,4.189,4.184,4.188,0,0,5.838,83.48,147.55510938056,61.023624,6,P-GPS,
9400,2025-07-30 09:36:26,43.5567621501184,-5.62078446405264,61.023624,,,147.55510938056,38.713912,0,0.232471464132,2.14628615792,24,5,16.729,147.55510938056,61.023624,0.447388,0.43913059148,0,0,0,338.3, -3, 2.6,0,0,1024,1024,1254,1024,0,0,35,0,338.2,0,0,99,4.185,4.184,4.18,4.185,0,0,7.971,83.48,147.55510938056,61.023624,6,P-GPS,
9600,2025-07-30 09:36:26,43.5567623285869,-5.62078452014076,61.351708,,,147.88319338056,38.713912,0,0.225495085956,2.21306765612,24,5,16.729,147.88319338056,61.351708,0.447388,0.43913059148,0,0,0,338.3, -2.5, 1.8,0,0,1024,1024,1684,1024,0,0,100,0,338.2,0,0,99,4.185,4.184,4.18,4.185,0,0,7.971,83.48,147.88319338056,61.351708,6,P-GPS,
9800,2025-07-30 09:36:26,43.5567625609599,-5.62078465488188,61.351708,,,147.88319338056,38.713912,0.223694,0.23206037488,2.30502960132,24,5,16.729,147.88319338056,61.351708,0.447388,0.43913059148,0.223694,0,0,338.1, -10.8, 2.4,0,0,1024,1024,1684,1024,0,0,100,0,338.2,0,0,99,4.185,4.184,4.18,4.185,0,0,7.971,83.48,147.88319338056,61.351708,6,P-GPS,
10000,2025-07-30 09:36:26,43.5567633297662,-5.62078511162241,61.351708,,,147.88319338056,38.713912,1.4092722,0.42893045992,2.61042003104,24,5,16.729,147.88319338056,61.351708,1.4092722,0.43913059148,1.342164,-0.447388,0,337.6, -25.9, 3,0,0,1024,1024,1684,1024,0,0,100,0,338.2,0,0,99,4.185,4.184,4.18,4.185,0,0,7.971,83.48,147.88319338056,61.351708,6,P-GPS,
10200,2025-07-30 09:36:26,43.5567654624368,-5.62078628366972,61.351708,,,147.88319338056,38.713912,3.6238428,1.22809715216,3.4479659896,24,5,16.729,147.88319338056,61.351708,3.6238428,1.22809715216,3.35541,-1.342164,0,337.6, -29, 3.1,0,0,1024,1024,1684,1024,0,0,100,0,338.2,0,0,99,4.185,4.184,4.18,4.185,0,0,7.971,83.48,147.88319338056,61.351708,6,P-GPS,
10400,2025-07-30 09:36:27,43.5567691917589,-5.62078831013232,61.351708,,,147.88319338056,38.713912,5.7265664,2.68065625376,4.9103019944,24,5,16.729,147.88319338056,61.351708,5.7265664,2.68065625376,5.368656,-2.013246,0,337.6, -29, 2.8,0,0,1024,1024,1684,1024,0,0,100,0,338.2,0,0,99,4.174,4.17,4.165,4.169,0,0,7.847,83.66,147.88319338056,61.351708,6,P-GPS,
10600,2025-07-30 09:36:27,43.5567748543572,-5.62079081805545,61.351708,,,147.88319338056,38.713912,7.7845512,4.8503610476,7.0801183368,24,5,16.729,147.88319338056,61.351708,7.7845512,4.8503610476,7.381902,-2.460634,0,339.6, -29.2, 2.1,0,0,1024,1024,1684,1024,0,0,100,0,338.2,0,0,99,4.174,4.17,4.165,4.169,0,0,7.847,83.66,147.88319338056,61.351708,6,P-GPS,
10800,2025-07-30 09:36:27,43.5567819747793,-5.62079402288682,61.351708,,,147.88319338056,38.713912,9.842536,7.5828086416,9.8126971644,24,5,16.729,147.88319338056,61.351708,9.842536,7.5828086416,9.395148,-2.908022,0,341.4, -27.4, 1.6,0,0,1024,1024,1684,1024,0,0,100,0,338.2,0,0,99,4.174,4.17,4.165,4.169,0,0,7.847,83.66,147.88319338056,61.351708,6,P-GPS,
11000,2025-07-30 09:36:27,43.5567911081247,-5.62079717732878,61.679792,,,148.21127738056,38.713912,11.4531328,11.0133205624,13.2477694528,24,5,16.729,148.21127738056,61.679792,11.4531328,11.0133205624,10.961006,-3.35541,0,342.3, -26.5, 0.8,0,0,1024,1024,1684,1024,0,0,100,0,338.2,0,0,99,4.174,4.17,4.165,4.169,0,0,7.847,83.66,148.21127738056,61.679792,6,P-GPS,
11200,2025-07-30 09:36:27,43.5568011199778,-5.62080124190769,61.679792,,,148.21127738056,38.713912,13.086099,14.8209322328,17.0554139316,24,5,16.729,148.21127738056,61.679792,13.086099,14.8209322328,12.526864,-3.802798,0,342.5, -26, 0.8,0,0,1024,1024,1684,1024,0,0,100,0,338.2,0,0,99,4.174,4.17,4.165,4.169,0,0,7.847,83.66,148.21127738056,61.679792,6,P-GPS,
11400,2025-07-30 09:36:27,43.5568126794978,-5.62080537442705,61.679792,,,148.21127738056,38.713912,14.4953712,19.1757223984,21.4121397928,24,5,16.65,148.21127738056,61.679792,14.4953712,19.1757223984,13.869028,-4.250186,0,342.9, -25.8, 1.3,0,0,1024,1024,1684,1024,0,0,100,0,338.2,0,0,99,4.165,4.163,4.159,4.164,0,0,9.508,83.66,148.21127738056,61.679792,6,P-GPS,
11600,2025-07-30 09:36:28,43.5568248426598,-5.62081028243404,61.679792,,,148.21127738056,38.713912,15.8599046,23.7992461684,26.0356963712,24,5,16.65,148.21127738056,61.679792,15.8599046,23.7992461684,15.211192,-4.47388,0,342.9, -25.5, 1.5,0,0,1024,1024,1684,1024,0,0,100,0,338.2,0,0,99,4.165,4.163,4.159,4.164,0,0,9.508,83.66,148.21127738056,61.679792,6,P-GPS,
11800,2025-07-30 09:36:28,43.5568377753967,-5.62081529172937,61.679792,,,148.21127738056,38.713912,17.0454828,28.7000009184,30.9365495464,24,5,16.65,148.21127738056,61.679792,17.0454828,28.7000009184,16.329662,-4.921268,0,342.6, -25.4, 1.8,0,0,1024,1024,1684,1024,0,0,100,0,338.2,0,0,99,4.165,4.163,4.159,4.164,0,0,9.508,83.66,148.21127738056,61.679792,6,P-GPS,
12000,2025-07-30 09:36:28,43.5568516980262,-5.62082103568392,61.679792,,,148.21127738056,38.713912,18.2534304,34.001641508,36.23851822,24,5,16.65,148.21127738056,61.679792,18.2534304,34.001641508,17.448132,-5.368656,0,342.6, -25.6, 2.2,0,0,1024,1024,1684,1024,0,0,100,0,338.2,0,0,99,4.165,4.163,4.159,4.164,0,0,9.508,83.66,148.21127738056,61.679792,6,P-GPS,
12200,2025-07-30 09:36:28,43.5568665373805,-5.62082691819424,61.679792,,,148.21127738056,38.713912,19.5955944,39.634515704,41.871392416,24,5,16.65,148.21127738056,61.679792,19.5955944,39.634515704,18.790296,-5.59235,0,342.9, -24.5, 2.1,0,0,1024,1024,1684,1024,0,0,100,0,338.2,0,0,99,4.165,4.163,4.159,4.164,0,0,9.508,83.66,148.21127738056,61.679792,6,P-GPS,
12400,2025-07-30 09:36:29,43.5568822929618,-5.6208333684135,61.679792,,,148.21127738056,38.713912,20.5351092,45.630578888,47.8674556,24,5,16.642,148.21127738056,61.679792,20.5351092,45.630578888,19.685072,-5.816044,0,343, -24.2, 2.2,0,0,1024,1024,1684,1024,0,0,100,0,338.2,0,0,99,4.161,4.159,4.155,4.16,0,0,9.495,83.84,148.21127738056,61.679792,6,P-GPS,
12600,2025-07-30 09:36:29,43.5568988984476,-5.62084000085841,61.679792,,,148.21127738056,38.713912,21.4522546,51.937665704,54.1748705,24,5,16.642,148.21127738056,61.679792,21.4522546,51.937665704,20.579848,-6.039738,0,343, -24.4, 2.4,0,0,1024,1024,1684,1024,0,0,100,0,338.2,0,0,99,4.161,4.159,4.155,4.16,0,0,9.495,83.84,148.21127738056,61.679792,6,P-GPS,
12800,2025-07-30 09:36:29,43.5569159758479,-5.62084694460013,61.679792,,,148.21127738056,38.713912,22.3694,58.43340082,60.670277532,24,5,16.642,148.21127738056,61.679792,22.3694,58.43340082,21.474624,-6.263432,0,343.1, -24, 2.2,0,0,1024,1024,1684,1024,0,0,100,0,338.2,0,0,99,4.161,4.159,4.155,4.16,0,0,9.495,83.84,148.21127738056,61.679792,6,P-GPS,
13000,2025-07-30 09:36:29,43.5569336611796,-5.6208540653497,61.679792,,,148.21127738056,38.713912,23.2865454,65.154857728,67.39173444,24,5,16.642,148.21127738056,61.679792,23.2865454,65.154857728,22.3694,-6.487126,0,343.2, -23.6, 2.3,0,0,1024,1024,1684,1024,0,0,100,0,338.2,0,0,99,4.161,4.159,4.155,4.16,0,0,9.495,83.84,148.21127738056,61.679792,6,P-GPS,
13200,2025-07-30 09:36:29,43.5569520197401,-5.62086153621824,61.679792,,,148.21127738056,38.713912,24.0023662,72.138125668,74.375330464,24,5,16.642,148.21127738056,61.679792,24.0023662,72.138125668,23.040482,-6.71082,0,343.2, -23.7, 2.4,0,0,1024,1024,1684,1024,0,0,100,0,338.2,0,0,99,4.161,4.159,4.155,4.16,0,0,9.495,83.84,148.21127738056,61.679792,6,P-GPS,
13400,2025-07-30 09:36:29,43.5569711785489,-5.62086932401591,61.679792,,,148.21127738056,38.713912,24.6958176,79.425199392,81.662076104,24,5,16.642,148.21127738056,61.679792,24.6958176,79.425199392,23.711564,-6.934514,0,343.2, -23.9, 2.4,0,0,1024,1024,1684,1024,0,0,100,0,338.2,0,0,99,4.161,4.159,4.155,4.16,0,0,9.495,83.84,148.21127738056,61.679792,6,P-GPS,
13600,2025-07-30 09:36:30,43.5569908403015,-5.62087731334458,61.679792,,,148.21127738056,38.713912,25.4116384,86.903218004,89.1404228,24,5,16.627,148.21127738056,61.679792,25.4116384,86.903218004,24.382646,-7.158208,0,343.2, -23.5, 2.4,0,0,1024,1024,1684,1024,0,0,100,0,338.2,0,0,98,4.161,4.159,4.154,4.159,0,0,9.581,83.84,148.21127738056,61.679792,6,P-GPS,
13800,2025-07-30 09:36:30,43.5570106054757,-5.62088533781001,61.351708,,,147.88319338056,38.713912,26.1274592,94.420278612,96.657155324,24,5,16.627,148.21127738056,61.679792,26.1274592,94.420278612,25.053728,-7.381902,0,343.3, -23.4, 2.4,0,0,1024,1024,1684,1024,0,0,100,0,338.2,0,0,98,4.161,4.159,4.154,4.159,0,0,9.581,83.84,147.88319338056,61.351708,6,P-GPS,
14000,2025-07-30 09:36:30,43.5570310670076,-5.62089363172196,61.351708,,,147.88319338056,38.713912,26.5524778,102.200790672,104.437995468,24,5,16.627,148.21127738056,61.679792,26.5524778,102.200790672,25.501116,-7.381902,0,343.2, -23.3, 2.6,0,0,1024,1024,1684,1024,0,0,100,0,338.2,0,0,98,4.161,4.159,4.154,4.159,0,0,9.581,83.84,147.88319338056,61.351708,6,P-GPS,
14200,2025-07-30 09:36:30,43.5570519357576,-5.62090211005967,61.351708,,,147.88319338056,38.713912,27.0446046,110.138126884,112.37533168,24,5,16.627,148.21127738056,61.679792,27.0446046,110.138126884,25.948504,-7.605596,0,343.3, -23.6, 2.5,0,0,1024,1024,1684,1024,0,0,100,0,338.2,0,0,98,4.161,4.159,4.154,4.159,0,0,9.581,83.84,147.88319338056,61.351708,6,P-GPS,
14400,2025-07-30 09:36:30,43.5570733115985,-5.62091073330424,61.351708,,,147.88319338056,38.713912,27.738056,118.263455228,120.500660024,24,5,16.627,148.21127738056,61.679792,27.738056,118.263455228,26.619586,-7.82929,0,343.2, -22.9, 2.4,0,0,1024,1024,1684,1024,0,0,100,0,338.2,0,0,98,4.161,4.159,4.154,4.159,0,0,9.581,83.84,147.88319338056,61.351708,6,P-GPS,
14600,2025-07-30 09:36:31,43.5570950886091,-5.6209195398988,61.351708,,,147.88319338056,38.713912,28.185444,126.542983052,128.780187848,24,5,16.625,148.21127738056,61.679792,28.185444,126.542983052,27.066974,-7.82929,0,343.2, -22.9, 2.4,0,0,1024,1024,1684,1024,0,0,100,0,338.2,-0.3,0,98,4.157,4.154,4.152,4.158,0,0,9.423,83.84,147.88319338056,61.351708,6,P-GPS,
14800,2025-07-30 09:36:31,43.5571171958215,-5.6209284383102,61.351708,,,147.88319338056,38.713912,28.6104626,134.944886208,137.182091004,24,5,16.625,148.21127738056,61.679792,28.6104626,134.944886208,27.514362,-7.82929,0,343.3, -22.8, 2.4,0,0,1024,1024,1684,1024,0,0,100,0,338.2,-3.4,0,98,4.157,4.154,4.152,4.158,0,0,9.423,83.84,147.88319338056,61.351708,6,P-GPS,
15000,2025-07-30 09:36:31,43.557139569612,-5.62093745026022,61.351708,,,147.88319338056,38.713912,28.8788954,143.448495404,145.6857002,24,5,16.625,148.21127738056,61.679792,28.8788954,143.448495404,27.738056,-8.052984,0,343.4, -22.4, 2,0,0,1024,1024,1684,1024,0,0,100,0,338.2,-5.3,0,98,4.157,4.154,4.152,4.158,0,0,9.423,83.84,147.88319338056,61.351708,6,P-GPS,
15200,2025-07-30 09:36:31,43.5571622918126,-5.62094655825939,61.351708,,,147.88319338056,38.713912,29.303914,152.081369696,154.318574492,24,5,16.625,148.21127738056,61.679792,29.303914,152.081369696,28.185444,-8.052984,0,343.5, -22.3, 1.8,0,0,1024,1024,1684,1024,0,0,100,0,338.2,-5.6,0,98,4.157,4.154,4.152,4.158,0,0,9.423,83.84,147.88319338056,61.351708,6,P-GPS,
15400,2025-07-30 09:36:32,43.5571852547193,-5.62095580950445,61.351708,,,147.88319338056,38.713912,29.5947162,160.809060264,163.04626506,24,5,16.625,148.21127738056,61.679792,29.5947162,160.809060264,28.409138,-8.276678,0,343.4, -21.8, 2.2,0,0,1024,1024,1684,1024,0,0,100,0,338.2,-5.6,0,98,4.157,4.154,4.152,4.158,0,0,9.423,83.84,147.88319338056,61.351708,6,P-GPS,
15600,2025-07-30 09:36:32,43.5572084747923,-5.62096514476964,61.023624,,,147.55510938056,38.713912,30.0197348,169.633207528,171.870412324,24,5,16.601,148.21127738056,61.679792,30.0197348,169.633207528,28.856526,-8.276678,0,343.4, -21.3, 2.4,0,0,1024,1024,1684,1242,0,0,100,33,338.2,-5.6,0,98,4.157,4.155,4.151,4.156,0,0,9.576,84.02,147.55510938056,61.023624,6,P-GPS,
15800,2025-07-30 09:36:32,43.5572318184909,-5.62097458113239,61.023624,,,147.55510938056,38.713912,30.2881676,178.508207812,180.745412608,24,5,16.601,148.21127738056,61.679792,30.2881676,178.508207812,29.08022,-8.500372,0,343.3, -21.4, 2.5,0,0,1024,1024,1684,1398,0,0,100,57,338.2,-5.6,0,98,4.157,4.155,4.151,4.156,0,0,9.576,84.02,147.55510938056,61.023624,6,P-GPS,
16000,2025-07-30 09:36:32,43.5572553610669,-5.62098401177893,61.023624,,,147.55510938056,38.713912,30.2881676,187.452105736,189.689310532,24,5,16.601,148.21127738056,61.679792,30.2881676,187.452105736,29.08022,-8.500372,0,342.8, -21.3, 6.3,0,0,1024,1024,1684,1397,0,0,100,57,338.2,-5.6,0,98,4.157,4.155,4.151,4.156,0,0,9.576,84.02,147.55510938056,61.023624,6,P-GPS,
16200,2025-07-30 09:36:32,43.5572790864602,-5.62099322291318,61.023624,,,147.55510938056,38.713912,30.6013392,196.443903924,198.681764888,24,5,16.601,148.21127738056,61.679792,30.6013392,196.443903924,29.527608,-8.052984,0,342.1, -20.4, 11.2,0,0,1024,1024,1684,1396,0,0,100,56,338.2,-5.6,0,98,4.157,4.155,4.151,4.156,0,0,9.576,84.02,147.55510938056,61.023624,6,P-GPS,
16400,2025-07-30 09:36:33,43.5573030781807,-5.62100176919912,61.023624,,,147.55510938056,38.713912,30.646078,205.480321536,207.722119508,24,5,16.601,148.21127738056,61.679792,30.646078,205.480321536,29.751302,-7.381902,0,342.1, -19.9, 12.4,0,0,1024,1024,1684,1372,0,0,100,53,338.2,-5.6,0,98,4.157,4.155,4.151,4.156,0,0,9.576,84.02,147.55510938056,61.023624,6,P-GPS,
16600,2025-07-30 09:36:33,43.5573272659114,-5.6210095408755,61.023624,,,147.55510938056,38.713912,30.9368802,214.528878256,216.78314342,24,5,16.62,148.21127738056,61.679792,30.9368802,214.528878256,30.19869,-6.71082,0,342.2, -19.8, 11.6,0,0,1024,1024,1684,1380,0,0,100,54,338.2,-5.6,0,98,4.15,4.149,4.145,4.149,0,0,9.278,84.02,147.55510938056,61.023624,6,P-GPS,
16800,2025-07-30 09:36:33,43.5573516766893,-5.6210166872469,61.023624,,,147.55510938056,38.713912,30.8474026,223.611227628,225.88747442,24,5,16.62,148.21127738056,61.679792,30.9368802,223.611227628,30.19869,-6.263432,0,342.4, -20.4, 10.3,0,0,1024,1024,1684,1373,0,0,100,53,338.2,-5.6,0,98,4.15,4.149,4.145,4.149,0,0,9.278,84.02,147.55510938056,61.023624,6,P-GPS,
17000,2025-07-30 09:36:33,43.5573761998304,-5.6210231240739,61.023624,,,147.55510938056,38.713912,30.981619,232.684390648,234.99508626,24,5,16.62,148.21127738056,61.679792,30.981619,232.684390648,30.422384,-5.816044,0,342.5, -20.7, 10,0,0,1024,1024,1684,1396,0,0,100,56,338.2,-5.6,0,98,4.15,4.149,4.145,4.149,0,0,9.278,84.02,147.55510938056,61.023624,6,P-GPS,
17200,2025-07-30 09:36:33,43.5574009333056,-5.62102927520111,61.023624,,,147.55510938056,38.713912,31.1158354,241.813656032,244.164377892,24,5,16.62,148.21127738056,61.679792,31.1158354,241.813656032,30.646078,-5.368656,0,342.6, -20.6, 9.5,0,0,1024,1024,1684,1449,0,0,100,64,338.2,-5.6,0,98,4.15,4.149,4.145,4.149,0,0,9.278,84.02,147.55510938056,61.023624,6,P-GPS,
17400,2025-07-30 09:36:34,43.5574257270353,-5.62103493799049,61.023624,,,147.55510938056,38.713912,31.2947906,250.933078896,253.333669524,24,5,16.62,148.21127738056,61.679792,31.2947906,250.933078896,30.869772,-5.144962,0,342.3, -20.3, 11,0,0,1024,1024,1684,1444,0,0,100,64,338.2,-5.6,0,98,4.15,4.149,4.145,4.149,0,0,9.278,84.02,147.55510938056,61.023624,6,P-GPS,
17600,2025-07-30 09:36:34,43.5574507397662,-5.62104028478041,61.023624,,,147.55510938056,38.713912,31.4513764,260.11155688,262.568249872,24,5,16.585,148.21127738056,61.679792,31.4513764,260.11155688,31.093466,-4.697574,0,342, -20, 13,0,0,1024,1024,1684,1442,0,0,100,63,338.2,-5.6,0,98,4.144,4.142,4.137,4.142,0,0,9.919,84.2,147.55510938056,61.023624,6,P-GPS,
17800,2025-07-30 09:36:34,43.557475728696,-5.62104501878821,61.023624,,,147.55510938056,38.713912,31.3618988,269.244103104,271.771006072,24,5,16.585,148.21127738056,61.679792,31.4513764,269.244103104,31.093466,-4.026492,0,342, -20.2, 13.6,0,0,1024,1024,1684,1419,0,0,100,60,338.2,-5.6,0,98,4.144,4.142,4.137,4.142,0,0,9.919,84.2,147.55510938056,61.023624,6,P-GPS,
18000,2025-07-30 09:36:34,43.5575009803523,-5.62104916048484,61.023624,,,147.55510938056,38.713912,31.4961152,278.43504828,281.048893508,24,5,16.585,148.21127738056,61.679792,31.4961152,278.43504828,31.31716,-3.35541,0,341.9, -20.9, 13.4,0,0,1024,1024,1684,1417,0,0,100,60,338.2,-5.6,0,98,4.144,4.142,4.137,4.142,0,0,9.919,84.2,147.55510938056,61.023624,6,P-GPS,
18200,2025-07-30 09:36:34,43.5575262653289,-5.62105269546336,61.023624,,,147.55510938056,38.713912,31.6750704,287.60335566,290.3215316,24,5,16.585,148.21127738056,61.679792,31.6750704,287.60335566,31.540854,-2.908022,0,342.1, -21, 12.4,0,0,1024,1024,1684,1401,0,0,100,57,338.2,-5.6,0,98,4.144,4.142,4.137,4.142,0,0,9.919,84.2,147.55510938056,61.023624,6,P-GPS,
18400,2025-07-30 09:36:35,43.5575517388579,-5.6210558552804,61.023624,,,147.55510938056,38.713912,31.652701,296.821531808,299.652896728,24,5,16.585,148.21127738056,61.679792,31.6750704,296.821531808,31.540854,-2.684328,0,341.9, -21.8, 12.2,0,0,1024,1024,1684,1383,0,0,100,54,338.2,-5.6,0,98,4.144,4.142,4.137,4.142,0,0,9.919,84.2,147.55510938056,61.023624,6,P-GPS,
18600,2025-07-30 09:36:35,43.5575773509524,-5.62105860945481,61.023624,,,147.55510938056,38.713912,31.8540256,306.069891684,309.02560044,24,5,16.552,148.21127738056,61.679792,31.8540256,306.069891684,31.764548,-2.23694,0,342, -22.1, 11.3,0,0,1024,1024,1684,1382,0,0,100,54,338.2,-5.6,0,98,4.134,4.132,4.129,4.135,0,0,10.596,84.2,147.55510938056,61.023624,6,P-GPS,
18800,2025-07-30 09:36:35,43.5576031468453,-5.6210611283105,61.023624,,,147.55510938056,38.713912,32.0553502,315.376650512,318.460968196,24,5,16.552,148.21127738056,61.679792,32.0553502,315.376650512,31.988242,-2.013246,0,342.3, -21.8, 10.4,0,0,1024,1024,1684,1343,0,0,100,48,338.2,-5.6,0,98,4.134,4.132,4.129,4.135,0,0,10.596,84.2,147.55510938056,61.023624,6,P-GPS,
19000,2025-07-30 09:36:35,43.557629061659,-5.62106344750494,61.023624,,,147.55510938056,38.713912,32.2566748,324.721139,327.935706032,24,5,16.552,148.21127738056,61.679792,32.2566748,324.721139,32.211936,-1.789552,0,342.5, -21.9, 9.3,0,0,1024,1024,1684,1348,0,0,100,49,338.2,-5.6,0,98,4.134,4.132,4.129,4.135,0,0,10.596,84.2,147.55510938056,61.023624,6,P-GPS,
19200,2025-07-30 09:36:35,43.5576550664591,-5.62106562983135,61.023624,,,147.55510938056,38.713912,32.2566748,334.09777972,337.44095568,24,5,16.552,148.21127738056,61.679792,32.2566748,334.09777972,32.211936,-1.789552,0,342.5, -22.5, 8.4,0,0,1024,1024,1684,1442,0,0,100,63,338.2,-5.6,0,98,4.134,4.132,4.129,4.135,0,0,10.596,84.2,147.55510938056,61.023624,6,P-GPS,
19400,2025-07-30 09:36:36,43.557681499659,-5.62106793389285,61.023624,,,147.55510938056,38.713912,32.2566748,343.63846244,347.10302948,24,5,16.552,148.21127738056,61.679792,32.2566748,343.63846244,32.211936,-1.789552,0,342.4, -22.5, 9,0,0,1024,1024,1684,1440,0,0,100,63,338.2,-5.6,0,98,4.134,4.132,4.129,4.135,0,0,10.596,84.2,147.55510938056,61.023624,6,P-GPS,
19600,2025-07-30 09:36:36,43.5577078089604,-5.62107010796786,61.023624,,,147.55510938056,38.713912,32.4803688,353.13649424,356.71917152,24,5,16.526,148.21127738056,61.679792,32.4803688,353.13649424,32.43563,-1.789552,0,342, -21.5, 11.5,0,0,1024,1024,1684,1517,0,0,100,75,338.2,-5.6,0,98,4.135,4.133,4.129,4.134,0,0,11.018,84.38,147.55510938056,61.023624,6,P-GPS,
19800,2025-07-30 09:36:36,43.5577335806299,-5.62107205670606,61.023624,,,147.55510938056,38.713912,32.4579994,362.43767564,366.13846316,24,5,16.526,148.21127738056,61.679792,32.4803688,362.43767564,32.43563,-1.342164,0,341.8, -21.1, 13.1,0,0,1024,1024,1684,1585,0,0,100,85,338.2,-5.6,0,98,4.135,4.133,4.129,4.134,0,0,11.018,84.38,147.55510938056,61.023624,6,P-GPS,
20000,2025-07-30 09:36:36,43.557759713989,-5.62107353513622,61.023624,,,147.55510938056,38.713912,32.6816934,371.84712476,375.67914588,24,5,16.526,148.21127738056,61.679792,32.6816934,371.84712476,32.659324,-0.894776,0,341.7, -20, 15.5,0,0,1024,1024,1684,1534,0,0,100,77,338.2,-5.6,0,98,4.135,4.133,4.129,4.134,0,0,11.018,84.38,147.55510938056,61.023624,6,P-GPS,
20200,2025-07-30 09:36:36,43.5577858122709,-5.62107449411102,61.023624,,,147.55510938056,38.713912,32.659324,381.22048464,385.20670524,24,5,16.526,148.21127738056,61.679792,32.6816934,381.22048464,32.659324,-0.223694,0,342, -17.3, 17.6,0,0,1024,1024,1684,1495,0,0,100,71,338.2,-5.6,0,98,4.135,4.133,4.129,4.134,0,0,11.018,84.38,147.55510938056,61.023624,6,P-GPS,
20400,2025-07-30 09:36:36,43.5578119967827,-5.62107454406641,61.023624,,,147.55510938056,38.713912,32.659324,390.58728284,394.76051132,24,5,16.526,148.21127738056,61.679792,32.6816934,390.58728284,32.659324,0.223694,0,341.9, -17.6, 17.5,0,0,1024,1024,1684,1444,0,0,100,64,338.2,-5.6,0,98,4.135,4.133,4.129,4.134,0,0,11.018,84.38,147.55510938056,61.023624,6,P-GPS,
20600,2025-07-30 09:36:37,43.5578381607895,-5.6210737483891,61.023624,,,147.55510938056,38.713912,32.4579994,399.91471096,404.30775572,24,5,16.516,148.21127738056,61.679792,32.6816934,399.91471096,32.43563,0.894776,0,342.1, -19.6, 15,0,0,1024,1024,1684,1476,0,0,100,68,338.2,-5.6,0,98,4.135,4.134,4.132,4.137,0,0,10.822,84.56,147.55510938056,61.023624,6,P-GPS,
20800,2025-07-30 09:36:37,43.5578643624095,-5.62107242703976,61.023624,,,147.55510938056,38.713912,32.4579994,409.2355774,413.87468516,24,5,16.516,148.21127738056,61.679792,32.6816934,409.2355774,32.43563,1.11847,0,342.1, -20.7, 12.7,0,0,1024,1024,1645,1301,0,0,94,42,338.2,-5.6,0,98,4.135,4.134,4.132,4.137,0,0,10.822,84.56,147.55510938056,61.023624,6,P-GPS,
21000,2025-07-30 09:36:37,43.5578905853566,-5.6210707096724,61.023624,,,147.55510938056,38.713912,32.6816934,418.55972468,423.45145712,24,5,16.516,148.21127738056,61.679792,32.6816934,418.55972468,32.659324,1.342164,0,342, -21, 12.4,0,0,1024,1024,1384,1024,0,0,55,0,338.2,-5.6,0,98,4.135,4.134,4.132,4.137,0,0,10.822,84.56,147.55510938056,61.023624,6,P-GPS,
21200,2025-07-30 09:36:37,43.557916831263,-5.62106889198884,61.023624,,,147.55510938056,38.713912,32.7040628,427.89699532,433.0380716,24,5,16.516,148.21127738056,61.679792,32.7040628,427.89699532,32.659324,1.565858,0,343.1, -18.5, 7.1,0,0,1024,1024,1244,1024,0,0,33,0,338.2,-5.6,0,98,4.135,4.134,4.132,4.137,0,0,10.822,84.56,147.55510938056,61.023624,6,P-GPS,
21400,2025-07-30 09:36:37,43.5579432685188,-5.62106731536843,61.023624,,,147.55510938056,38.713912,32.2343054,437.32612948,442.69358372,24,5,16.516,148.21127738056,61.679792,32.7040628,437.32612948,32.211936,1.11847,-0.447388,343.9, -5.9, 0.4,0,0,1024,1024,1280,1024,0,0,39,0,338.2,-5.6,0,98,4.135,4.134,4.132,4.137,0,0,10.822,84.56,147.55510938056,61.023624,6,P-GPS,
21600,2025-07-30 09:36:38,43.5579686580101,-5.62106617134071,61.351708,,,147.88319338056,38.713912,30.6684474,446.4074946,451.96195672,24,5,16.504,148.21127738056,61.679792,32.7040628,446.4074946,30.646078,0.894776,-0.447388,343.9, 3.8, -1.6,0,0,1024,1024,1474,1024,0,0,68,0,338.2,-5.6,0,98,4.147,4.152,4.153,4.162,0,0,10.809,84.56,147.88319338056,61.351708,6,P-GPS,
21800,2025-07-30 09:36:38,43.5579920497046,-5.62106565739382,61.351708,,,147.88319338056,38.713912,28.856526,454.80316416,460.4987024,24,5,16.504,148.21127738056,61.679792,32.7040628,454.80316416,28.856526,0.447388,0,344, 6.2, -0.3,0,0,1024,1024,1684,1655,0,0,100,96,338.2,-5.6,0,98,4.147,4.152,4.153,4.162,0,0,10.809,84.56,147.88319338056,61.351708,6,P-GPS,
22000,2025-07-30 09:36:38,43.5580143947321,-5.62106525967485,61.351708,,,147.88319338056,38.713912,27.290668,462.83137964,468.6515898,24,5,16.504,148.21127738056,61.679792,32.7040628,462.83137964,27.290668,0.223694,0,343.8, -2.9, 1.3,0,0,1024,1024,1684,1572,0,0,100,83,338.2,-5.6,0,98,4.147,4.152,4.153,4.162,0,0,10.809,84.56,147.88319338056,61.351708,6,P-GPS,
22200,2025-07-30 09:36:38,43.5580358925301,-5.62106532984687,61.351708,,,147.88319338056,38.713912,26.619586,470.57744288,476.49607824,24,5,16.504,148.21127738056,61.679792,32.7040628,470.57744288,26.619586,0.223694,0.447388,342.6, -11.7, 14,0,0,1024,1024,1684,1532,0,0,100,77,338.2,-5.6,0,98,4.147,4.152,4.153,4.162,0,0,10.809,84.56,147.88319338056,61.351708,6,P-GPS,
22400,2025-07-30 09:36:39,43.5580573056193,-5.62106474078434,61.023624,,,147.55510938056,38.713912,26.6419554,478.27101268,484.30775828,24,5,16.504,148.21127738056,61.679792,32.7040628,478.27101268,26.619586,0.894776,0.447388,341.7, -16.2, 20.1,0,0,1024,1024,1684,1483,0,0,100,70,338.2,-5.6,0,98,4.147,4.152,4.153,4.162,0,0,10.809,84.56,147.55510938056,61.023624,6,P-GPS,
22600,2025-07-30 09:36:39,43.5580783499903,-5.62106353412411,61.023624,,,147.55510938056,38.713912,27.1340822,485.810383,491.9947664,24,5,16.504,148.21127738056,61.679792,32.7040628,485.810383,27.066974,1.789552,0.223694,341.5, -19.4, 18.9,0,0,1024,1024,1684,1445,0,0,100,64,338.2,-5.6,0,98,4.147,4.152,4.153,4.162,0,0,10.809,84.56,147.55510938056,61.023624,6,P-GPS,
22800,2025-07-30 09:36:39,43.5581002302147,-5.62106130410877,61.023624,,,147.55510938056,38.713912,27.6038396,493.61550136,499.99673516,24,5,16.675,148.21127738056,61.679792,32.7040628,493.61550136,27.514362,2.23694,0,341.9, -21, 15.2,0,0,1024,1024,1684,1417,0,0,100,60,338.2,-5.6,0,98,4.145,4.142,4.136,4.138,0,0,6.355,84.74,147.55510938056,61.023624,6,P-GPS,
23000,2025-07-30 09:36:39,43.5581227990793,-5.62105860367312,61.023624,,,147.55510938056,38.713912,28.073597,501.6568402,508.26445196,24,5,16.675,148.21127738056,61.679792,32.7040628,501.6568402,27.96175,2.460634,0,342.2, -21.6, 12.2,0,0,1024,1024,1684,1382,0,0,100,54,338.2,-5.6,0,98,4.145,4.142,4.136,4.138,0,0,6.355,84.74,147.55510938056,61.023624,6,P-GPS,
23200,2025-07-30 09:36:39,43.5581456760773,-5.62105569390443,61.023624,,,147.55510938056,38.713912,28.520985,509.8097276,516.64371732,24,5,16.675,148.21127738056,61.679792,32.7040628,509.8097276,28.409138,2.460634,0,342.4, -21.5, 9.7,0,0,1024,1024,1684,1294,0,0,100,41,338.2,-5.6,0,98,4.145,4.142,4.136,4.138,0,0,6.355,84.74,147.55510938056,61.023624,6,P-GPS,
23400,2025-07-30 09:36:40,43.558169083114,-5.62105278246049,61.023624,,,147.55510938056,38.713912,28.7223096,518.1594654,525.21983308,24,5,16.675,148.21127738056,61.679792,32.7040628,518.1594654,28.632832,2.23694,0,342.6, -22.2, 8.4,0,0,1024,1024,1684,1245,0,0,100,33,338.2,-5.7,0,98,4.145,4.142,4.136,4.138,0,0,6.355,84.74,147.55510938056,61.023624,6,P-GPS,
23600,2025-07-30 09:36:40,43.5581924753583,-5.62105023416723,61.023624,,,147.55510938056,38.713912,28.9236342,526.5256074,533.77954464,24,5,16.675,148.21127738056,61.679792,32.7040628,526.5256074,28.856526,2.013246,0,342.9, -23.2, 6.4,0,0,1024,1024,1684,1200,0,0,100,27,338.2,-6.8,0,98,4.145,4.142,4.136,4.138,0,0,6.355,84.74,147.55510938056,61.023624,6,P-GPS,
23800,2025-07-30 09:36:40,43.5582161690429,-5.62104812196176,61.023624,,,147.55510938056,38.713912,29.3486528,535.022983,542.44424308,24,5,16.502,148.21127738056,61.679792,32.7040628,535.022983,29.303914,1.565858,0,343.3, -22.8, 4.1,0,0,1024,1024,1684,1200,0,0,100,27,338.2,-7.3,0,98,4.132,4.13,4.127,4.128,0,0,11.193,84.74,147.55510938056,61.023624,6,P-GPS,
24000,2025-07-30 09:36:40,43.5582399653583,-5.62104659955711,61.023624,,,147.55510938056,38.713912,29.5499774,543.57941372,551.13518824,24,5,16.502,148.21127738056,61.679792,32.7040628,543.57941372,29.527608,0.894776,0,343.2, -23.4, 3.2,0,0,1024,1024,1684,1182,0,0,100,24,338.2,-7.4,0,98,4.132,4.13,4.127,4.128,0,0,11.193,84.74,147.55510938056,61.023624,6,P-GPS,
24200,2025-07-30 09:36:40,43.5582639369979,-5.62104578156445,61.023624,,,147.55510938056,38.713912,29.751302,552.2309888,559.88518852,24,5,16.502,148.21127738056,61.679792,32.7040628,552.2309888,29.751302,0.447388,0,343.2, -23.6, 3.4,0,0,1024,1024,1684,1128,0,0,100,16,338.2,-7.4,0,98,4.132,4.13,4.127,4.128,0,0,11.193,84.74,147.55510938056,61.023624,6,P-GPS,
24400,2025-07-30 09:36:41,43.5582880339314,-5.62104555885045,61.023624,,,147.55510938056,38.713912,29.974996,560.94818068,568.67455888,24,5,16.502,148.21127738056,61.679792,32.7040628,560.94818068,29.974996,0,0,343.2, -23.5, 3.1,0,0,1024,1024,1684,1072,0,0,100,7,338.2,-7.4,0,98,4.132,4.13,4.127,4.128,0,0,11.193,84.74,147.55510938056,61.023624,6,P-GPS,
24600,2025-07-30 09:36:41,43.5583123493429,-5.62104603000656,61.023624,,,147.55510938056,38.713912,30.19869,569.7670786,577.54923108,24,5,16.502,148.21127738056,61.679792,32.7040628,569.7670786,30.19869,-0.447388,0,343.4, -23.3, 2,0,0,1024,1024,1684,1076,0,0,100,8,338.2,-7.4,0,98,4.132,4.13,4.127,4.128,0,0,11.193,84.74,147.55510938056,61.023624,6,P-GPS,
24800,2025-07-30 09:36:41,43.5583368216876,-5.62104711187897,61.023624,,,147.55510938056,38.713912,30.2210594,578.66471668,586.4829584,24,5,16.507,148.21127738056,61.679792,32.7040628,578.66471668,30.19869,-1.11847,0,343.5, -23.1, 1.8,0,0,1024,1024,1684,1078,0,0,100,8,338.2,-7.4,0,98,4.128,4.126,4.122,4.126,0,0,10.67,84.92,147.55510938056,61.023624,6,P-GPS,
25000,2025-07-30 09:36:41,43.5583615134935,-5.62104885111682,61.023624,,,147.55510938056,38.713912,30.4671228,587.6640608,595.50198756,24,5,16.507,148.21127738056,61.679792,32.7040628,587.6640608,30.422384,-1.565858,0,343.5, -22.9, 1.5,0,0,1024,1024,1684,1078,0,0,100,8,338.2,-7.4,0,98,4.128,4.126,4.122,4.126,0,0,10.67,84.92,147.55510938056,61.023624,6,P-GPS,
25200,2025-07-30 09:36:41,43.5583862602644,-5.62105115617444,61.023624,,,147.55510938056,38.713912,30.7131862,596.702775,604.55054428,24,5,16.507,148.21127738056,61.679792,32.7040628,596.702775,30.646078,-2.013246,0,343.6, -22.6, 0.9,0,0,1024,1024,1684,1078,0,0,100,8,338.2,-7.4,0,98,4.128,4.126,4.122,4.126,0,0,10.67,84.92,147.55510938056,61.023624,6,P-GPS,
25400,2025-07-30 09:36:42,43.5584114517028,-5.6210540835148,61.023624,,,147.55510938056,38.713912,30.981619,605.9219354,613.77626636,24,5,16.507,148.21127738056,61.679792,32.7040628,605.9219354,30.869772,-2.684328,0,343.5, -22.3, 1.1,0,0,1024,1024,1684,1077,0,0,100,8,338.2,-7.4,0,98,4.128,4.126,4.122,4.126,0,0,10.67,84.92,147.55510938056,61.023624,6,P-GPS,
25600,2025-07-30 09:36:42,43.5584365774482,-5.62105757661605,61.023624,,,147.55510938056,38.713912,31.0263578,615.13453412,622.98886508,24,5,16.507,148.21127738056,61.679792,32.7040628,615.13453412,30.869772,-3.131716,0,343.4, -21.7, 1.5,0,0,1024,1024,1684,1063,0,0,100,6,338.2,-7.4,0,98,4.128,4.126,4.122,4.126,0,0,10.67,84.92,147.55510938056,61.023624,6,P-GPS,
25800,2025-07-30 09:36:42,43.558461192245,-5.621061476438,61.023624,,,147.55510938056,38.713912,31.0710966,624.17324832,632.02757928,24,5,16.507,148.21127738056,61.679792,32.7040628,624.17324832,30.869772,-3.579104,0,343.5, -21.6, 1.7,0,0,1024,1024,1684,1065,0,0,100,6,338.2,-7.4,0,98,4.139,4.139,4.135,4.139,0,0,10.67,84.92,147.55510938056,61.023624,6,P-GPS,
26000,2025-07-30 09:36:42,43.5584861272008,-5.62106583668958,61.023624,,,147.55510938056,38.713912,31.3618988,633.34319612,641.19752708,23,5,16.507,148.21127738056,61.679792,32.7040628,633.34319612,31.093466,-4.026492,0,343.5, -21.9, 1.6,0,0,1024,1024,1684,1080,0,0,100,8,338.2,-7.4,0,98,4.139,4.139,4.135,4.139,0,0,10.67,84.92,147.55510938056,61.023624,6,P-GPS,
26200,2025-07-30 09:36:42,43.558511120972,-5.62107057702799,61.023624,,,147.55510938056,38.713912,31.3842682,642.54595232,650.40356412,23,5,16.507,148.21127738056,61.679792,32.7040628,642.54595232,31.093466,-4.250186,0,343.4, -22.3, 1.9,0,0,1024,1024,1684,1078,0,0,100,8,338.2,-7.4,0,98,4.139,4.139,4.135,4.139,0,0,10.67,84.92,147.55510938056,61.023624,6,P-GPS,
26400,2025-07-30 09:36:42,43.5585364401476,-5.62107575118825,61.023624,,,147.55510938056,38.713912,31.6750704,651.87994212,659.74083476,23,5,16.507,148.21127738056,61.679792,32.7040628,651.87994212,31.31716,-4.697574,0,343.5, -21.8, 1.4,0,0,1024,1024,1684,1061,0,0,100,6,338.2,-7.4,0,98,4.139,4.139,4.135,4.139,0,0,10.67,84.92,147.55510938056,61.023624,6,P-GPS,
26600,2025-07-30 09:36:43,43.5585619826104,-5.62108128384459,61.023624,,,147.55510938056,38.713912,31.6974398,661.30579544,669.17324976,23,5,16.507,148.21127738056,61.679792,32.7040628,661.30579544,31.31716,-4.921268,0,343.5, -21.5, 1.3,0,0,1024,1024,1684,1047,0,0,100,3,338.2,-7.4,0,98,4.139,4.139,4.135,4.139,0,0,10.67,84.92,147.55510938056,61.023624,6,P-GPS,
26800,2025-07-30 09:36:43,43.5585871928028,-5.62108717451655,61.023624,,,147.55510938056,38.713912,31.764548,670.62666188,678.50395872,24,5,16.538,148.21127738056,61.679792,32.7040628,670.62666188,31.31716,-5.368656,0,343.6, -21.2, 1,0,0,1024,1024,1684,1024,0,0,100,0,338.2,-7.4,0,98,4.138,4.138,4.135,4.139,0,0,10.202,84.92,147.55510938056,61.023624,6,P-GPS,
27000,2025-07-30 09:36:43,43.5586123653382,-5.62109337606751,61.023624,,,147.55510938056,38.713912,32.0329808,679.94096664,687.83138684,24,5,16.538,148.21127738056,61.679792,32.7040628,679.94096664,31.540854,-5.59235,0,343.6, -20.9, 1.2,0,0,1024,1024,1684,1024,0,0,100,0,338.2,-7.4,0,98,4.138,4.138,4.135,4.139,0,0,10.202,84.92,147.55510938056,61.023624,6,P-GPS,
27200,2025-07-30 09:36:43,43.5586377065819,-5.62109992938454,61.023624,,,147.55510938056,38.713912,32.1224584,689.32744988,697.24083596,24,5,16.538,148.21127738056,61.679792,32.7040628,689.32744988,31.540854,-6.039738,0,343.5, -21.2, 1.8,0,0,1024,1024,1684,1031,0,0,100,1,338.2,-7.4,0,98,4.138,4.138,4.135,4.139,0,0,10.202,84.92,147.55510938056,61.023624,6,P-GPS,
27400,2025-07-30 09:36:43,43.5586630772834,-5.62110674583692,61.023624,,,147.55510938056,38.713912,32.1224584,698.73361816,706.66997012,24,5,16.538,148.21127738056,61.679792,32.7040628,698.73361816,31.540854,-6.039738,0,343.5, -21.4, 1.1,0,0,1024,1024,1684,1036,0,0,100,2,338.2,-7.6,0,98,4.138,4.138,4.135,4.139,0,0,10.202,84.92,147.55510938056,61.023624,6,P-GPS,
27600,2025-07-30 09:36:44,43.5586884910373,-5.6211139033931,61.023624,,,147.55510938056,38.713912,32.211936,708.16603316,716.13191268,24,5,16.538,148.21127738056,61.679792,32.7040628,708.16603316,31.540854,-6.487126,0,343.5, -21.2, 1.4,0,0,1024,1024,1684,1033,0,0,100,1,338.2,-8.3,0,98,4.138,4.138,4.135,4.139,0,0,10.202,84.92,147.55510938056,61.023624,6,P-GPS,
27800,2025-07-30 09:36:44,43.5587139354948,-5.62112142072197,61.023624,,,147.55510938056,38.713912,32.2566748,717.62469488,725.62666364,24,5,16.537,148.21127738056,61.679792,32.7040628,717.62469488,31.540854,-6.71082,0,343.4, -21.7, 2.3,0,0,1024,1024,1684,1044,0,0,100,3,338.2,-8.6,0,98,4.132,4.132,4.129,4.132,0,0,9.528,85.1,147.55510938056,61.023624,6,P-GPS,
28000,2025-07-30 09:36:44,43.5587394259955,-5.62112914810662,61.023624,,,147.55510938056,38.713912,32.3014136,727.10632248,735.14766132,24,5,16.537,148.21127738056,61.679792,32.7040628,727.10632248,31.540854,-6.934514,0,343.3, -21.6, 2.6,0,0,1024,1024,1684,1044,0,0,100,3,338.2,-8.7,0,98,4.132,4.132,4.129,4.132,0,0,9.528,85.1,147.55510938056,61.023624,6,P-GPS,
28200,2025-07-30 09:36:44,43.5587649466641,-5.62113711566492,61.023624,,,147.55510938056,38.713912,32.5698464,736.60763512,744.69490572,24,5,16.537,148.21127738056,61.679792,32.7040628,736.60763512,31.764548,-7.158208,0,343.4, -21.4, 2.2,0,0,1024,1024,1684,1042,0,0,100,3,338.2,-8.7,0,98,4.132,4.132,4.129,4.132,0,0,9.528,85.1,147.55510938056,61.023624,6,P-GPS,
28400,2025-07-30 09:36:44,43.5587904854384,-5.62114523972602,61.023624,,,147.55510938056,38.713912,32.5698464,746.12535196,754.25855432,24,5,16.537,148.21127738056,61.679792,32.7040628,746.12535196,31.764548,-7.158208,0,343.4, -21.2, 2.3,0,0,1024,1024,1684,1040,0,0,100,2,338.2,-8.7,0,98,4.132,4.132,4.129,4.132,0,0,9.528,85.1,147.55510938056,61.023624,6,P-GPS,
28600,2025-07-30 09:36:45,43.5588160322873,-5.62115356060292,61.023624,,,147.55510938056,38.713912,32.6145852,755.64963048,763.83532628,24,5,16.537,148.21127738056,61.679792,32.7040628,755.64963048,31.764548,-7.381902,0,343.2, -21.7, 2.7,0,0,1024,1024,1684,1040,0,0,100,2,338.2,-8.7,0,98,4.132,4.132,4.129,4.132,0,0,9.528,85.1,147.55510938056,61.023624,6,P-GPS,
28800,2025-07-30 09:36:45,43.5588416757581,-5.62116200772085,61.023624,,,147.55510938056,38.713912,32.659324,765.21655992,773.45474916,24,5,16.544,148.21127738056,61.679792,32.7040628,765.21655992,31.764548,-7.605596,0,343.2, -21.7, 2.8,0,0,1024,1024,1684,1076,0,0,100,8,338.2,-8.7,0,98,4.126,4.123,4.121,4.125,0,0,9.348,85.1,147.55510938056,61.023624,6,P-GPS,
29000,2025-07-30 09:36:45,43.5588672844508,-5.62117052599118,61.023624,,,147.55510938056,38.713912,32.659324,774.77364684,783.06432952,24,5,16.544,148.21127738056,61.679792,32.7040628,774.77364684,31.764548,-7.605596,0,343.3, -21.1, 2.2,0,0,1024,1024,1684,1049,0,0,100,4,338.2,-9.2,0,98,4.126,4.123,4.121,4.125,0,0,9.348,85.1,147.55510938056,61.023624,6,P-GPS,
29200,2025-07-30 09:36:45,43.5588929489058,-5.6211792093599,61.023624,,,147.55510938056,38.713912,32.7040628,784.36026132,792.70671828,24,5,16.544,148.21127738056,61.679792,32.7040628,784.36026132,31.764548,-7.82929,0,343.3, -21.3, 2.5,0,0,1024,1024,1684,1047,0,0,100,3,338.2,-10.9,0,98,4.126,4.123,4.121,4.125,0,0,9.348,85.1,147.55510938056,61.023624,6,P-GPS,
29400,2025-07-30 09:36:46,43.5589185533116,-5.62118803913617,61.023624,,,147.55510938056,38.713912,32.7040628,793.92719076,802.33598368,24,5,16.544,148.21127738056,61.679792,32.7040628,793.92719076,31.764548,-7.82929,0,343.4, -21.8, 2.5,0,0,1024,1024,1684,1045,0,0,100,3,338.2,-11.7,0,98,4.126,4.123,4.121,4.125,0,0,9.348,85.1,147.55510938056,61.023624,6,P-GPS,
29600,2025-07-30 09:36:46,43.558944214614,-5.62119697148709,61.023624,,,147.55510938056,38.713912,32.771171,803.52364776,811.9914958,24,5,16.544,148.21127738056,61.679792,32.771171,803.52364776,31.764548,-8.052984,0,343.3, -22.1, 2.7,0,0,1024,1024,1684,1040,0,0,100,2,338.2,-11.8,0,98,4.126,4.123,4.121,4.125,0,0,9.348,85.1,147.55510938056,61.023624,6,P-GPS,
29800,2025-07-30 09:36:46,43.5589698877046,-5.6212060341572,61.023624,,,147.55510938056,38.713912,32.994865,813.12994728,821.66013128,24,5,16.505,148.21127738056,61.679792,32.994865,813.12994728,31.988242,-8.052984,0,343.3, -21.7, 2.5,0,0,1024,1024,1684,1037,0,0,100,2,338.2,-11.8,0,98,4.125,4.125,4.12,4.125,0,0,10.099,85.28,147.55510938056,61.023624,6,P-GPS,
30000,2025-07-30 09:36:46,43.5589956726443,-5.621215204213,61.023624,,,147.55510938056,38.713912,33.0396038,822.78217856,831.37469852,24,5,16.505,148.21127738056,61.679792,33.0396038,822.78217856,31.988242,-8.276678,0,343.3, -20.9, 2.6,0,0,1024,1024,1684,1032,0,0,100,1,338.2,-11.8,0,98,4.125,4.125,4.12,4.125,0,0,10.099,85.28,147.55510938056,61.023624,6,P-GPS,
30200,2025-07-30 09:36:46,43.5590218053308,-5.62122456156679,61.023624,,,147.55510938056,38.713912,33.0396038,832.56564344,841.2237802,24,5,16.505,148.21127738056,61.679792,33.0396038,832.56564344,31.988242,-8.276678,0,343.5, -21.1, 1.9,0,0,1024,1024,1684,1032,0,0,100,1,338.2,-11.8,0,98,4.125,4.125,4.12,4.125,0,0,10.099,85.28,147.55510938056,61.023624,6,P-GPS,
30400,2025-07-30 09:36:47,43.559047759689,-5.6212339443133,61.023624,,,147.55510938056,38.713912,33.0396038,842.2900532,851.01380676,24,5,16.505,148.21127738056,61.679792,33.0396038,842.2900532,31.988242,-8.276678,0,343.5, -21.7, 1.5,0,0,1024,1024,1684,1032,0,0,100,1,338.2,-11.8,0,98,4.125,4.125,4.12,4.125,0,0,10.099,85.28,147.55510938056,61.023624,6,P-GPS,
30600,2025-07-30 09:36:47,43.5590730351391,-5.62124327424188,61.023624,,,147.55510938056,38.713912,33.106712,851.76839996,860.55777032,26,5,16.505,148.21127738056,61.679792,33.106712,851.76839996,31.988242,-8.500372,0,343.4, -21.7, 1.9,0,0,1024,1024,1684,1040,0,0,100,2,338.2,-11.8,0,98,4.125,4.125,4.12,4.125,0,0,10.099,85.28,147.55510938056,61.023624,6,P-GPS,
30800,2025-07-30 09:36:47,43.5590986115952,-5.621252833553,61.023624,,,147.55510938056,38.713912,33.106712,861.36485696,870.2264058,26,5,16.502,148.21127738056,61.679792,33.106712,861.36485696,31.988242,-8.500372,0,343.3, -22, 2.2,0,0,1024,1024,1684,1039,0,0,100,2,338.2,-11.8,0,97,4.126,4.124,4.12,4.125,0,0,10.311,85.28,147.55510938056,61.023624,6,P-GPS,
31000,2025-07-30 09:36:47,43.5591241027937,-5.62126258304703,61.023624,,,147.55510938056,38.713912,33.1514508,870.94162892,879.87863708,26,5,16.502,148.21127738056,61.679792,33.1514508,870.94162892,31.988242,-8.724066,0,343.2, -21.9, 3,0,0,1024,1024,1684,1024,0,0,100,0,338.2,-11.8,0,97,4.126,4.124,4.12,4.125,0,0,10.311,85.28,147.55510938056,61.023624,6,P-GPS,
31200,2025-07-30 09:36:47,43.5591497831489,-5.62127239765305,61.023624,,,147.55510938056,38.713912,33.1514508,880.58729852,889.599766,26,5,16.502,148.21127738056,61.679792,33.1514508,880.58729852,31.988242,-8.724066,0,343.1, -21.9, 3.6,0,0,1024,1024,1684,1037,0,0,100,2,338.2,-11.8,0,97,4.126,4.124,4.12,4.125,0,0,10.311,85.28,147.55510938056,61.023624,6,P-GPS,
31400,2025-07-30 09:36:48,43.5591755106562,-5.62128228139052,61.023624,,,147.55510938056,38.713912,33.1514508,890.255934,899.3438608,26,5,16.502,148.21127738056,61.679792,33.1514508,890.255934,31.988242,-8.724066,0,343.2, -21.7, 3.1,0,0,1024,1024,1684,1047,0,0,100,3,338.2,-11.8,0,97,4.126,4.124,4.12,4.125,0,0,10.311,85.28,147.55510938056,61.023624,6,P-GPS,
31600,2025-07-30 09:36:48,43.5592013198573,-5.62129214772703,61.023624,,,147.55510938056,38.713912,33.1514508,899.95409704,909.11420232,26,5,16.502,148.21127738056,61.679792,33.1514508,899.95409704,31.988242,-8.724066,0,343.2, -21.7, 3,0,0,1024,1024,1684,1100,0,0,100,12,338.2,-11.8,0,97,4.126,4.124,4.12,4.125,0,0,10.311,85.28,147.55510938056,61.023624,6,P-GPS,
31800,2025-07-30 09:36:48,43.5592271293325,-5.62130207520375,61.023624,,,147.55510938056,38.713912,33.1514508,909.65882176,918.89110552,26,5,16.507,148.21127738056,61.679792,33.1514508,909.65882176,31.988242,-8.724066,0,343.3, -21.7, 2.8,0,0,1024,1024,1684,1159,0,0,100,20,338.2,-11.8,0,97,4.125,4.123,4.12,4.124,0,0,10.231,85.46,147.55510938056,61.023624,6,P-GPS,
32000,2025-07-30 09:36:48,43.5592530007634,-5.62131194976778,61.023624,,,147.55510938056,38.713912,33.1514508,919.38323152,928.68441292,26,5,16.507,148.21127738056,61.679792,33.1514508,919.38323152,31.988242,-8.724066,0,343.3, -21.7, 2.2,0,0,1024,1024,1684,1187,0,0,100,25,338.2,-11.8,0,97,4.125,4.123,4.12,4.124,0,0,10.231,85.46,147.55510938056,61.023624,6,P-GPS,
32200,2025-07-30 09:36:48,43.5592788689046,-5.62132190717653,61.023624,,,147.55510938056,38.713912,33.3751448,929.11092212,938.48100116,26,5,16.507,148.21127738056,61.679792,33.3751448,929.11092212,32.211936,-8.724066,0,343.2, -21.5, 2.8,0,0,1024,1024,1684,1218,0,0,100,29,338.2,-11.8,0,97,4.125,4.123,4.12,4.124,0,0,10.231,85.46,147.55510938056,61.023624,6,P-GPS,
32400,2025-07-30 09:36:49,43.5593047663916,-5.62133180941816,61.023624,,,147.55510938056,38.713912,33.442253,938.85173608,948.28743192,26,5,16.507,148.21127738056,61.679792,33.442253,938.85173608,32.211936,-8.94776,0,343, -21.2, 3.7,0,0,1024,1024,1684,1204,0,0,100,27,338.2,-11.8,0,97,4.125,4.123,4.12,4.124,0,0,10.231,85.46,147.55510938056,61.023624,6,P-GPS,
32600,2025-07-30 09:36:49,43.5593306375356,-5.62134166514674,61.023624,,,147.55510938056,38.713912,33.3751448,948.57942668,958.07745848,26,5,16.507,148.21127738056,61.679792,33.442253,948.57942668,32.211936,-8.724066,0,343.1, -21.1, 5,0,0,1024,1024,1684,1220,0,0,100,30,338.2,-11.8,0,97,4.125,4.123,4.12,4.124,0,0,10.231,85.46,147.55510938056,61.023624,6,P-GPS,
32800,2025-07-30 09:36:49,43.5593565149976,-5.62135135941013,61.023624,,,147.55510938056,38.713912,33.3080366,958.30383644,967.86092336,26,5,16.502,148.21127738056,61.679792,33.442253,958.30383644,32.211936,-8.500372,0,343.3, -21.4, 4.9,0,0,1024,1024,1684,1219,0,0,100,30,338.2,-11.8,0,97,4.128,4.126,4.123,4.128,0,0,10.093,85.46,147.55510938056,61.023624,6,P-GPS,
33000,2025-07-30 09:36:49,43.559382377656,-5.62136090779754,61.023624,,,147.55510938056,38.713912,33.3080366,968.01840368,977.63126488,26,5,16.502,148.21127738056,61.679792,33.442253,968.01840368,32.211936,-8.500372,0,343.1, -22.1, 5.2,0,0,1024,1024,1684,1228,0,0,100,31,338.2,-11.8,0,97,4.128,4.126,4.123,4.128,0,0,10.093,85.46,147.55510938056,61.023624,6,P-GPS,
33200,2025-07-30 09:36:49,43.5594083697086,-5.62137030373607,61.023624,,,147.55510938056,38.713912,33.2632978,977.77562184,987.4344148,26,5,16.502,148.21127738056,61.679792,33.442253,977.77562184,32.211936,-8.276678,0,343.2, -21.6, 5.1,0,0,1024,1024,1684,1229,0,0,100,31,338.2,-11.8,0,97,4.128,4.126,4.123,4.128,0,0,10.093,85.46,147.55510938056,61.023624,6,P-GPS,
